[{"virtual_rental_type_id": 2, "car_plate": "FE563HA", "virtual_rental_id": 402718, "car_category_id": 8, "car_category_type_id": 1, "lon": 15.057452, "carModelData": [99, 100], "car_name": "Fiat 500", "onClick_disabled": false, "address": "Via Fiorita, 21A, 95123 Catania CT", "lat": 37.522217, "fuel_level": 64}, {"virtual_rental_type_id": 2, "car_plate": "FE583HA", "virtual_rental_id": 409051, "car_category_id": 8, "car_category_type_id": 1, "lon": 15.057037, "carModelData": [99, 100], "car_name": "Fiat 500", "onClick_disabled": false, "address": "Via Armando Diaz, 3, 95123 Catania CT", "lat": 37.510174, "fuel_level": 72}, {"virtual_rental_type_id": 2, "car_plate": "FE509HA", "virtual_rental_id": 402688, "car_category_id": 8, "car_category_type_id": 1, "lon": 15.101088, "carModelData": [99, 100], "car_name": "Fiat 500", "onClick_disabled": false, "address": "Via Calatafimi, 14-22, 95129 Catania CT", "lat": 37.512074, "fuel_level": 90}, {"virtual_rental_type_id": 2, "car_plate": "FE690DZ", "virtual_rental_id": 408034, "car_category_id": 8, "car_category_type_id": 1, "lon": 15.110966, "carModelData": [99, 100], "car_name": "Fiat 500", "onClick_disabled": false, "address": "Via Borgetti, 29, 95126 Catania CT", "lat": 37.52235, "fuel_level": 35}, {"virtual_rental_type_id": 2, "car_plate": "FE678DZ", "virtual_rental_id": 402697, "car_category_id": 8, "car_category_type_id": 1, "lon": 15.073736, "carModelData": [99, 100], "car_name": "Fiat 500", "onClick_disabled": false, "address": "Via Ferrante Aporti, 11, 95123 Catania CT", "lat": 37.514294, "fuel_level": 46}, {"virtual_rental_type_id": 2, "car_plate": "FE540HA", "virtual_rental_id": 402694, "car_category_id": 8, "car_category_type_id": 1, "lon": 15.078355, "carModelData": [99, 100], "car_name": "Fiat 500", "onClick_disabled": false, "address": "Via Fiorentino, 20, 95124 Catania CT", "lat": 37.508156, "fuel_level": 64}, {"virtual_rental_type_id": 2, "car_plate": "FE675DZ", "virtual_rental_id": 408437, "car_category_id": 8, "car_category_type_id": 1, "lon": 15.052012, "carModelData": [99, 100], "car_name": "Fiat 500", "onClick_disabled": false, "address": "Via Paolo Orsi, 19, 95122 Catania CT", "lat": 37.51525, "fuel_level": 64}, {"virtual_rental_type_id": 2, "car_plate": "FE554HA", "virtual_rental_id": 402731, "car_category_id": 8, "car_category_type_id": 1, "lon": 15.051624, "carModelData": [99, 100], "car_name": "Fiat 500", "onClick_disabled": false, "address": "Via Galileo Galilei, 2, 95122 Catania CT", "lat": 37.514538, "fuel_level": 41}, {"virtual_rental_type_id": 2, "car_plate": "FE688DZ", "virtual_rental_id": 402727, "car_category_id": 8, "car_category_type_id": 1, "lon": 15.069317, "carModelData": [99, 100], "car_name": "Fiat 500", "onClick_disabled": false, "address": "Viale Mario Rapisardi, 183, 95124 Catania CT", "lat": 37.510654, "fuel_level": 100}, {"virtual_rental_type_id": 2, "car_plate": "FE667DZ", "virtual_rental_id": 407017, "car_category_id": 8, "car_category_type_id": 1, "lon": 15.081479, "carModelData": [99], "car_name": "Fiat 500", "onClick_disabled": false, "address": "Via Ardizzone Gioeni, 6, 95125 Catania CT", "lat": 37.52592, "fuel_level": 47}, {"virtual_rental_type_id": 2, "car_plate": "FE588HA", "virtual_rental_id": 409049, "car_category_id": 8, "car_category_type_id": 1, "lon": 15.080547, "carModelData": [99, 100], "car_name": "Fiat 500", "onClick_disabled": false, "address": "Via Randazzo, 20, 95125 Catania CT", "lat": 37.5224, "fuel_level": 36}, {"virtual_rental_type_id": 2, "car_plate": "FE711DZ", "virtual_rental_id": 402956, "car_category_id": 8, "car_category_type_id": 1, "lon": 15.07905, "carModelData": [99, 100], "car_name": "Fiat 500", "onClick_disabled": false, "address": "Via Ingegnere, 61, 95125 Catania CT", "lat": 37.52296, "fuel_level": 80}, {"virtual_rental_type_id": 2, "car_plate": "FE717DZ", "virtual_rental_id": 402707, "car_category_id": 8, "car_category_type_id": 1, "lon": 15.054698, "carModelData": [99, 100], "car_name": "Fiat 500", "onClick_disabled": false, "address": "Via Generale Ameglio, 22, 95123 Catania CT", "lat": 37.512993, "fuel_level": 48}, {"virtual_rental_type_id": 2, "car_plate": "FE684DZ", "virtual_rental_id": 409054, "car_category_id": 8, "car_category_type_id": 1, "lon": 15.077228, "carModelData": [99, 100], "car_name": "Fiat 500", "onClick_disabled": false, "address": "Via Piedimonte, 6, 95125 Catania CT", "lat": 37.52319, "fuel_level": 100}, {"virtual_rental_type_id": 2, "car_plate": "FE546HA", "virtual_rental_id": 402685, "car_category_id": 8, "car_category_type_id": 1, "lon": 15.100211, "carModelData": [99, 100], "car_name": "Fiat 500", "onClick_disabled": false, "address": "Piazza Papa Giovanni XXIII, 4, 95129 Catania CT", "lat": 37.507103, "fuel_level": 47}, {"virtual_rental_type_id": 2, "car_plate": "FE697DZ", "virtual_rental_id": 408490, "car_category_id": 8, "car_category_type_id": 1, "lon": 15.11881, "carModelData": [99, 100], "car_name": "Fiat 500", "onClick_disabled": false, "address": "Ospedale Cannizzaro, 95126 Catania CT", "lat": 37.54363, "fuel_level": 50}, {"virtual_rental_type_id": 2, "car_plate": "FE559HA", "virtual_rental_id": 402721, "car_category_id": 8, "car_category_type_id": 1, "lon": 15.121242, "carModelData": [99, 100], "car_name": "Fiat 500", "onClick_disabled": false, "address": "Via Acicastello, 34, 95126 Catania CT", "lat": 37.53468, "fuel_level": 77}, {"virtual_rental_type_id": 2, "car_plate": "FE670DZ", "virtual_rental_id": 409064, "car_category_id": 8, "car_category_type_id": 1, "lon": 15.094858, "carModelData": [99, 100], "car_name": "Fiat 500", "onClick_disabled": false, "address": "Via Cagliari, 70, 95127 Catania CT", "lat": 37.521202, "fuel_level": 95}, {"virtual_rental_type_id": 2, "car_plate": "FE505HA", "virtual_rental_id": 408035, "car_category_id": 8, "car_category_type_id": 1, "lon": 15.091469, "carModelData": [99, 100], "car_name": "Fiat 500", "onClick_disabled": false, "address": "Via Generale di San Marzano, 14, 95125 Catania CT", "lat": 37.536602, "fuel_level": 73}, {"virtual_rental_type_id": 2, "car_plate": "FE679DZ", "virtual_rental_id": 409060, "car_category_id": 8, "car_category_type_id": 1, "lon": 15.092599, "carModelData": [99, 100], "car_name": "Fiat 500", "onClick_disabled": false, "address": "Viale della Costituzione, 1E, 95125 Catania CT", "lat": 37.53594, "fuel_level": 50}, {"virtual_rental_type_id": 2, "car_plate": "FE714DZ", "virtual_rental_id": 402799, "car_category_id": 8, "car_category_type_id": 1, "lon": 15.084408, "carModelData": [99, 100], "car_name": "Fiat 500", "onClick_disabled": false, "address": "Via Pacini, 29, 95124 Catania CT", "lat": 37.509235, "fuel_level": 83}, {"virtual_rental_type_id": 2, "car_plate": "FE703DZ", "virtual_rental_id": 402700, "car_category_id": 8, "car_category_type_id": 1, "lon": 15.071441, "carModelData": [99, 100], "car_name": "Fiat 500", "onClick_disabled": false, "address": "Via Fiducia Saverio, 6, 95125 Catania CT", "lat": 37.54087, "fuel_level": 47}, {"virtual_rental_type_id": 2, "car_plate": "FE517HA", "virtual_rental_id": 402690, "car_category_id": 8, "car_category_type_id": 1, "lon": 15.095986, "carModelData": [99, 100], "car_name": "Fiat 500", "onClick_disabled": false, "address": "Via Archimede, 133, 95131 Catania CT", "lat": 37.50819, "fuel_level": 50}, {"virtual_rental_type_id": 2, "car_plate": "FE685DZ", "virtual_rental_id": 437557, "car_category_id": 8, "car_category_type_id": 1, "lon": 15.083052, "carModelData": [99, 100], "car_name": "Fiat 500", "onClick_disabled": false, "address": "Via Empedocle, 43, 95125 Catania CT", "lat": 37.51911, "fuel_level": 84}, {"virtual_rental_type_id": 2, "car_plate": "FE585HA", "virtual_rental_id": 408996, "car_category_id": 8, "car_category_type_id": 1, "lon": 15.058781, "carModelData": [99, 100], "car_name": "Fiat 500", "onClick_disabled": false, "address": "Via Fondo Cosentino, 154, 95123 Catania CT", "lat": 37.519962, "fuel_level": 40}, {"virtual_rental_type_id": 2, "car_plate": "FE589HA", "virtual_rental_id": 408989, "car_category_id": 8, "car_category_type_id": 1, "lon": 15.063666, "carModelData": [99, 100], "car_name": "Fiat 500", "onClick_disabled": false, "address": "Via dei Piccioni, 1, 95123 Catania CT", "lat": 37.515545, "fuel_level": 75}, {"virtual_rental_type_id": 2, "car_plate": "FE694DZ", "virtual_rental_id": 407028, "car_category_id": 8, "car_category_type_id": 1, "lon": 15.06898, "carModelData": [99, 100], "car_name": "Fiat 500", "onClick_disabled": false, "address": "Via Santa Sofia, 102, 95125 Catania CT", "lat": 37.536297, "fuel_level": 77}, {"virtual_rental_type_id": 2, "car_plate": "FE660DZ", "virtual_rental_id": 402713, "car_category_id": 8, "car_category_type_id": 1, "lon": 15.071296, "carModelData": [99, 100], "car_name": "Fiat 500", "onClick_disabled": false, "address": "Via Salvatore Zagarella, 28, 95122 Catania CT", "lat": 37.497486, "fuel_level": 43}, {"virtual_rental_type_id": 2, "car_plate": "FE534HA", "virtual_rental_id": 402733, "car_category_id": 8, "car_category_type_id": 1, "lon": 15.083271, "carModelData": [99, 100], "car_name": "Fiat 500", "onClick_disabled": false, "address": "Via Acquicella Porto, 2B, 95121 Catania CT", "lat": 37.488853, "fuel_level": 72}, {"virtual_rental_type_id": 2, "car_plate": "FE261DZ", "virtual_rental_id": 402677, "car_category_id": 8, "car_category_type_id": 1, "lon": 15.069245, "carModelData": [99, 100], "car_name": "Fiat 500", "onClick_disabled": false, "address": "Via Mongibello, 56, 95124 Catania CT", "lat": 37.50418, "fuel_level": 100}, {"virtual_rental_type_id": 2, "car_plate": "FE557HA", "virtual_rental_id": 402730, "car_category_id": 8, "car_category_type_id": 1, "lon": 15.076963, "carModelData": [99, 100], "car_name": "Fiat 500", "onClick_disabled": false, "address": "Via Paratore, 61, 95125 Catania CT", "lat": 37.535236, "fuel_level": 46}, {"virtual_rental_type_id": 2, "car_plate": "FE533HA", "virtual_rental_id": 411764, "car_category_id": 8, "car_category_type_id": 1, "lon": 15.073346, "carModelData": [99, 100], "car_name": "Fiat 500", "onClick_disabled": false, "address": "Via Valdisavoia, 22, 95123 Catania CT", "lat": 37.517418, "fuel_level": 51}, {"virtual_rental_type_id": 2, "car_plate": "FE268DZ", "virtual_rental_id": 409058, "car_category_id": 8, "car_category_type_id": 1, "lon": 15.092082, "carModelData": [99, 100], "car_name": "Fiat 500", "onClick_disabled": false, "address": "Via dei Salesiani, 26, 95126 Catania CT", "lat": 37.52685, "fuel_level": 89}, {"virtual_rental_type_id": 2, "car_plate": "FE504HA", "virtual_rental_id": 406913, "car_category_id": 8, "car_category_type_id": 1, "lon": 15.109575, "carModelData": [99, 100], "car_name": "Fiat 500", "onClick_disabled": false, "address": "Viale Giuseppe Lain\u00f2, 1, 95126 Catania CT", "lat": 37.53587, "fuel_level": 94}, {"virtual_rental_type_id": 2, "car_plate": "FE555HA", "virtual_rental_id": 409066, "car_category_id": 8, "car_category_type_id": 1, "lon": 15.100179, "carModelData": [99, 100], "car_name": "Fiat 500", "onClick_disabled": false, "address": "Piazza Papa Giovanni XXIII, 4, 95129 Catania CT", "lat": 37.50715, "fuel_level": 67}, {"virtual_rental_type_id": 2, "car_plate": "FE263DZ", "virtual_rental_id": 408999, "car_category_id": 8, "car_category_type_id": 1, "lon": 15.09777, "carModelData": [99, 100], "car_name": "Fiat 500", "onClick_disabled": false, "address": "Via Enrico de Nicola, 12, 95131 Catania CT", "lat": 37.507282, "fuel_level": 81}, {"virtual_rental_type_id": 2, "car_plate": "FE680DZ", "virtual_rental_id": 408493, "car_category_id": 8, "car_category_type_id": 1, "lon": 15.047146, "carModelData": [99, 100], "car_name": "Fiat 500", "onClick_disabled": false, "address": "Via Palermo, 721, 95122 Catania CT", "lat": 37.506004, "fuel_level": 98}, {"virtual_rental_type_id": 2, "car_plate": "FE706DZ", "virtual_rental_id": 402728, "car_category_id": 8, "car_category_type_id": 1, "lon": 15.096105, "carModelData": [99, 100], "car_name": "Fiat 500", "onClick_disabled": false, "address": "Corso Martiri della Libert\u00e0, 1401, 95131 Catania CT", "lat": 37.507427, "fuel_level": 84}, {"virtual_rental_type_id": 2, "car_plate": "FE728DZ", "virtual_rental_id": 411763, "car_category_id": 8, "car_category_type_id": 1, "lon": 15.055301, "carModelData": [99, 100], "car_name": "Fiat 500", "onClick_disabled": false, "address": "Via Arcangelo Blandini, 4, 95123 Catania CT", "lat": 37.522545, "fuel_level": 94}, {"virtual_rental_type_id": 2, "car_plate": "FE543HA", "virtual_rental_id": 402710, "car_category_id": 8, "car_category_type_id": 1, "lon": 15.09993, "carModelData": [99, 100], "car_name": "Fiat 500", "onClick_disabled": false, "address": "Piazza Papa Giovanni XXIII, 4, 95129 Catania CT", "lat": 37.50728, "fuel_level": 88}, {"virtual_rental_type_id": 2, "car_plate": "FE523HA", "virtual_rental_id": 408318, "car_category_id": 8, "car_category_type_id": 1, "lon": 15.114749, "carModelData": [99, 100], "car_name": "Fiat 500", "onClick_disabled": false, "address": "Viale Ruggero di Lauria, 97, 95127 Catania CT", "lat": 37.522182, "fuel_level": 100}, {"virtual_rental_type_id": 2, "car_plate": "FE698DZ", "virtual_rental_id": 402672, "car_category_id": 8, "car_category_type_id": 1, "lon": 15.077305, "carModelData": [99, 100], "car_name": "Fiat 500", "onClick_disabled": false, "address": "Via Ughetti, 59, 95124 Catania CT", "lat": 37.50892, "fuel_level": 45}, {"virtual_rental_type_id": 2, "car_plate": "FE662DZ", "virtual_rental_id": 402715, "car_category_id": 8, "car_category_type_id": 1, "lon": 15.107726, "carModelData": [99, 100], "car_name": "Fiat 500", "onClick_disabled": false, "address": "Via Renato Fucini, 2, 95126 Catania CT", "lat": 37.53052, "fuel_level": 83}, {"virtual_rental_type_id": 2, "car_plate": "FE501HA", "virtual_rental_id": 409067, "car_category_id": 8, "car_category_type_id": 1, "lon": 15.066373, "carModelData": [99], "car_name": "Fiat 500", "onClick_disabled": false, "address": "Via Galermo, 157, 95123 Catania CT", "lat": 37.526897, "fuel_level": 100}, {"virtual_rental_type_id": 2, "car_plate": "FE708DZ", "virtual_rental_id": 402701, "car_category_id": 8, "car_category_type_id": 1, "lon": 15.104128, "carModelData": [99, 100], "car_name": "Fiat 500", "onClick_disabled": false, "address": "Via Grasso Finocchiaro, 93, 95126 Catania CT", "lat": 37.52597, "fuel_level": 75}, {"virtual_rental_type_id": 2, "car_plate": "FE262DZ", "virtual_rental_id": 402689, "car_category_id": 8, "car_category_type_id": 1, "lon": 15.104557, "carModelData": [99, 100], "car_name": "Fiat 500", "onClick_disabled": false, "address": "Via Bernardo Colnago, 9, 95126 Catania CT", "lat": 37.533005, "fuel_level": 80}, {"virtual_rental_type_id": 2, "car_plate": "FE567HA", "virtual_rental_id": 402708, "car_category_id": 8, "car_category_type_id": 1, "lon": 15.066637, "carModelData": [99, 100], "car_name": "Fiat 500", "onClick_disabled": false, "address": "Via Balilla, 1, 95123 Catania CT", "lat": 37.50792, "fuel_level": 66}, {"virtual_rental_type_id": 2, "car_plate": "FE514HA", "virtual_rental_id": 407021, "car_category_id": 8, "car_category_type_id": 1, "lon": 15.055298, "carModelData": [99, 100], "car_name": "Fiat 500", "onClick_disabled": false, "address": "Via Arcangelo Blandini, 4, 95123 Catania CT", "lat": 37.522537, "fuel_level": 44}, {"virtual_rental_type_id": 2, "car_plate": "FE713DZ", "virtual_rental_id": 402716, "car_category_id": 8, "car_category_type_id": 1, "lon": 15.089305, "carModelData": [99, 100], "car_name": "Fiat 500", "onClick_disabled": false, "address": "Via Guardia della Carvana, 25, 95128 Catania CT", "lat": 37.52041, "fuel_level": 53}, {"virtual_rental_type_id": 2, "car_plate": "FE702DZ", "virtual_rental_id": 407013, "car_category_id": 8, "car_category_type_id": 1, "lon": 15.08107, "carModelData": [99, 100], "car_name": "Fiat 500", "onClick_disabled": false, "address": "Via Muscatello, 20, 95125 Catania CT", "lat": 37.514122, "fuel_level": 47}, {"virtual_rental_type_id": 2, "car_plate": "FE695DZ", "virtual_rental_id": 402696, "car_category_id": 8, "car_category_type_id": 1, "lon": 15.059409, "carModelData": [99, 100], "car_name": "Fiat 500", "onClick_disabled": false, "address": "Via Luigi la Ferlita, 6, 95123 Catania CT", "lat": 37.52167, "fuel_level": 70}, {"virtual_rental_type_id": 2, "car_plate": "FE521HA", "virtual_rental_id": 402683, "car_category_id": 8, "car_category_type_id": 1, "lon": 15.083395, "carModelData": [99, 100], "car_name": "Fiat 500", "onClick_disabled": false, "address": "Via Empedocle, 143, 95128 Catania CT", "lat": 37.52342, "fuel_level": 58}, {"virtual_rental_type_id": 2, "car_plate": "FE699DZ", "virtual_rental_id": 402703, "car_category_id": 8, "car_category_type_id": 1, "lon": 15.089495, "carModelData": [99], "car_name": "Fiat 500", "onClick_disabled": false, "address": "Via Ferro Fabiani, 56, 95125 Catania CT", "lat": 37.537094, "fuel_level": 48}, {"virtual_rental_type_id": 2, "car_plate": "FE513HA", "virtual_rental_id": 408037, "car_category_id": 8, "car_category_type_id": 1, "lon": 15.083402, "carModelData": [99, 100], "car_name": "Fiat 500", "onClick_disabled": false, "address": "Via Empedocle, 143, 95128 Catania CT", "lat": 37.523346, "fuel_level": 37}, {"virtual_rental_type_id": 2, "car_plate": "FE518HA", "virtual_rental_id": 409052, "car_category_id": 8, "car_category_type_id": 1, "lon": 15.080766, "carModelData": [99, 100], "car_name": "Fiat 500", "onClick_disabled": false, "address": "Via Eleonora D'Angi\u00f2, 3, 95125 Catania CT", "lat": 37.52019, "fuel_level": 96}, {"virtual_rental_type_id": 2, "car_plate": "FE530HA", "virtual_rental_id": 402717, "car_category_id": 8, "car_category_type_id": 1, "lon": 15.069106, "carModelData": [99, 100], "car_name": "Fiat 500", "onClick_disabled": false, "address": "Viale Mario Rapisardi, 144-154, 95124 Catania CT", "lat": 37.51076, "fuel_level": 62}, {"virtual_rental_type_id": 2, "car_plate": "FE580HA", "virtual_rental_id": 407019, "car_category_id": 8, "car_category_type_id": 1, "lon": 15.074225, "carModelData": [99, 100], "car_name": "Fiat 500", "onClick_disabled": false, "address": "Via Salvatore Citelli, 25, 95124 Catania CT", "lat": 37.508198, "fuel_level": 60}, {"virtual_rental_type_id": 2, "car_plate": "FE502HA", "virtual_rental_id": 402705, "car_category_id": 8, "car_category_type_id": 1, "lon": 15.084723, "carModelData": [99, 100], "car_name": "Fiat 500", "onClick_disabled": false, "address": "Via S. Angelo Custode, 9, 95121 Catania CT", "lat": 37.49813, "fuel_level": 62}, {"virtual_rental_type_id": 2, "car_plate": "FE578HA", "virtual_rental_id": 409068, "car_category_id": 8, "car_category_type_id": 1, "lon": 15.0867605, "carModelData": [99, 100], "car_name": "Fiat 500", "onClick_disabled": false, "address": "Viale XX Settembre, 44-46, 95129 Catania CT", "lat": 37.513584, "fuel_level": 44}, {"virtual_rental_type_id": 2, "car_plate": "FE677DZ", "virtual_rental_id": 409063, "car_category_id": 8, "car_category_type_id": 1, "lon": 15.103531, "carModelData": [99, 100], "car_name": "Fiat 500", "onClick_disabled": false, "address": "Via Gaetano Donizetti, 2e, 95126 Catania CT", "lat": 37.522667, "fuel_level": 76}, {"virtual_rental_type_id": 2, "car_plate": "FE692DZ", "virtual_rental_id": 402723, "car_category_id": 8, "car_category_type_id": 1, "lon": 15.102168, "carModelData": [99, 100], "car_name": "Fiat 500", "onClick_disabled": false, "address": "Corso Italia, 203, 95127 Catania CT", "lat": 37.51622, "fuel_level": 77}, {"virtual_rental_type_id": 2, "car_plate": "FE693DZ", "virtual_rental_id": 402732, "car_category_id": 8, "car_category_type_id": 1, "lon": 15.106193, "carModelData": [99, 100], "car_name": "Fiat 500", "onClick_disabled": false, "address": "Viale Ulisse, 19, 95126 Catania CT", "lat": 37.531673, "fuel_level": 84}, {"virtual_rental_type_id": 2, "car_plate": "FE691DZ", "virtual_rental_id": 408995, "car_category_id": 8, "car_category_type_id": 1, "lon": 15.096403, "carModelData": [99, 100], "car_name": "Fiat 500", "onClick_disabled": false, "address": "Via Archimede, 145, 95131 Catania CT", "lat": 37.50822, "fuel_level": 36}, {"virtual_rental_type_id": 2, "car_plate": "FE663DZ", "virtual_rental_id": 408424, "car_category_id": 8, "car_category_type_id": 1, "lon": 15.102175, "carModelData": [99, 100], "car_name": "Fiat 500", "onClick_disabled": false, "address": "Via Nizzeti, 64, 95126 Catania CT", "lat": 37.53723, "fuel_level": 86}, {"virtual_rental_type_id": 2, "car_plate": "FE547HA", "virtual_rental_id": 409057, "car_category_id": 8, "car_category_type_id": 1, "lon": 15.045366, "carModelData": [99], "car_name": "Fiat 500", "onClick_disabled": false, "address": "Via Padre Angelo Secchi, 25, 95122 Catania CT", "lat": 37.51429, "fuel_level": 76}, {"virtual_rental_type_id": 2, "car_plate": "FE266DZ", "virtual_rental_id": 408988, "car_category_id": 8, "car_category_type_id": 1, "lon": 15.111374, "carModelData": [99, 100], "car_name": "Fiat 500", "onClick_disabled": false, "address": "Viale Alcide de Gasperi, 183, 95126 Catania CT", "lat": 37.52159, "fuel_level": 46}, {"virtual_rental_type_id": 2, "car_plate": "FE566HA", "virtual_rental_id": 402702, "car_category_id": 8, "car_category_type_id": 1, "lon": 15.095821, "carModelData": [99, 100], "car_name": "Fiat 500", "onClick_disabled": false, "address": "Viale Vittorio Veneto, 186, 95126 Catania CT", "lat": 37.52592, "fuel_level": 91}, {"virtual_rental_type_id": 2, "car_plate": "FE529HA", "virtual_rental_id": 437832, "car_category_id": 8, "car_category_type_id": 1, "lon": 15.067345, "carModelData": [99, 100], "car_name": "Fiat 500", "onClick_disabled": false, "address": "Via Carrubella, 123, 95030 Gravina di Catania CT", "lat": 37.538757, "fuel_level": 88}, {"virtual_rental_type_id": 2, "car_plate": "FE577HA", "virtual_rental_id": 408987, "car_category_id": 8, "car_category_type_id": 1, "lon": 15.056452, "carModelData": [99, 100], "car_name": "Fiat 500", "onClick_disabled": false, "address": "Via Armando Diaz, 15-17, 95123 Catania CT", "lat": 37.5124, "fuel_level": 100}, {"virtual_rental_type_id": 2, "car_plate": "FE686DZ", "virtual_rental_id": 402691, "car_category_id": 8, "car_category_type_id": 1, "lon": 15.080597, "carModelData": [99, 100], "car_name": "Fiat 500", "onClick_disabled": false, "address": "Via Castelluccio, 10-12, 95125 Catania CT", "lat": 37.53021, "fuel_level": 91}, {"virtual_rental_type_id": 2, "car_plate": "FE519HA", "virtual_rental_id": 407026, "car_category_id": 8, "car_category_type_id": 1, "lon": 15.058022, "carModelData": [99, 100], "car_name": "Fiat 500", "onClick_disabled": false, "address": "Via Silvio Pellico, 7, 95123 Catania CT", "lat": 37.50932, "fuel_level": 71}, {"virtual_rental_type_id": 2, "car_plate": "FE570HA", "virtual_rental_id": 409059, "car_category_id": 8, "car_category_type_id": 1, "lon": 15.085675, "carModelData": [99, 100], "car_name": "Fiat 500", "onClick_disabled": false, "address": "Via Quieta, 41, 95128 Catania CT", "lat": 37.52325, "fuel_level": 55}, {"virtual_rental_type_id": 2, "car_plate": "FE668DZ", "virtual_rental_id": 408998, "car_category_id": 8, "car_category_type_id": 1, "lon": 15.102056, "carModelData": [99, 100], "car_name": "Fiat 500", "onClick_disabled": false, "address": "Via Duca Degli Abruzzi, 59, 95127 Catania CT", "lat": 37.5217, "fuel_level": 95}, {"virtual_rental_type_id": 2, "car_plate": "FE551HA", "virtual_rental_id": 408438, "car_category_id": 8, "car_category_type_id": 1, "lon": 15.069447, "carModelData": [99, 100], "car_name": "Fiat 500", "onClick_disabled": false, "address": "Viale Mario Rapisardi, 169, 95124 Catania CT", "lat": 37.510685, "fuel_level": 91}, {"virtual_rental_type_id": 2, "car_plate": "FE537HA", "virtual_rental_id": 426383, "car_category_id": 8, "car_category_type_id": 1, "lon": 15.10545, "carModelData": [99], "car_name": "Fiat 500", "onClick_disabled": false, "address": "Via Zoccolanti, 1, 95127 Catania CT", "lat": 37.519215, "fuel_level": 61}, {"virtual_rental_type_id": 2, "car_plate": "FE701DZ", "virtual_rental_id": 402729, "car_category_id": 8, "car_category_type_id": 1, "lon": 15.076551, "carModelData": [99, 100], "car_name": "Fiat 500", "onClick_disabled": false, "address": "Viale Mim\u00ec Maria Lazzaro, 6-8, 95125 Catania CT", "lat": 37.53199, "fuel_level": 100}, {"virtual_rental_type_id": 2, "car_plate": "FE689DZ", "virtual_rental_id": 409065, "car_category_id": 8, "car_category_type_id": 1, "lon": 15.063023, "carModelData": [99, 100], "car_name": "Fiat 500", "onClick_disabled": false, "address": "Via Pastura Francesco, 8-34, 95123 Catania CT", "lat": 37.533756, "fuel_level": 80}, {"virtual_rental_type_id": 2, "car_plate": "FE664DZ", "virtual_rental_id": 408038, "car_category_id": 8, "car_category_type_id": 1, "lon": 15.100179, "carModelData": [99, 100], "car_name": "Fiat 500", "onClick_disabled": false, "address": "Piazza Papa Giovanni XXIII, 4, 95129 Catania CT", "lat": 37.50712, "fuel_level": 54}, {"virtual_rental_type_id": 2, "car_plate": "FE511HA", "virtual_rental_id": 409050, "car_category_id": 8, "car_category_type_id": 1, "lon": 15.075851, "carModelData": [99, 100], "car_name": "Fiat 500", "onClick_disabled": false, "address": "Via Giovanni Fattori, 29, 95125 Catania CT", "lat": 37.537056, "fuel_level": 83}, {"virtual_rental_type_id": 2, "car_plate": "FE516HA", "virtual_rental_id": 403010, "car_category_id": 8, "car_category_type_id": 1, "lon": 15.1002245, "carModelData": [99, 100], "car_name": "Fiat 500", "onClick_disabled": false, "address": "Piazza Papa Giovanni XXIII, 4, 95129 Catania CT", "lat": 37.50715, "fuel_level": 40}, {"virtual_rental_type_id": 2, "car_plate": "FE544HA", "virtual_rental_id": 402698, "car_category_id": 8, "car_category_type_id": 1, "lon": 15.088132, "carModelData": [99, 100], "car_name": "Fiat 500", "onClick_disabled": false, "address": "Piazza Abramo Lincoln, 8, 95128 Catania CT", "lat": 37.521893, "fuel_level": 80}, {"virtual_rental_type_id": 2, "car_plate": "FE542HA", "virtual_rental_id": 407027, "car_category_id": 8, "car_category_type_id": 1, "lon": 15.097694, "carModelData": [99, 100], "car_name": "Fiat 500", "onClick_disabled": false, "address": "Via Giuseppe Morgia, 31, 95127 Catania CT", "lat": 37.52046, "fuel_level": 69}, {"virtual_rental_type_id": 2, "car_plate": "FE500HA", "virtual_rental_id": 407023, "car_category_id": 8, "car_category_type_id": 1, "lon": 15.0856, "carModelData": [99, 100], "car_name": "Fiat 500", "onClick_disabled": false, "address": "Via Rosso di S. Secondo, 17, 95128 Catania CT", "lat": 37.526947, "fuel_level": 100}, {"virtual_rental_type_id": 2, "car_plate": "FE532HA", "virtual_rental_id": 408990, "car_category_id": 8, "car_category_type_id": 1, "lon": 15.115794, "carModelData": [99, 100], "car_name": "Fiat 500", "onClick_disabled": false, "address": "Piazza Nettuno, 36, 95126 Catania CT", "lat": 37.523468, "fuel_level": 36}, {"virtual_rental_type_id": 2, "car_plate": "FE715DZ", "virtual_rental_id": 409055, "car_category_id": 8, "car_category_type_id": 1, "lon": 15.09726, "carModelData": [99, 100], "car_name": "Fiat 500", "onClick_disabled": false, "address": "Via Alfonzetti, 65, 95131 Catania CT", "lat": 37.510845, "fuel_level": 60}, {"virtual_rental_type_id": 2, "car_plate": "FE710DZ", "virtual_rental_id": 408039, "car_category_id": 8, "car_category_type_id": 1, "lon": 15.093677, "carModelData": [99, 100], "car_name": "Fiat 500", "onClick_disabled": false, "address": "Via Archimede, 63, 95131 Catania CT", "lat": 37.508194, "fuel_level": 75}, {"virtual_rental_type_id": 2, "car_plate": "FE727DZ", "virtual_rental_id": 408445, "car_category_id": 8, "car_category_type_id": 1, "lon": 15.104673, "carModelData": [99, 100], "car_name": "Fiat 500", "onClick_disabled": false, "address": "Via Principe Nicola, 49, 95127 Catania CT", "lat": 37.520866, "fuel_level": 100}, {"virtual_rental_type_id": 2, "car_plate": "FE561HA", "virtual_rental_id": 402687, "car_category_id": 8, "car_category_type_id": 1, "lon": 15.0947895, "carModelData": [99, 100], "car_name": "Fiat 500", "onClick_disabled": false, "address": "Via Genova, 47, 95127 Catania CT", "lat": 37.52019, "fuel_level": 70}, {"virtual_rental_type_id": 2, "car_plate": "FE553HA", "virtual_rental_id": 408464, "car_category_id": 8, "car_category_type_id": 1, "lon": 15.062884, "carModelData": [99, 100], "car_name": "Fiat 500", "onClick_disabled": false, "address": "Via Antonio Piraino, 26, 95123 Catania CT", "lat": 37.510532, "fuel_level": 100}, {"virtual_rental_type_id": 2, "car_plate": "FE564HA", "virtual_rental_id": 407024, "car_category_id": 8, "car_category_type_id": 1, "lon": 15.045399, "carModelData": [99, 100], "car_name": "Fiat 500", "onClick_disabled": false, "address": "Via Padre Angelo Secchi, 16, 95122 Catania CT", "lat": 37.51431, "fuel_level": 37}, {"virtual_rental_type_id": 2, "car_plate": "FE707DZ", "virtual_rental_id": 402699, "car_category_id": 8, "car_category_type_id": 1, "lon": 15.0593, "carModelData": [99, 100], "car_name": "Fiat 500", "onClick_disabled": false, "address": "Via Luigi la Ferlita, 6, 95123 Catania CT", "lat": 37.521362, "fuel_level": 60}, {"virtual_rental_type_id": 2, "car_plate": "FE527HA", "virtual_rental_id": 408440, "car_category_id": 8, "car_category_type_id": 1, "lon": 15.057487, "carModelData": [99, 100], "car_name": "Fiat 500", "onClick_disabled": false, "address": "Via Angelo Mosso, 3, 95123 Catania CT", "lat": 37.508522, "fuel_level": 100}, {"virtual_rental_type_id": 2, "car_plate": "FE724DZ", "virtual_rental_id": 429037, "car_category_id": 8, "car_category_type_id": 1, "lon": 15.116134, "carModelData": [99, 100], "car_name": "Fiat 500", "onClick_disabled": false, "address": "Viale Ruggero di Lauria, 129, 95126 Catania CT", "lat": 37.523067, "fuel_level": 66}, {"virtual_rental_type_id": 2, "car_plate": "FE569HA", "virtual_rental_id": 416399, "car_category_id": 8, "car_category_type_id": 1, "lon": 15.078792, "carModelData": [99, 100], "car_name": "Fiat 500", "onClick_disabled": false, "address": "Via Passo Gravina, 102, 95125 Catania CT", "lat": 37.52644, "fuel_level": 49}, {"virtual_rental_type_id": 2, "car_plate": "FE661DZ", "virtual_rental_id": 407029, "car_category_id": 8, "car_category_type_id": 1, "lon": 15.082603, "carModelData": [99, 100], "car_name": "Fiat 500", "onClick_disabled": false, "address": "Via Salvatore Tomaselli, 5, 95124 Catania CT", "lat": 37.509342, "fuel_level": 100}, {"virtual_rental_type_id": 2, "car_plate": "FE676DZ", "virtual_rental_id": 409056, "car_category_id": 8, "car_category_type_id": 1, "lon": 15.047667, "carModelData": [99, 100], "car_name": "Fiat 500", "onClick_disabled": false, "address": "Via Antonio Pacinotti, 44, 95122 Catania CT", "lat": 37.509132, "fuel_level": 52}, {"virtual_rental_type_id": 2, "car_plate": "FE535HA", "virtual_rental_id": 408994, "car_category_id": 8, "car_category_type_id": 1, "lon": 15.10001, "carModelData": [99, 100], "car_name": "Fiat 500", "onClick_disabled": false, "address": "Piazza Papa Giovanni XXIII, 4, 95129 Catania CT", "lat": 37.506996, "fuel_level": 51}, {"virtual_rental_type_id": 2, "car_plate": "FE556HA", "virtual_rental_id": 408495, "car_category_id": 8, "car_category_type_id": 1, "lon": 15.056424, "carModelData": [99, 100], "car_name": "Fiat 500", "onClick_disabled": false, "address": "Via Luigi Cadorna, 4, 95123 Catania CT", "lat": 37.509804, "fuel_level": 43}, {"virtual_rental_type_id": 2, "car_plate": "FE560HA", "virtual_rental_id": 407016, "car_category_id": 8, "car_category_type_id": 1, "lon": 15.087406, "carModelData": [99, 100], "car_name": "Fiat 500", "onClick_disabled": false, "address": "Via Proserpina, 24, 95128 Catania CT", "lat": 37.52134, "fuel_level": 77}, {"virtual_rental_type_id": 2, "car_plate": "FE538HA", "virtual_rental_id": 402961, "car_category_id": 8, "car_category_type_id": 1, "lon": 15.077849, "carModelData": [99, 100], "car_name": "Fiat 500", "onClick_disabled": false, "address": "Via Trecastagni, 11, 95125 Catania CT", "lat": 37.523308, "fuel_level": 66}, {"virtual_rental_type_id": 2, "car_plate": "FE525HA", "virtual_rental_id": 407020, "car_category_id": 8, "car_category_type_id": 1, "lon": 15.090292, "carModelData": [99], "car_name": "Fiat 500", "onClick_disabled": false, "address": "Via Colle del Pino, 2, 95126 Catania CT", "lat": 37.528656, "fuel_level": 60}, {"virtual_rental_type_id": 2, "car_plate": "FE507HA", "virtual_rental_id": 402722, "car_category_id": 8, "car_category_type_id": 1, "lon": 15.095685, "carModelData": [99, 100], "car_name": "Fiat 500", "onClick_disabled": false, "address": "Corso Martiri della Libert\u00e0, 1401, 95131 Catania CT", "lat": 37.507416, "fuel_level": 100}, {"virtual_rental_type_id": 2, "car_plate": "FE267DZ", "virtual_rental_id": 402725, "car_category_id": 8, "car_category_type_id": 1, "lon": 15.079273, "carModelData": [99, 100], "car_name": "Fiat 500", "onClick_disabled": false, "address": "Via Ardizzone Gioeni, 27-29, 95125 Catania CT", "lat": 37.52542, "fuel_level": 52}, {"virtual_rental_type_id": 2, "car_plate": "FE565HA", "virtual_rental_id": 402711, "car_category_id": 8, "car_category_type_id": 1, "lon": 15.087922, "carModelData": [99, 100], "car_name": "Fiat 500", "onClick_disabled": false, "address": "Via Torino, 126, 95128 Catania CT", "lat": 37.5269, "fuel_level": 100}, {"virtual_rental_type_id": 2, "car_plate": "FE666DZ", "virtual_rental_id": 402695, "car_category_id": 8, "car_category_type_id": 1, "lon": 15.069987, "carModelData": [99, 100], "car_name": "Fiat 500", "onClick_disabled": false, "address": "Via Santa Sofia, 3, 95123 Catania CT", "lat": 37.521072, "fuel_level": 98}, {"virtual_rental_type_id": 2, "car_plate": "FE669DZ", "virtual_rental_id": 408991, "car_category_id": 8, "car_category_type_id": 1, "lon": 15.121043, "carModelData": [99, 100], "car_name": "Fiat 500", "onClick_disabled": false, "address": "Via Nazionale, 233, 95126 Catania CT", "lat": 37.53918, "fuel_level": 100}, {"virtual_rental_type_id": 2, "car_plate": "FE264DZ", "virtual_rental_id": 408997, "car_category_id": 8, "car_category_type_id": 1, "lon": 15.087966, "carModelData": [99, 100], "car_name": "Fiat 500", "onClick_disabled": false, "address": "Via Cardinale Dusmet, 19, 95121 Catania CT", "lat": 37.501793, "fuel_level": 70}, {"virtual_rental_type_id": 2, "car_plate": "FE571HA", "virtual_rental_id": 402726, "car_category_id": 8, "car_category_type_id": 1, "lon": 15.111471, "carModelData": [99, 100], "car_name": "Fiat 500", "onClick_disabled": false, "address": "Via Fausto Angelo Coppi, 5, 95126 Catania CT", "lat": 37.542114, "fuel_level": 78}, {"virtual_rental_type_id": 2, "car_plate": "FE541HA", "virtual_rental_id": 418215, "car_category_id": 8, "car_category_type_id": 1, "lon": 15.08199, "carModelData": [99, 100], "car_name": "Fiat 500", "onClick_disabled": false, "address": "Via Gesualdo Clementi, 16, 95124 Catania CT", "lat": 37.504932, "fuel_level": 48}, {"virtual_rental_type_id": 2, "car_plate": "FE574HA", "virtual_rental_id": 409061, "car_category_id": 8, "car_category_type_id": 1, "lon": 15.079582, "carModelData": [99, 100], "car_name": "Fiat 500", "onClick_disabled": false, "address": "Via del Bosco, 29, 95125 Catania CT", "lat": 37.528015, "fuel_level": 70}, {"virtual_rental_type_id": 2, "car_plate": "FE700DZ", "virtual_rental_id": 402693, "car_category_id": 8, "car_category_type_id": 1, "lon": 15.069817, "carModelData": [99, 100], "car_name": "Fiat 500", "onClick_disabled": false, "address": "Viale delle Medaglie D'Oro, 50-68, 95124 Catania CT", "lat": 37.507286, "fuel_level": 35}, {"virtual_rental_type_id": 2, "car_plate": "FE671DZ", "virtual_rental_id": 426844, "car_category_id": 8, "car_category_type_id": 1, "lon": 15.086711, "carModelData": [99, 100], "car_name": "Fiat 500", "onClick_disabled": false, "address": "Via Nicola Fabrizi, 23, 95128 Catania CT", "lat": 37.51596, "fuel_level": 100}, {"virtual_rental_type_id": 2, "car_plate": "FE575HA", "virtual_rental_id": 407025, "car_category_id": 8, "car_category_type_id": 1, "lon": 15.06018, "carModelData": [99, 100], "car_name": "Fiat 500", "onClick_disabled": false, "address": "Via Santa Rosa da Lima, 12, 95123 Catania CT", "lat": 37.526592, "fuel_level": 100}, {"virtual_rental_type_id": 2, "car_plate": "FE528HA", "virtual_rental_id": 402734, "car_category_id": 8, "car_category_type_id": 1, "lon": 15.069045, "carModelData": [99, 100], "car_name": "Fiat 500", "onClick_disabled": false, "address": "Via Mongibello, 88, 95123 Catania CT", "lat": 37.50541, "fuel_level": 38}, {"virtual_rental_type_id": 2, "car_plate": "FE712DZ", "virtual_rental_id": 402706, "car_category_id": 8, "car_category_type_id": 1, "lon": 15.083612, "carModelData": [99, 100], "car_name": "Fiat 500", "onClick_disabled": false, "address": "Via Santa Maria la Grande, 5, 95124 Catania CT", "lat": 37.508404, "fuel_level": 100}, {"virtual_rental_type_id": 2, "car_plate": "FE549HA", "virtual_rental_id": 407022, "car_category_id": 8, "car_category_type_id": 1, "lon": 15.074229, "carModelData": [99, 100], "car_name": "Fiat 500", "onClick_disabled": false, "address": "Via Amalia Lanzerotti Pantano, 93-105, 95125 Catania CT", "lat": 37.534733, "fuel_level": 37}, {"virtual_rental_type_id": 2, "car_plate": "FE682DZ", "virtual_rental_id": 402712, "car_category_id": 8, "car_category_type_id": 1, "lon": 15.092221, "carModelData": [99, 100], "car_name": "Fiat 500", "onClick_disabled": false, "address": "Via Pedara, 54, 95125 Catania CT", "lat": 37.53526, "fuel_level": 55}, {"virtual_rental_type_id": 2, "car_plate": "FE581HA", "virtual_rental_id": 408993, "car_category_id": 8, "car_category_type_id": 1, "lon": 15.07391, "carModelData": [99, 100], "car_name": "Fiat 500", "onClick_disabled": false, "address": "Via dell'Esperanto, 2, 95124 Catania CT", "lat": 37.50783, "fuel_level": 100}, {"virtual_rental_type_id": 2, "car_plate": "FE531HA", "virtual_rental_id": 409062, "car_category_id": 8, "car_category_type_id": 1, "lon": 15.085855, "carModelData": [99, 100], "car_name": "Fiat 500", "onClick_disabled": false, "address": "Via Roberto Giuffrida Castorina, 12-18, 95128 Catania CT", "lat": 37.52627, "fuel_level": 67}, {"virtual_rental_type_id": 2, "car_plate": "FE548HA", "virtual_rental_id": 408036, "car_category_id": 8, "car_category_type_id": 1, "lon": 15.080306, "carModelData": [99, 100], "car_name": "Fiat 500", "onClick_disabled": false, "address": "Piazza Vincenzo Lanza, 15, 95125 Catania CT", "lat": 37.514263, "fuel_level": 97}, {"virtual_rental_type_id": 2, "car_plate": "FE720DZ", "virtual_rental_id": 402709, "car_category_id": 8, "car_category_type_id": 1, "lon": 15.049602, "carModelData": [99, 100], "car_name": "Fiat 500", "onClick_disabled": false, "address": "Via Ota, 50, 95122 Catania CT", "lat": 37.521267, "fuel_level": 98}, {"virtual_rental_type_id": 2, "car_plate": "FE552HA", "virtual_rental_id": 402719, "car_category_id": 8, "car_category_type_id": 1, "lon": 15.051853, "carModelData": [99, 100], "car_name": "Fiat 500", "onClick_disabled": false, "address": "Viale Benedetto Croce, 30, 95122 Catania CT", "lat": 37.522858, "fuel_level": 38}, {"virtual_rental_type_id": 2, "car_plate": "FE515HA", "virtual_rental_id": 408992, "car_category_id": 8, "car_category_type_id": 1, "lon": 15.084114, "carModelData": [99, 100], "car_name": "Fiat 500", "onClick_disabled": false, "address": "Via Etnea, 399, 95128 Catania CT", "lat": 37.515823, "fuel_level": 100}, {"virtual_rental_type_id": 2, "car_plate": "FE696DZ", "virtual_rental_id": 402684, "car_category_id": 8, "car_category_type_id": 1, "lon": 15.0582075, "carModelData": [99, 100], "car_name": "Fiat 500", "onClick_disabled": false, "address": "Via Amico Vito Maria, 20, 95123 Catania CT", "lat": 37.520462, "fuel_level": 48}, {"virtual_rental_type_id": 2, "car_plate": "FE719DZ", "virtual_rental_id": 407014, "car_category_id": 8, "car_category_type_id": 1, "lon": 15.067476, "carModelData": [99, 100], "car_name": "Fiat 500", "onClick_disabled": false, "address": "Via Bergamo, 2, 95123 Catania CT", "lat": 37.52097, "fuel_level": 100}, {"virtual_rental_type_id": 2, "car_plate": "FE709DZ", "virtual_rental_id": 408433, "car_category_id": 8, "car_category_type_id": 1, "lon": 15.06919, "carModelData": [99, 100], "car_name": "Fiat 500", "onClick_disabled": false, "address": "Viale Mario Rapisardi, 183, 95124 Catania CT", "lat": 37.510677, "fuel_level": 100}, {"virtual_rental_type_id": 2, "car_plate": "FE508HA", "virtual_rental_id": 409053, "car_category_id": 8, "car_category_type_id": 1, "lon": 15.098902, "carModelData": [99, 100], "car_name": "Fiat 500", "onClick_disabled": false, "address": "Via Archimede, 209, 95131 Catania CT", "lat": 37.508377, "fuel_level": 49}, {"virtual_rental_type_id": 1, "car_plate": "EG40611", "virtual_rental_id": 402750, "car_category_id": 7, "car_category_type_id": 2, "lon": 15.079098, "carModelData": [99, 100], "car_name": "Piaggio MP3", "onClick_disabled": false, "address": "Via del Bosco, 30, 95125 Catania CT", "lat": 37.529175, "fuel_level": 74}, {"virtual_rental_type_id": 1, "car_plate": "EG40795", "virtual_rental_id": 402737, "car_category_id": 7, "car_category_type_id": 2, "lon": 15.041779, "carModelData": [99, 100], "car_name": "Piaggio MP3", "onClick_disabled": false, "address": "Via Palermo, 873, 95122 Catania CT", "lat": 37.511395, "fuel_level": 38}, {"virtual_rental_type_id": 1, "car_plate": "EG40585", "virtual_rental_id": 402736, "car_category_id": 7, "car_category_type_id": 2, "lon": 15.0805435, "carModelData": [99, 100], "car_name": "Piaggio MP3", "onClick_disabled": false, "address": "Via Castelluccio, 9, 95125 Catania CT", "lat": 37.53024, "fuel_level": 84}, {"virtual_rental_type_id": 1, "car_plate": "EG40791", "virtual_rental_id": 402974, "car_category_id": 7, "car_category_type_id": 2, "lon": 15.110344, "carModelData": [99, 100], "car_name": "Piaggio MP3", "onClick_disabled": false, "address": "Viale delle Olimpiadi, 1, 95126 Catania CT", "lat": 37.543686, "fuel_level": 34}, {"virtual_rental_type_id": 1, "car_plate": "EG40614", "virtual_rental_id": 402798, "car_category_id": 7, "car_category_type_id": 2, "lon": 15.097949, "carModelData": [99, 100], "car_name": "Piaggio MP3", "onClick_disabled": false, "address": "Via Archimede, 201, 95131 Catania CT", "lat": 37.508347, "fuel_level": 33}, {"virtual_rental_type_id": 1, "car_plate": "EG40586", "virtual_rental_id": 402742, "car_category_id": 7, "car_category_type_id": 2, "lon": 15.07217, "carModelData": [99, 100], "car_name": "Piaggio MP3", "onClick_disabled": false, "address": "Via Fiducia Saverio, 3, 95125 Catania CT", "lat": 37.54077, "fuel_level": 62}, {"virtual_rental_type_id": 1, "car_plate": "EG40794", "virtual_rental_id": 402434, "car_category_id": 7, "car_category_type_id": 2, "lon": 15.080547, "carModelData": [99, 100], "car_name": "Piaggio MP3", "onClick_disabled": false, "address": "Via Gaetano Sanfilippo, 7-13, 95125 Catania CT", "lat": 37.513508, "fuel_level": 69}, {"virtual_rental_type_id": 1, "car_plate": "EG40597", "virtual_rental_id": 402749, "car_category_id": 7, "car_category_type_id": 2, "lon": 15.095714, "carModelData": [99], "car_name": "Piaggio MP3", "onClick_disabled": false, "address": "Via Cagliari, 107, 95127 Catania CT", "lat": 37.52134, "fuel_level": 54}, {"virtual_rental_type_id": 1, "car_plate": "EG40595", "virtual_rental_id": 402745, "car_category_id": 7, "car_category_type_id": 2, "lon": 15.060986, "carModelData": [99, 100], "car_name": "Piaggio MP3", "onClick_disabled": false, "address": "Via Santa Rosa da Lima, 12, 95123 Catania CT", "lat": 37.52637, "fuel_level": 52}, {"virtual_rental_type_id": 1, "car_plate": "EG40589", "virtual_rental_id": 402748, "car_category_id": 7, "car_category_type_id": 2, "lon": 15.055236, "carModelData": [99, 100], "car_name": "Piaggio MP3", "onClick_disabled": false, "address": "Via Arcangelo Blandini, 6, 95123 Catania CT", "lat": 37.522495, "fuel_level": 100}, {"virtual_rental_type_id": 1, "car_plate": "EG40803", "virtual_rental_id": 402752, "car_category_id": 7, "car_category_type_id": 2, "lon": 15.095556, "carModelData": [99, 100], "car_name": "Piaggio MP3", "onClick_disabled": false, "address": "Viale Marco Polo, 48, 95126 Catania CT", "lat": 37.528435, "fuel_level": 84}, {"virtual_rental_type_id": 1, "car_plate": "EG40596", "virtual_rental_id": 402735, "car_category_id": 7, "car_category_type_id": 2, "lon": 15.067537, "carModelData": [99, 100], "car_name": "Piaggio MP3", "onClick_disabled": false, "address": "Via Ammiraglio Caracciolo, 76, 95123 Catania CT", "lat": 37.508224, "fuel_level": 36}, {"virtual_rental_type_id": 1, "car_plate": "EG40594", "virtual_rental_id": 402744, "car_category_id": 7, "car_category_type_id": 2, "lon": 15.076104, "carModelData": [99, 100], "car_name": "Piaggio MP3", "onClick_disabled": false, "address": "Via del Bosco, 313, 95125 Catania CT", "lat": 37.53888, "fuel_level": 54}, {"virtual_rental_type_id": 1, "car_plate": "EG40588", "virtual_rental_id": 405404, "car_category_id": 7, "car_category_type_id": 2, "lon": 15.0563345, "carModelData": [99, 100], "car_name": "Piaggio MP3", "onClick_disabled": false, "address": "Viale Lorenzo Bolano, 46, 95123 Catania CT", "lat": 37.517933, "fuel_level": 100}, {"virtual_rental_type_id": 1, "car_plate": "EG40592", "virtual_rental_id": 402751, "car_category_id": 7, "car_category_type_id": 2, "lon": 15.111532, "carModelData": [99, 100], "car_name": "Piaggio MP3", "onClick_disabled": false, "address": "Viale Ruggero di Lauria, 33, 95126 Catania CT", "lat": 37.521057, "fuel_level": 42}, {"virtual_rental_type_id": 1, "car_plate": "EG40582", "virtual_rental_id": 402740, "car_category_id": 7, "car_category_type_id": 2, "lon": 15.064982, "carModelData": [99, 100], "car_name": "Piaggio MP3", "onClick_disabled": false, "address": "Via Serve della Divina Provvidenza, 5-7, 95123 Catania CT", "lat": 37.509426, "fuel_level": 75}, {"virtual_rental_type_id": 1, "car_plate": "EG40584", "virtual_rental_id": 402743, "car_category_id": 7, "car_category_type_id": 2, "lon": 15.095703, "carModelData": [99, 100], "car_name": "Piaggio MP3", "onClick_disabled": false, "address": "Viale Vittorio Veneto, 301, 95126 Catania CT", "lat": 37.525837, "fuel_level": 100}, {"virtual_rental_type_id": 1, "car_plate": "EG40796", "virtual_rental_id": 402739, "car_category_id": 7, "car_category_type_id": 2, "lon": 15.095465, "carModelData": [99, 100], "car_name": "Piaggio MP3", "onClick_disabled": false, "address": "Corso Italia, 78, 95129 Catania CT", "lat": 37.515034, "fuel_level": 100}, {"virtual_rental_type_id": 1, "car_plate": "EG40616", "virtual_rental_id": 402738, "car_category_id": 7, "car_category_type_id": 2, "lon": 15.093982, "carModelData": [99, 100], "car_name": "Piaggio MP3", "onClick_disabled": false, "address": "Viale della Costituzione, 3, 95125 Catania CT", "lat": 37.53598, "fuel_level": 100}, {"virtual_rental_type_id": 1, "car_plate": "EG40613", "virtual_rental_id": 402951, "car_category_id": 7, "car_category_type_id": 2, "lon": 15.084621, "carModelData": [99, 100], "car_name": "Piaggio MP3", "onClick_disabled": false, "address": "Via Caronda, 216-218, 95128 Catania CT", "lat": 37.517593, "fuel_level": 41}, {"virtual_rental_type_id": 1, "car_plate": "EG40807", "virtual_rental_id": 402747, "car_category_id": 7, "car_category_type_id": 2, "lon": 15.063768, "carModelData": [99, 100], "car_name": "Piaggio MP3", "onClick_disabled": false, "address": "Viale Mario Rapisardi, 256, 95123 Catania CT", "lat": 37.51003, "fuel_level": 93}]