[{"virtual_rental_type_id": 3, "car_plate": "ET104XL", "virtual_rental_id": 220855, "car_category_id": 9, "car_category_type_id": 1, "lon": 9.123471, "carModelData": [100], "car_name": "Fiat 500 L", "onClick_disabled": false, "address": "Via degli Alpini, 16, 20090 Buccinasco MI", "lat": 45.427917, "fuel_level": 81}, {"virtual_rental_type_id": 3, "car_plate": "ET113XL", "virtual_rental_id": 225442, "car_category_id": 9, "car_category_type_id": 1, "lon": 9.114311, "carModelData": [100], "car_name": "Fiat 500 L", "onClick_disabled": false, "address": "Via Bruno Buozzi, 22, 20090 Buccinasco MI", "lat": 45.42536, "fuel_level": 100}, {"virtual_rental_type_id": 3, "car_plate": "ET074XL", "virtual_rental_id": 231867, "car_category_id": 9, "car_category_type_id": 1, "lon": 9.203758, "carModelData": [100], "car_name": "Fiat 500 L", "onClick_disabled": false, "address": "Via Padre Reginaldo Giuliani, 4-8, 20125 Milano", "lat": 45.503716, "fuel_level": 80}, {"virtual_rental_type_id": 3, "car_plate": "ET108XL", "virtual_rental_id": 255899, "car_category_id": 9, "car_category_type_id": 1, "lon": 9.192237, "carModelData": [100], "car_name": "Fiat 500 L", "onClick_disabled": false, "address": "Via Pantano, 19, 20122 Milano", "lat": 45.459282, "fuel_level": 34}, {"virtual_rental_type_id": 2, "car_plate": "FA822WD", "virtual_rental_id": 339749, "car_category_id": 8, "car_category_type_id": 1, "lon": 9.189589, "carModelData": [], "car_name": "Fiat 500", "onClick_disabled": false, "address": "Via Borgonuovo, 25, 20121 Milano", "lat": 45.472572, "fuel_level": 77}, {"virtual_rental_type_id": 2, "car_plate": "ET004DE", "virtual_rental_id": 344072, "car_category_id": 8, "car_category_type_id": 1, "lon": 9.264386, "carModelData": [100], "car_name": "Fiat 500", "onClick_disabled": false, "address": "Via Guido Ucelli di Nemi, 51, 20138 Milano", "lat": 45.438778, "fuel_level": 85}, {"virtual_rental_type_id": 2, "car_plate": "ET303XF", "virtual_rental_id": 412418, "car_category_id": 8, "car_category_type_id": 1, "lon": 9.117093, "carModelData": [100], "car_name": "Fiat 500", "onClick_disabled": false, "address": "Via S. Giusto, 77, 20153 Milano", "lat": 45.470078, "fuel_level": 78}, {"virtual_rental_type_id": 2, "car_plate": "ET349XF", "virtual_rental_id": 344715, "car_category_id": 8, "car_category_type_id": 1, "lon": 9.117396, "carModelData": [100], "car_name": "Fiat 500", "onClick_disabled": false, "address": "Via Teobaldo Ciconi, 1-5, 20147 Milano", "lat": 45.4543, "fuel_level": 100}, {"virtual_rental_type_id": 2, "car_plate": "FA471YY", "virtual_rental_id": 370642, "car_category_id": 8, "car_category_type_id": 1, "lon": 9.094547, "carModelData": [], "car_name": "Fiat 500", "onClick_disabled": false, "address": "Via Caldera, 85, 20153 Milano", "lat": 45.47586, "fuel_level": 100}, {"virtual_rental_type_id": 2, "car_plate": "EZ188GW", "virtual_rental_id": 414982, "car_category_id": 8, "car_category_type_id": 1, "lon": 9.116496, "carModelData": [], "car_name": "Fiat 500", "onClick_disabled": false, "address": "Via Don Giovanni Minzoni, 13, 20090 Buccinasco MI", "lat": 45.423504, "fuel_level": 89}, {"virtual_rental_type_id": 2, "car_plate": "EZ765NF", "virtual_rental_id": 367307, "car_category_id": 8, "car_category_type_id": 1, "lon": 9.15002, "carModelData": [], "car_name": "Fiat 500", "onClick_disabled": false, "address": "Via Enrico Sertoli, 10, 20157 Milano", "lat": 45.51703, "fuel_level": 27}, {"virtual_rental_type_id": 2, "car_plate": "EZ349GW", "virtual_rental_id": 388050, "car_category_id": 8, "car_category_type_id": 1, "lon": 9.246286, "carModelData": [], "car_name": "Fiat 500", "onClick_disabled": false, "address": "Via Privata Oslavia, 8, 20134 Milano", "lat": 45.481613, "fuel_level": 100}, {"virtual_rental_type_id": 2, "car_plate": "FA466YY", "virtual_rental_id": 341509, "car_category_id": 8, "car_category_type_id": 1, "lon": 9.117242, "carModelData": [], "car_name": "Fiat 500", "onClick_disabled": false, "address": "Via Zurigo, 26-28, 20152 Milano", "lat": 45.456444, "fuel_level": 98}, {"virtual_rental_type_id": 2, "car_plate": "ET891DD", "virtual_rental_id": 399830, "car_category_id": 8, "car_category_type_id": 1, "lon": 9.134351, "carModelData": [100], "car_name": "Fiat 500", "onClick_disabled": false, "address": "Via Antonio Mambretti, 4, 20157 Milano", "lat": 45.507336, "fuel_level": 5}, {"virtual_rental_type_id": 2, "car_plate": "ET635XJ", "virtual_rental_id": 350877, "car_category_id": 8, "car_category_type_id": 1, "lon": 9.163055, "carModelData": [100], "car_name": "Fiat 500", "onClick_disabled": false, "address": "Via Comasina, 83, 20161 Milano", "lat": 45.529224, "fuel_level": 98}, {"virtual_rental_type_id": 2, "car_plate": "ET328XF", "virtual_rental_id": 394451, "car_category_id": 8, "car_category_type_id": 1, "lon": 9.165132, "carModelData": [100], "car_name": "Fiat 500", "onClick_disabled": false, "address": "Piazza Giovanni XXIII, 16, 20145 Milano", "lat": 45.476326, "fuel_level": 53}, {"virtual_rental_type_id": 2, "car_plate": "EZ179GW", "virtual_rental_id": 354108, "car_category_id": 8, "car_category_type_id": 1, "lon": 9.169835, "carModelData": [], "car_name": "Fiat 500", "onClick_disabled": false, "address": "Via Costantino Baroni, 116, 20142 Milano", "lat": 45.409588, "fuel_level": 100}, {"virtual_rental_type_id": 2, "car_plate": "ET030XL", "virtual_rental_id": 322515, "car_category_id": 8, "car_category_type_id": 1, "lon": 9.246495, "carModelData": [100], "car_name": "Fiat 500", "onClick_disabled": false, "address": "Via Feltre, 75, 20134 Milano", "lat": 45.491455, "fuel_level": 10}, {"virtual_rental_type_id": 2, "car_plate": "FA412YY", "virtual_rental_id": 327058, "car_category_id": 8, "car_category_type_id": 1, "lon": 9.184443, "carModelData": [], "car_name": "Fiat 500", "onClick_disabled": false, "address": "Via Palermo, 16, 20121 Milano", "lat": 45.475452, "fuel_level": 53}, {"virtual_rental_type_id": 2, "car_plate": "ET988XK", "virtual_rental_id": 377669, "car_category_id": 8, "car_category_type_id": 1, "lon": 9.24704, "carModelData": [100], "car_name": "Fiat 500", "onClick_disabled": false, "address": "Via Padova, 292, 20132 Milano", "lat": 45.509018, "fuel_level": 45}, {"virtual_rental_type_id": 2, "car_plate": "FA839WD", "virtual_rental_id": 322423, "car_category_id": 8, "car_category_type_id": 1, "lon": 9.24886, "carModelData": [], "car_name": "Fiat 500", "onClick_disabled": false, "address": "Via Civitavecchia, 100, 20132 Milano", "lat": 45.503494, "fuel_level": 63}, {"virtual_rental_type_id": 2, "car_plate": "FA462YY", "virtual_rental_id": 376814, "car_category_id": 8, "car_category_type_id": 1, "lon": 9.185688, "carModelData": [], "car_name": "Fiat 500", "onClick_disabled": false, "address": "Via Broletto, 44, 20121 Milano", "lat": 45.467888, "fuel_level": 47}, {"virtual_rental_type_id": 2, "car_plate": "EZ027TY", "virtual_rental_id": 383750, "car_category_id": 8, "car_category_type_id": 1, "lon": 9.13139, "carModelData": [], "car_name": "Fiat 500", "onClick_disabled": false, "address": "Via delle Camelie, 8, 20147 Milano", "lat": 45.453285, "fuel_level": 66}, {"virtual_rental_type_id": 2, "car_plate": "EZ196GW", "virtual_rental_id": 368993, "car_category_id": 8, "car_category_type_id": 1, "lon": 9.183085, "carModelData": [], "car_name": "Fiat 500", "onClick_disabled": false, "address": "Foro Buonaparte, 10, 20121 Milano", "lat": 45.46907, "fuel_level": 25}, {"virtual_rental_type_id": 2, "car_plate": "EZ374GW", "virtual_rental_id": 376726, "car_category_id": 8, "car_category_type_id": 1, "lon": 9.1267605, "carModelData": [], "car_name": "Fiat 500", "onClick_disabled": false, "address": "Via Giuseppe di Vittorio, 15, 20090 Buccinasco MI", "lat": 45.42088, "fuel_level": 100}, {"virtual_rental_type_id": 2, "car_plate": "EY185YA", "virtual_rental_id": 352465, "car_category_id": 8, "car_category_type_id": 1, "lon": 9.204698, "carModelData": [100], "car_name": "Fiat 500", "onClick_disabled": false, "address": "Piazza Duca d'Aosta, 4-12, 20124 Milano", "lat": 45.484455, "fuel_level": 24}, {"virtual_rental_type_id": 2, "car_plate": "EZ269GW", "virtual_rental_id": 421647, "car_category_id": 8, "car_category_type_id": 1, "lon": 9.169136, "carModelData": [100], "car_name": "Fiat 500", "onClick_disabled": false, "address": "Via Costantino Baroni, 152, 20142 Milano", "lat": 45.40738, "fuel_level": 45}, {"virtual_rental_type_id": 2, "car_plate": "ET906DD", "virtual_rental_id": 392104, "car_category_id": 8, "car_category_type_id": 1, "lon": 9.210028, "carModelData": [100], "car_name": "Fiat 500", "onClick_disabled": false, "address": "Via Gianfranco Zuretti, 62, 20125 Milano", "lat": 45.495655, "fuel_level": 100}, {"virtual_rental_type_id": 2, "car_plate": "ET852DD", "virtual_rental_id": 328747, "car_category_id": 8, "car_category_type_id": 1, "lon": 9.254348, "carModelData": [14, 100], "car_name": "Fiat 500", "onClick_disabled": false, "address": "Via Piero Portaluppi, 9, 20138 Milano", "lat": 45.454014, "fuel_level": 100}, {"virtual_rental_type_id": 2, "car_plate": "FA825WD", "virtual_rental_id": 322137, "car_category_id": 8, "car_category_type_id": 1, "lon": 9.173539, "carModelData": [], "car_name": "Fiat 500", "onClick_disabled": false, "address": "Via Eugenio Curiel, 2, 20142 Milano MI", "lat": 45.40093, "fuel_level": 67}, {"virtual_rental_type_id": 2, "car_plate": "FA833WD", "virtual_rental_id": 389931, "car_category_id": 8, "car_category_type_id": 1, "lon": 9.1571045, "carModelData": [], "car_name": "Fiat 500", "onClick_disabled": false, "address": "Via Dante Chiasserini, 20-28, 20157 Milano", "lat": 45.51235, "fuel_level": 69}, {"virtual_rental_type_id": 2, "car_plate": "ET285XF", "virtual_rental_id": 364266, "car_category_id": 8, "car_category_type_id": 1, "lon": 9.180466, "carModelData": [100], "car_name": "Fiat 500", "onClick_disabled": false, "address": "Via Edmondo de Amicis, 9, 20123 Milano", "lat": 45.457455, "fuel_level": 41}, {"virtual_rental_type_id": 2, "car_plate": "FA448YY", "virtual_rental_id": 396750, "car_category_id": 8, "car_category_type_id": 1, "lon": 9.254627, "carModelData": [], "car_name": "Fiat 500", "onClick_disabled": false, "address": "Via Giuseppe Impastato, 20138 Milano", "lat": 45.42864, "fuel_level": 40}, {"virtual_rental_type_id": 2, "car_plate": "ET333XF", "virtual_rental_id": 365412, "car_category_id": 8, "car_category_type_id": 1, "lon": 9.22192, "carModelData": [100], "car_name": "Fiat 500", "onClick_disabled": false, "address": "Via Giacosa Giuseppe, 46, 20127 Milano", "lat": 45.49475, "fuel_level": 60}, {"virtual_rental_type_id": 2, "car_plate": "FA408YY", "virtual_rental_id": 394680, "car_category_id": 8, "car_category_type_id": 1, "lon": 9.092949, "carModelData": [14], "car_name": "Fiat 500", "onClick_disabled": false, "address": "Via Roma, 35, 20090 Cesano Boscone MI", "lat": 45.444286, "fuel_level": 100}, {"virtual_rental_type_id": 2, "car_plate": "FA519YY", "virtual_rental_id": 365411, "car_category_id": 8, "car_category_type_id": 1, "lon": 9.118569, "carModelData": [], "car_name": "Fiat 500", "onClick_disabled": false, "address": "Via Federico Tesio, 31, 20151 Milano", "lat": 45.48057, "fuel_level": 33}, {"virtual_rental_type_id": 2, "car_plate": "ET069XL", "virtual_rental_id": 388002, "car_category_id": 8, "car_category_type_id": 1, "lon": 9.17607, "carModelData": [100], "car_name": "Fiat 500", "onClick_disabled": false, "address": "Viale Vincenzo Lancetti, 28, 20158 Milano", "lat": 45.49532, "fuel_level": 6}, {"virtual_rental_type_id": 2, "car_plate": "FA799WD", "virtual_rental_id": 410118, "car_category_id": 8, "car_category_type_id": 1, "lon": 9.239812, "carModelData": [], "car_name": "Fiat 500", "onClick_disabled": false, "address": "Viale Antonio Gramsci, 293, 20099 Sesto San Giovanni MI", "lat": 45.542248, "fuel_level": 70}, {"virtual_rental_type_id": 2, "car_plate": "FA826WD", "virtual_rental_id": 342956, "car_category_id": 8, "car_category_type_id": 1, "lon": 9.173781, "carModelData": [], "car_name": "Fiat 500", "onClick_disabled": false, "address": "Via Carlotta Marchionni, 19, 20161 Milano", "lat": 45.52644, "fuel_level": 82}, {"virtual_rental_type_id": 2, "car_plate": "FA473YY", "virtual_rental_id": 380775, "car_category_id": 8, "car_category_type_id": 1, "lon": 9.17532, "carModelData": [], "car_name": "Fiat 500", "onClick_disabled": false, "address": "Via de Andre, 10, 20142 Milano", "lat": 45.423264, "fuel_level": 100}, {"virtual_rental_type_id": 2, "car_plate": "FA446YY", "virtual_rental_id": 356571, "car_category_id": 8, "car_category_type_id": 1, "lon": 9.090179, "carModelData": [14], "car_name": "Fiat 500", "onClick_disabled": false, "address": "Via Eugenio Quarti, 20153 Milano", "lat": 45.47004, "fuel_level": 32}, {"virtual_rental_type_id": 2, "car_plate": "ET964DD", "virtual_rental_id": 343710, "car_category_id": 8, "car_category_type_id": 1, "lon": 9.196134, "carModelData": [100], "car_name": "Fiat 500", "onClick_disabled": false, "address": "Corso Giacomo Matteotti, 9, 20121 Milano", "lat": 45.46694, "fuel_level": 89}, {"virtual_rental_type_id": 2, "car_plate": "ET983CW", "virtual_rental_id": 340359, "car_category_id": 8, "car_category_type_id": 1, "lon": 9.121132, "carModelData": [14], "car_name": "Fiat 500", "onClick_disabled": false, "address": "Via Giuseppe di Vittorio, 11, 20090 Buccinasco MI", "lat": 45.42105, "fuel_level": 40}, {"virtual_rental_type_id": 2, "car_plate": "ET656XJ", "virtual_rental_id": 388702, "car_category_id": 8, "car_category_type_id": 1, "lon": 9.219178, "carModelData": [100], "car_name": "Fiat 500", "onClick_disabled": false, "address": "Via Milanese, 20099 Sesto San Giovanni MI", "lat": 45.532078, "fuel_level": 82}, {"virtual_rental_type_id": 2, "car_plate": "ET697XJ", "virtual_rental_id": 349832, "car_category_id": 8, "car_category_type_id": 1, "lon": 9.218537, "carModelData": [100], "car_name": "Fiat 500", "onClick_disabled": false, "address": "Via Luigi Granelli, 1, 20099 Sesto San Giovanni MI", "lat": 45.5302, "fuel_level": 62}, {"virtual_rental_type_id": 2, "car_plate": "ET033XL", "virtual_rental_id": 394666, "car_category_id": 8, "car_category_type_id": 1, "lon": 9.2084675, "carModelData": [100], "car_name": "Fiat 500", "onClick_disabled": false, "address": "Via Macconago, 20, 20141 Milano MI", "lat": 45.4136, "fuel_level": 26}, {"virtual_rental_type_id": 2, "car_plate": "ET305XF", "virtual_rental_id": 408810, "car_category_id": 8, "car_category_type_id": 1, "lon": 9.113388, "carModelData": [100], "car_name": "Fiat 500", "onClick_disabled": false, "address": "Via Ugo Ojetti, 1, 20151 Milano", "lat": 45.49345, "fuel_level": 30}, {"virtual_rental_type_id": 2, "car_plate": "FA409YY", "virtual_rental_id": 389363, "car_category_id": 8, "car_category_type_id": 1, "lon": 9.163613, "carModelData": [], "car_name": "Fiat 500", "onClick_disabled": false, "address": "Via Alessandro Litta Modignani, 14, 20161 Milano", "lat": 45.523563, "fuel_level": 96}, {"virtual_rental_type_id": 2, "car_plate": "ET307XF", "virtual_rental_id": 356502, "car_category_id": 8, "car_category_type_id": 1, "lon": 9.110769, "carModelData": [100], "car_name": "Fiat 500", "onClick_disabled": false, "address": "Via Lario, 9, 20090 Buccinasco MI", "lat": 45.42231, "fuel_level": 100}, {"virtual_rental_type_id": 2, "car_plate": "ET600XJ", "virtual_rental_id": 353165, "car_category_id": 8, "car_category_type_id": 1, "lon": 9.19116, "carModelData": [100], "car_name": "Fiat 500", "onClick_disabled": false, "address": "Via Larga, 31, 20122 Milano", "lat": 45.460567, "fuel_level": 68}, {"virtual_rental_type_id": 2, "car_plate": "EZ150GW", "virtual_rental_id": 420339, "car_category_id": 8, "car_category_type_id": 1, "lon": 9.124913, "carModelData": [], "car_name": "Fiat 500", "onClick_disabled": false, "address": "Via Rodolfo Morandi, 2, 20090 Buccinasco MI", "lat": 45.42357, "fuel_level": 44}, {"virtual_rental_type_id": 2, "car_plate": "ET280XF", "virtual_rental_id": 355729, "car_category_id": 8, "car_category_type_id": 1, "lon": 9.125885, "carModelData": [100], "car_name": "Fiat 500", "onClick_disabled": false, "address": "Via Trenno, 26-32, 20151 Milano", "lat": 45.4885, "fuel_level": 100}, {"virtual_rental_type_id": 2, "car_plate": "ET320XF", "virtual_rental_id": 399769, "car_category_id": 8, "car_category_type_id": 1, "lon": 9.2271805, "carModelData": [100], "car_name": "Fiat 500", "onClick_disabled": false, "address": "Via Luigi Guanella, 19-21, 20128 Milano", "lat": 45.51105, "fuel_level": 65}, {"virtual_rental_type_id": 2, "car_plate": "ET263CY", "virtual_rental_id": 336777, "car_category_id": 8, "car_category_type_id": 1, "lon": 9.11612, "carModelData": [100], "car_name": "Fiat 500", "onClick_disabled": false, "address": "Via Adolfo Omodeo, 21, 20151 Milano", "lat": 45.491688, "fuel_level": 57}, {"virtual_rental_type_id": 2, "car_plate": "EZ388GW", "virtual_rental_id": 397024, "car_category_id": 8, "car_category_type_id": 1, "lon": 9.22794, "carModelData": [], "car_name": "Fiat 500", "onClick_disabled": false, "address": "Via Empedocle, 7, 20128 Milano", "lat": 45.519474, "fuel_level": 64}, {"virtual_rental_type_id": 2, "car_plate": "EZ194GW", "virtual_rental_id": 385819, "car_category_id": 8, "car_category_type_id": 1, "lon": 9.221272, "carModelData": [], "car_name": "Fiat 500", "onClick_disabled": false, "address": "Via Marco Aurelio, 55, 20127 Milano", "lat": 45.494503, "fuel_level": 100}, {"virtual_rental_type_id": 2, "car_plate": "EZ180GW", "virtual_rental_id": 354994, "car_category_id": 8, "car_category_type_id": 1, "lon": 9.20313, "carModelData": [], "car_name": "Fiat 500", "onClick_disabled": false, "address": "Via Giuseppe Ripamonti, 342, 20141 Milano", "lat": 45.421165, "fuel_level": 57}, {"virtual_rental_type_id": 2, "car_plate": "FA515YY", "virtual_rental_id": 361654, "car_category_id": 8, "car_category_type_id": 1, "lon": 9.128388, "carModelData": [14], "car_name": "Fiat 500", "onClick_disabled": false, "address": "Via Guido Rossa, 12, 20090 Buccinasco MI", "lat": 45.415726, "fuel_level": 20}, {"virtual_rental_type_id": 2, "car_plate": "ET617XJ", "virtual_rental_id": 357704, "car_category_id": 8, "car_category_type_id": 1, "lon": 9.214441, "carModelData": [100], "car_name": "Fiat 500", "onClick_disabled": false, "address": "Corso Lodi, 59-61, 20139 Milano", "lat": 45.444782, "fuel_level": 32}, {"virtual_rental_type_id": 2, "car_plate": "ET997DD", "virtual_rental_id": 350000, "car_category_id": 8, "car_category_type_id": 1, "lon": 9.184617, "carModelData": [100], "car_name": "Fiat 500", "onClick_disabled": false, "address": "Via Fosse Ardeatine, 566, 20123 Milano", "lat": 45.46258, "fuel_level": 100}, {"virtual_rental_type_id": 2, "car_plate": "FA500YY", "virtual_rental_id": 413206, "car_category_id": 8, "car_category_type_id": 1, "lon": 9.178741, "carModelData": [14], "car_name": "Fiat 500", "onClick_disabled": false, "address": "Viale Tibaldi, 20, 20136 Milano", "lat": 45.44351, "fuel_level": 62}, {"virtual_rental_type_id": 2, "car_plate": "ET684XJ", "virtual_rental_id": 328623, "car_category_id": 8, "car_category_type_id": 1, "lon": 9.23157, "carModelData": [100], "car_name": "Fiat 500", "onClick_disabled": false, "address": "Via Emilio Olivari, 11, 20131 Milano", "lat": 45.4906, "fuel_level": 97}, {"virtual_rental_type_id": 2, "car_plate": "ET958XK", "virtual_rental_id": 351676, "car_category_id": 8, "car_category_type_id": 1, "lon": 9.16667, "carModelData": [14, 100], "car_name": "Fiat 500", "onClick_disabled": false, "address": "Via Pietro Pancrazi, 232, 20145 Milano", "lat": 45.47779, "fuel_level": 43}, {"virtual_rental_type_id": 2, "car_plate": "EZ760NF", "virtual_rental_id": 331503, "car_category_id": 8, "car_category_type_id": 1, "lon": 9.244031, "carModelData": [], "car_name": "Fiat 500", "onClick_disabled": false, "address": "Via Vittorio Bottego, 7, 20132 Milano", "lat": 45.503788, "fuel_level": 30}, {"virtual_rental_type_id": 2, "car_plate": "EZ036TY", "virtual_rental_id": 358848, "car_category_id": 8, "car_category_type_id": 1, "lon": 9.115725, "carModelData": [], "car_name": "Fiat 500", "onClick_disabled": false, "address": "Viale Lombardia, 56, 20090 Buccinasco MI", "lat": 45.42667, "fuel_level": 66}, {"virtual_rental_type_id": 2, "car_plate": "EX548VG", "virtual_rental_id": 353830, "car_category_id": 8, "car_category_type_id": 1, "lon": 9.202921, "carModelData": [14, 100], "car_name": "Fiat 500", "onClick_disabled": false, "address": "Via Fra Riccardo Pampuri, 3, 20141 Milano", "lat": 45.42509, "fuel_level": 34}, {"virtual_rental_type_id": 2, "car_plate": "ET993XK", "virtual_rental_id": 359109, "car_category_id": 8, "car_category_type_id": 1, "lon": 9.187208, "carModelData": [100], "car_name": "Fiat 500", "onClick_disabled": false, "address": "Via Monzambano, 11, 20159 Milano", "lat": 45.50496, "fuel_level": 100}, {"virtual_rental_type_id": 2, "car_plate": "ET644XJ", "virtual_rental_id": 390567, "car_category_id": 8, "car_category_type_id": 1, "lon": 9.282485, "carModelData": [100], "car_name": "Fiat 500", "onClick_disabled": false, "address": "Via Felice Maritano, 26, 20097 San Donato Milanese MI", "lat": 45.418045, "fuel_level": 100}, {"virtual_rental_type_id": 2, "car_plate": "ET837DD", "virtual_rental_id": 326947, "car_category_id": 8, "car_category_type_id": 1, "lon": 9.130966, "carModelData": [100], "car_name": "Fiat 500", "onClick_disabled": false, "address": "Via degli Ottoboni, 46, 20148 Milano", "lat": 45.47916, "fuel_level": 100}, {"virtual_rental_type_id": 2, "car_plate": "ET614XJ", "virtual_rental_id": 365424, "car_category_id": 8, "car_category_type_id": 1, "lon": 9.1667, "carModelData": [14, 100], "car_name": "Fiat 500", "onClick_disabled": false, "address": "Via Moncucco, 31, 20143 Milano", "lat": 45.438705, "fuel_level": 100}, {"virtual_rental_type_id": 2, "car_plate": "ET343XF", "virtual_rental_id": 361216, "car_category_id": 8, "car_category_type_id": 1, "lon": 9.122301, "carModelData": [100], "car_name": "Fiat 500", "onClick_disabled": false, "address": "Via Sapri, 4, 20156 Milano", "lat": 45.503956, "fuel_level": 83}, {"virtual_rental_type_id": 2, "car_plate": "ET282XF", "virtual_rental_id": 371898, "car_category_id": 8, "car_category_type_id": 1, "lon": 9.110809, "carModelData": [100], "car_name": "Fiat 500", "onClick_disabled": false, "address": "Via Lario, 9, 20090 Buccinasco MI", "lat": 45.422455, "fuel_level": 32}, {"virtual_rental_type_id": 2, "car_plate": "ET859DD", "virtual_rental_id": 372459, "car_category_id": 8, "car_category_type_id": 1, "lon": 9.1956625, "carModelData": [100], "car_name": "Fiat 500", "onClick_disabled": false, "address": "Via S. Pietro All'Orto, 10, 20122 Milano", "lat": 45.466156, "fuel_level": 20}, {"virtual_rental_type_id": 2, "car_plate": "ET690XJ", "virtual_rental_id": 367923, "car_category_id": 8, "car_category_type_id": 1, "lon": 9.132579, "carModelData": [100], "car_name": "Fiat 500", "onClick_disabled": false, "address": "Via Civenna, 1, 20151 Milano", "lat": 45.49561, "fuel_level": 77}, {"virtual_rental_type_id": 2, "car_plate": "EX511VG", "virtual_rental_id": 336701, "car_category_id": 8, "car_category_type_id": 1, "lon": 9.130291, "carModelData": [100], "car_name": "Fiat 500", "onClick_disabled": false, "address": "SS494, 176-182, 20147 Milano", "lat": 45.448143, "fuel_level": 100}, {"virtual_rental_type_id": 2, "car_plate": "ET637XJ", "virtual_rental_id": 374537, "car_category_id": 8, "car_category_type_id": 1, "lon": 9.130745, "carModelData": [100], "car_name": "Fiat 500", "onClick_disabled": false, "address": "Via Pier Francesco Cittadini, 1, 20157 Milano", "lat": 45.51428, "fuel_level": 74}, {"virtual_rental_type_id": 2, "car_plate": "ET008DE", "virtual_rental_id": 322448, "car_category_id": 8, "car_category_type_id": 1, "lon": 9.207968, "carModelData": [100], "car_name": "Fiat 500", "onClick_disabled": false, "address": "Via Balduccio da Pisa, 2-12, 20139 Milano", "lat": 45.442146, "fuel_level": 17}, {"virtual_rental_type_id": 2, "car_plate": "EX524VG", "virtual_rental_id": 412694, "car_category_id": 8, "car_category_type_id": 1, "lon": 9.150781, "carModelData": [], "car_name": "Fiat 500", "onClick_disabled": false, "address": "Viale Teodorico, 20149 Milano", "lat": 45.484215, "fuel_level": 21}, {"virtual_rental_type_id": 2, "car_plate": "ET838DD", "virtual_rental_id": 367375, "car_category_id": 8, "car_category_type_id": 1, "lon": 9.227993, "carModelData": [100], "car_name": "Fiat 500", "onClick_disabled": false, "address": "Via Privata Iglesias, 1-3, 20128 Milano", "lat": 45.504913, "fuel_level": 29}, {"virtual_rental_type_id": 2, "car_plate": "ET984DD", "virtual_rental_id": 395247, "car_category_id": 8, "car_category_type_id": 1, "lon": 9.10837, "carModelData": [100], "car_name": "Fiat 500", "onClick_disabled": false, "address": "Via Fratelli Zoia, 15, 20153 Milano", "lat": 45.475838, "fuel_level": 95}, {"virtual_rental_type_id": 2, "car_plate": "EY162WC", "virtual_rental_id": 387629, "car_category_id": 8, "car_category_type_id": 1, "lon": 9.276921, "carModelData": [100], "car_name": "Fiat 500", "onClick_disabled": false, "address": "Aeroporto Linate - Partenze, Segrate MI", "lat": 45.46251, "fuel_level": 36}, {"virtual_rental_type_id": 2, "car_plate": "ET674XJ", "virtual_rental_id": 414615, "car_category_id": 8, "car_category_type_id": 1, "lon": 9.162771, "carModelData": [100], "car_name": "Fiat 500", "onClick_disabled": false, "address": "Via Enrico Cosenz, 54, 20158 Milano", "lat": 45.50779, "fuel_level": 47}, {"virtual_rental_type_id": 2, "car_plate": "EZ218TY", "virtual_rental_id": 352111, "car_category_id": 8, "car_category_type_id": 1, "lon": 9.122738, "carModelData": [], "car_name": "Fiat 500", "onClick_disabled": false, "address": "Via Angelo Inganni, 84, 20147 Milano", "lat": 45.45709, "fuel_level": 60}, {"virtual_rental_type_id": 2, "car_plate": "EZ328GW", "virtual_rental_id": 330882, "car_category_id": 8, "car_category_type_id": 1, "lon": 9.183575, "carModelData": [14], "car_name": "Fiat 500", "onClick_disabled": false, "address": "Foro Buonaparte, 22, 20121 Milano", "lat": 45.47095, "fuel_level": 0}, {"virtual_rental_type_id": 2, "car_plate": "EZ368GW", "virtual_rental_id": 392805, "car_category_id": 8, "car_category_type_id": 1, "lon": 9.267425, "carModelData": [], "car_name": "Fiat 500", "onClick_disabled": false, "address": "Via Olgettina, 9, 20090 Vimodrone MI", "lat": 45.512, "fuel_level": 100}, {"virtual_rental_type_id": 2, "car_plate": "ET048XL", "virtual_rental_id": 388572, "car_category_id": 8, "car_category_type_id": 1, "lon": 9.192908, "carModelData": [100], "car_name": "Fiat 500", "onClick_disabled": false, "address": "Largo Francesco Richini, 2, 20122 Milano", "lat": 45.4601, "fuel_level": 38}, {"virtual_rental_type_id": 2, "car_plate": "EZ206TY", "virtual_rental_id": 322498, "car_category_id": 8, "car_category_type_id": 1, "lon": 9.092359, "carModelData": [], "car_name": "Fiat 500", "onClick_disabled": false, "address": "Via Vincenzo Bellini, 3, 20090 Cesano Boscone MI", "lat": 45.441505, "fuel_level": 16}, {"virtual_rental_type_id": 2, "car_plate": "ET372XF", "virtual_rental_id": 394121, "car_category_id": 8, "car_category_type_id": 1, "lon": 9.181038, "carModelData": [100], "car_name": "Fiat 500", "onClick_disabled": false, "address": "Via S. Giovanni sul Muro, 15, 20121 Milano", "lat": 45.466362, "fuel_level": 37}, {"virtual_rental_type_id": 2, "car_plate": "EX989VG", "virtual_rental_id": 333178, "car_category_id": 8, "car_category_type_id": 1, "lon": 9.1411705, "carModelData": [100], "car_name": "Fiat 500", "onClick_disabled": false, "address": "Via Daniele Ricciarelli, 16, 20148 Milano", "lat": 45.471474, "fuel_level": 30}, {"virtual_rental_type_id": 2, "car_plate": "EX994VG", "virtual_rental_id": 385031, "car_category_id": 8, "car_category_type_id": 1, "lon": 9.18976, "carModelData": [100], "car_name": "Fiat 500", "onClick_disabled": false, "address": "Via Francesco Vigan\u00f2, 4, 20124 Milano", "lat": 45.48169, "fuel_level": 77}, {"virtual_rental_type_id": 2, "car_plate": "ET830DD", "virtual_rental_id": 405912, "car_category_id": 8, "car_category_type_id": 1, "lon": 9.064302, "carModelData": [100], "car_name": "Fiat 500", "onClick_disabled": false, "address": "Via Cesare Pavese, 54-60, 20019 Settimo Milanese MI", "lat": 45.471535, "fuel_level": 73}, {"virtual_rental_type_id": 2, "car_plate": "ET872DD", "virtual_rental_id": 427363, "car_category_id": 8, "car_category_type_id": 1, "lon": 9.121953, "carModelData": [14, 100], "car_name": "Fiat 500", "onClick_disabled": false, "address": "Via Luigi Chiarelli, 10, 20151 Milano", "lat": 45.49082, "fuel_level": 46}, {"virtual_rental_type_id": 2, "car_plate": "ET853DD", "virtual_rental_id": 359315, "car_category_id": 8, "car_category_type_id": 1, "lon": 9.11599, "carModelData": [14, 100], "car_name": "Fiat 500", "onClick_disabled": false, "address": "Via Filippo Maria Beltrami, 20152 Milano", "lat": 45.458664, "fuel_level": 90}, {"virtual_rental_type_id": 2, "car_plate": "FA413YY", "virtual_rental_id": 417330, "car_category_id": 8, "car_category_type_id": 1, "lon": 9.104227, "carModelData": [], "car_name": "Fiat 500", "onClick_disabled": false, "address": "Via dei Gelsi, 16, 20090 Buccinasco MI", "lat": 45.426105, "fuel_level": 60}, {"virtual_rental_type_id": 2, "car_plate": "EX549VG", "virtual_rental_id": 325392, "car_category_id": 8, "car_category_type_id": 1, "lon": 9.131043, "carModelData": [100], "car_name": "Fiat 500", "onClick_disabled": false, "address": "Via Felice Orsini, 48-52, 20157 Milano", "lat": 45.517685, "fuel_level": 100}, {"virtual_rental_type_id": 2, "car_plate": "ET304XF", "virtual_rental_id": 379140, "car_category_id": 8, "car_category_type_id": 1, "lon": 9.17662, "carModelData": [100], "car_name": "Fiat 500", "onClick_disabled": false, "address": "Via Bugatti Ettore, 6, 20142 Milano MI", "lat": 45.416187, "fuel_level": 43}, {"virtual_rental_type_id": 2, "car_plate": "ET020XL", "virtual_rental_id": 367627, "car_category_id": 8, "car_category_type_id": 1, "lon": 9.092333, "carModelData": [100], "car_name": "Fiat 500", "onClick_disabled": false, "address": "Via Donizetti, 3, Cesano Boscone MI", "lat": 45.440727, "fuel_level": 17}, {"virtual_rental_type_id": 2, "car_plate": "ET371XF", "virtual_rental_id": 330702, "car_category_id": 8, "car_category_type_id": 1, "lon": 9.171973, "carModelData": [], "car_name": "Fiat 500", "onClick_disabled": false, "address": "Via Costantino Baroni, 13, 20142 Milano", "lat": 45.41029, "fuel_level": 73}, {"virtual_rental_type_id": 2, "car_plate": "ET934DD", "virtual_rental_id": 365727, "car_category_id": 8, "car_category_type_id": 1, "lon": 9.1040535, "carModelData": [14, 100], "car_name": "Fiat 500", "onClick_disabled": false, "address": "Viale Isonzo, 6, 20090 Buccinasco MI", "lat": 45.426514, "fuel_level": 66}, {"virtual_rental_type_id": 2, "car_plate": "FA489YY", "virtual_rental_id": 322388, "car_category_id": 8, "car_category_type_id": 1, "lon": 9.087876, "carModelData": [], "car_name": "Fiat 500", "onClick_disabled": false, "address": "Via Pasubio, 5-9, 20090 Cesano Boscone MI", "lat": 45.44771, "fuel_level": 24}, {"virtual_rental_type_id": 2, "car_plate": "EZ216TY", "virtual_rental_id": 360811, "car_category_id": 8, "car_category_type_id": 1, "lon": 9.124471, "carModelData": [], "car_name": "Fiat 500", "onClick_disabled": false, "address": "Via Livio Cambi, 5, 20151 Milano", "lat": 45.49024, "fuel_level": 32}, {"virtual_rental_type_id": 2, "car_plate": "ET325XF", "virtual_rental_id": 366649, "car_category_id": 8, "car_category_type_id": 1, "lon": 9.247891, "carModelData": [14, 100], "car_name": "Fiat 500", "onClick_disabled": false, "address": "Via Privata Flumendosa, 47, 20132 Milano", "lat": 45.50659, "fuel_level": 27}, {"virtual_rental_type_id": 2, "car_plate": "FA453YY", "virtual_rental_id": 417331, "car_category_id": 8, "car_category_type_id": 1, "lon": 9.178049, "carModelData": [], "car_name": "Fiat 500", "onClick_disabled": false, "address": "Piazzale Luigi Cadorna, 2, 20123 Milano", "lat": 45.467976, "fuel_level": 30}, {"virtual_rental_type_id": 2, "car_plate": "ET661XJ", "virtual_rental_id": 425843, "car_category_id": 8, "car_category_type_id": 1, "lon": 9.172984, "carModelData": [100], "car_name": "Fiat 500", "onClick_disabled": false, "address": "Via Antonio Oroboni, 43, 20161 Milano", "lat": 45.528687, "fuel_level": 96}, {"virtual_rental_type_id": 2, "car_plate": "FA455YY", "virtual_rental_id": 363360, "car_category_id": 8, "car_category_type_id": 1, "lon": 9.081415, "carModelData": [], "car_name": "Fiat 500", "onClick_disabled": false, "address": "Via degli Ontani, 2, 20152 Milano", "lat": 45.454567, "fuel_level": 49}, {"virtual_rental_type_id": 2, "car_plate": "EZ197GW", "virtual_rental_id": 335969, "car_category_id": 8, "car_category_type_id": 1, "lon": 9.128114, "carModelData": [], "car_name": "Fiat 500", "onClick_disabled": false, "address": "Piazzale Giuseppe Perrucchetti, 4610, 20147 Milano", "lat": 45.46522, "fuel_level": 98}, {"virtual_rental_type_id": 2, "car_plate": "ET655XJ", "virtual_rental_id": 428291, "car_category_id": 8, "car_category_type_id": 1, "lon": 9.133647, "carModelData": [100], "car_name": "Fiat 500", "onClick_disabled": false, "address": "Via Val Malenco, 1, 20157 Milano", "lat": 45.519745, "fuel_level": 89}, {"virtual_rental_type_id": 2, "car_plate": "ET583XJ", "virtual_rental_id": 349261, "car_category_id": 8, "car_category_type_id": 1, "lon": 9.146394, "carModelData": [100], "car_name": "Fiat 500", "onClick_disabled": false, "address": "Via Carlo Amoretti, 20, 20157 Milano", "lat": 45.519382, "fuel_level": 67}, {"virtual_rental_type_id": 2, "car_plate": "EX543VG", "virtual_rental_id": 374831, "car_category_id": 8, "car_category_type_id": 1, "lon": 9.126202, "carModelData": [100], "car_name": "Fiat 500", "onClick_disabled": false, "address": "Via Livio Cambi, 1, 20151 Milano", "lat": 45.489502, "fuel_level": 100}, {"virtual_rental_type_id": 2, "car_plate": "EZ341GW", "virtual_rental_id": 333915, "car_category_id": 8, "car_category_type_id": 1, "lon": 9.120954, "carModelData": [], "car_name": "Fiat 500", "onClick_disabled": false, "address": "Via Zurigo, 10, 20147 Milano", "lat": 45.457317, "fuel_level": 61}, {"virtual_rental_type_id": 2, "car_plate": "ET295XF", "virtual_rental_id": 346597, "car_category_id": 8, "car_category_type_id": 1, "lon": 9.244211, "carModelData": [100], "car_name": "Fiat 500", "onClick_disabled": false, "address": "Via Monte Cengio, 3, 20138 Milano", "lat": 45.431973, "fuel_level": 21}, {"virtual_rental_type_id": 2, "car_plate": "ET057XL", "virtual_rental_id": 376297, "car_category_id": 8, "car_category_type_id": 1, "lon": 9.125352, "carModelData": [100], "car_name": "Fiat 500", "onClick_disabled": false, "address": "Via Rodolfo Morandi, 2, 20090 Buccinasco MI", "lat": 45.423485, "fuel_level": 37}, {"virtual_rental_type_id": 2, "car_plate": "EX529VG", "virtual_rental_id": 408217, "car_category_id": 8, "car_category_type_id": 1, "lon": 9.23048, "carModelData": [100], "car_name": "Fiat 500", "onClick_disabled": false, "address": "Via Padova, 118-134, 20132 Milano", "lat": 45.49646, "fuel_level": 100}, {"virtual_rental_type_id": 2, "car_plate": "FA480YY", "virtual_rental_id": 407832, "car_category_id": 8, "car_category_type_id": 1, "lon": 9.211728, "carModelData": [], "car_name": "Fiat 500", "onClick_disabled": false, "address": "Viale delle Rimembranze di Greco, 41-47, 20125 Milano", "lat": 45.500687, "fuel_level": 98}, {"virtual_rental_type_id": 2, "car_plate": "FA494YY", "virtual_rental_id": 379004, "car_category_id": 8, "car_category_type_id": 1, "lon": 9.099926, "carModelData": [], "car_name": "Fiat 500", "onClick_disabled": false, "address": "Piazza Europa, 44, 20094 Corsico MI", "lat": 45.42663, "fuel_level": 38}, {"virtual_rental_type_id": 2, "car_plate": "ET967XK", "virtual_rental_id": 384304, "car_category_id": 8, "car_category_type_id": 1, "lon": 9.169197, "carModelData": [100], "car_name": "Fiat 500", "onClick_disabled": false, "address": "Via Alessandro Astesani, 54, 20161 Milano", "lat": 45.521004, "fuel_level": 74}, {"virtual_rental_type_id": 2, "car_plate": "ET040XL", "virtual_rental_id": 427465, "car_category_id": 8, "car_category_type_id": 1, "lon": 9.244902, "carModelData": [100], "car_name": "Fiat 500", "onClick_disabled": false, "address": "Via Privata Gaetano Sbodio, 2, 20134 Milano", "lat": 45.48184, "fuel_level": 21}, {"virtual_rental_type_id": 2, "car_plate": "ET355XF", "virtual_rental_id": 420489, "car_category_id": 8, "car_category_type_id": 1, "lon": 9.061639, "carModelData": [100], "car_name": "Fiat 500", "onClick_disabled": false, "address": "Via Barni, 14-38, 20019 Settimo Milanese MI", "lat": 45.473377, "fuel_level": 29}, {"virtual_rental_type_id": 2, "car_plate": "ET664XJ", "virtual_rental_id": 368694, "car_category_id": 8, "car_category_type_id": 1, "lon": 9.111408, "carModelData": [14, 100], "car_name": "Fiat 500", "onClick_disabled": false, "address": "Via Lucca, 15-19, 20152 Milano", "lat": 45.45542, "fuel_level": 88}, {"virtual_rental_type_id": 2, "car_plate": "ET944DD", "virtual_rental_id": 330451, "car_category_id": 8, "car_category_type_id": 1, "lon": 9.254811, "carModelData": [100], "car_name": "Fiat 500", "onClick_disabled": false, "address": "Strada Statale 9 Via Emilia, 1, 20097 San Donato Milanese MI", "lat": 45.422203, "fuel_level": 44}, {"virtual_rental_type_id": 2, "car_plate": "EZ149TY", "virtual_rental_id": 337637, "car_category_id": 8, "car_category_type_id": 1, "lon": 9.221797, "carModelData": [], "car_name": "Fiat 500", "onClick_disabled": false, "address": "Viale Monza, 134, 20127 Milano", "lat": 45.502773, "fuel_level": 24}, {"virtual_rental_type_id": 2, "car_plate": "ET866DD", "virtual_rental_id": 335735, "car_category_id": 8, "car_category_type_id": 1, "lon": 9.149721, "carModelData": [100], "car_name": "Fiat 500", "onClick_disabled": false, "address": "Viale Lodovico Scarampo, 19, 20148 Milano", "lat": 45.48169, "fuel_level": 32}, {"virtual_rental_type_id": 2, "car_plate": "ET985XK", "virtual_rental_id": 361058, "car_category_id": 8, "car_category_type_id": 1, "lon": 9.174953, "carModelData": [100], "car_name": "Fiat 500", "onClick_disabled": false, "address": "Via dei Missaglia, 99, 20142 Milano", "lat": 45.411385, "fuel_level": 98}, {"virtual_rental_type_id": 2, "car_plate": "ET971XK", "virtual_rental_id": 415708, "car_category_id": 8, "car_category_type_id": 1, "lon": 9.25327, "carModelData": [100], "car_name": "Fiat 500", "onClick_disabled": false, "address": "Via S. Mamete, 54, 20128 Milano", "lat": 45.512184, "fuel_level": 70}, {"virtual_rental_type_id": 2, "car_plate": "FA813WD", "virtual_rental_id": 338494, "car_category_id": 8, "car_category_type_id": 1, "lon": 9.242191, "carModelData": [], "car_name": "Fiat 500", "onClick_disabled": false, "address": "Via Monte Penice, 7, 20138 Milano", "lat": 45.433914, "fuel_level": 66}, {"virtual_rental_type_id": 2, "car_plate": "FA844WD", "virtual_rental_id": 398250, "car_category_id": 8, "car_category_type_id": 1, "lon": 9.166196, "carModelData": [], "car_name": "Fiat 500", "onClick_disabled": false, "address": "Via Gerolamo Forni, 68, 20161 Milano", "lat": 45.52597, "fuel_level": 98}, {"virtual_rental_type_id": 2, "car_plate": "EZ212TY", "virtual_rental_id": 369278, "car_category_id": 8, "car_category_type_id": 1, "lon": 9.1251545, "carModelData": [], "car_name": "Fiat 500", "onClick_disabled": false, "address": "Via Giuseppe di Vittorio, 30, 20090 Buccinasco MI", "lat": 45.42081, "fuel_level": 78}, {"virtual_rental_type_id": 2, "car_plate": "ET271XF", "virtual_rental_id": 356015, "car_category_id": 8, "car_category_type_id": 1, "lon": 9.246092, "carModelData": [14, 100], "car_name": "Fiat 500", "onClick_disabled": false, "address": "Via Adriano, 49, 20128 Milano", "lat": 45.51282, "fuel_level": 98}, {"virtual_rental_type_id": 2, "car_plate": "FA836WD", "virtual_rental_id": 348460, "car_category_id": 8, "car_category_type_id": 1, "lon": 9.214148, "carModelData": [], "car_name": "Fiat 500", "onClick_disabled": false, "address": "Via Friedrich Von Hayek, 20126 Milano", "lat": 45.521442, "fuel_level": 95}, {"virtual_rental_type_id": 2, "car_plate": "ET297XF", "virtual_rental_id": 324967, "car_category_id": 8, "car_category_type_id": 1, "lon": 9.114536, "carModelData": [100], "car_name": "Fiat 500", "onClick_disabled": false, "address": "Via Alessio Olivieri, 20-24, 20152 Milano", "lat": 45.462986, "fuel_level": 53}, {"virtual_rental_type_id": 2, "car_plate": "ET657XJ", "virtual_rental_id": 336760, "car_category_id": 8, "car_category_type_id": 1, "lon": 9.152569, "carModelData": [100], "car_name": "Fiat 500", "onClick_disabled": false, "address": "Via Bovisasca, 84, 20161 Milano", "lat": 45.51938, "fuel_level": 72}, {"virtual_rental_type_id": 2, "car_plate": "FA511YY", "virtual_rental_id": 360207, "car_category_id": 8, "car_category_type_id": 1, "lon": 9.165352, "carModelData": [], "car_name": "Fiat 500", "onClick_disabled": false, "address": "Via Moncucco, 44, 20143 Milano", "lat": 45.437874, "fuel_level": 98}, {"virtual_rental_type_id": 2, "car_plate": "EZ387GW", "virtual_rental_id": 359592, "car_category_id": 8, "car_category_type_id": 1, "lon": 9.09948, "carModelData": [14], "car_name": "Fiat 500", "onClick_disabled": false, "address": "Via Valsesia, 50, 20152 Milano", "lat": 45.452557, "fuel_level": 65}, {"virtual_rental_type_id": 2, "car_plate": "ET028XL", "virtual_rental_id": 374576, "car_category_id": 8, "car_category_type_id": 1, "lon": 9.157061, "carModelData": [], "car_name": "Fiat 500", "onClick_disabled": false, "address": "Via Antonio di Rudin\u00ec, 10, 20142 Milano", "lat": 45.433945, "fuel_level": 31}, {"virtual_rental_type_id": 2, "car_plate": "ET677XJ", "virtual_rental_id": 382474, "car_category_id": 8, "car_category_type_id": 1, "lon": 9.093673, "carModelData": [100], "car_name": "Fiat 500", "onClick_disabled": false, "address": "Via Giuseppe Galliano, 15, 20152 Milano", "lat": 45.4648, "fuel_level": 98}, {"virtual_rental_type_id": 2, "car_plate": "EZ158GW", "virtual_rental_id": 402138, "car_category_id": 8, "car_category_type_id": 1, "lon": 9.059364, "carModelData": [], "car_name": "Fiat 500", "onClick_disabled": false, "address": "Via Don Luigi Sturzo, 13, 20019 Settimo Milanese MI", "lat": 45.479847, "fuel_level": 83}, {"virtual_rental_type_id": 2, "car_plate": "EZ132GW", "virtual_rental_id": 339447, "car_category_id": 8, "car_category_type_id": 1, "lon": 9.247352, "carModelData": [100], "car_name": "Fiat 500", "onClick_disabled": false, "address": "Via Passo Rolle, 57, 20134 Milano", "lat": 45.48692, "fuel_level": 100}, {"virtual_rental_type_id": 2, "car_plate": "FA837WD", "virtual_rental_id": 348999, "car_category_id": 8, "car_category_type_id": 1, "lon": 9.125377, "carModelData": [], "car_name": "Fiat 500", "onClick_disabled": false, "address": "Via della Costituzione, 3, 20090 Milano MI", "lat": 45.42638, "fuel_level": 54}, {"virtual_rental_type_id": 2, "car_plate": "FA522YY", "virtual_rental_id": 342357, "car_category_id": 8, "car_category_type_id": 1, "lon": 9.150338, "carModelData": [], "car_name": "Fiat 500", "onClick_disabled": false, "address": "Via Riccione, 7, 20156 Milano", "lat": 45.500698, "fuel_level": 33}, {"virtual_rental_type_id": 2, "car_plate": "ET291XF", "virtual_rental_id": 377915, "car_category_id": 8, "car_category_type_id": 1, "lon": 9.175138, "carModelData": [100], "car_name": "Fiat 500", "onClick_disabled": false, "address": "Via Guido de Ruggiero, 6, 20142 Milano", "lat": 45.417454, "fuel_level": 76}, {"virtual_rental_type_id": 2, "car_plate": "FA518YY", "virtual_rental_id": 322524, "car_category_id": 8, "car_category_type_id": 1, "lon": 9.194232, "carModelData": [], "car_name": "Fiat 500", "onClick_disabled": false, "address": "Via dell'Annunciata, 2, 20121 Milano", "lat": 45.472416, "fuel_level": 81}, {"virtual_rental_type_id": 2, "car_plate": "ET353XF", "virtual_rental_id": 394284, "car_category_id": 8, "car_category_type_id": 1, "lon": 9.124512, "carModelData": [100], "car_name": "Fiat 500", "onClick_disabled": false, "address": "Via Berna, 15, 20147 Milano", "lat": 45.457478, "fuel_level": 40}, {"virtual_rental_type_id": 2, "car_plate": "ET006DE", "virtual_rental_id": 324890, "car_category_id": 8, "car_category_type_id": 1, "lon": 9.242125, "carModelData": [100], "car_name": "Fiat 500", "onClick_disabled": false, "address": "Via Fratelli Cairoli, 26-32, 20099 Sesto San Giovanni MI", "lat": 45.536655, "fuel_level": 35}, {"virtual_rental_type_id": 2, "car_plate": "ET694XJ", "virtual_rental_id": 345359, "car_category_id": 8, "car_category_type_id": 1, "lon": 9.127893, "carModelData": [100], "car_name": "Fiat 500", "onClick_disabled": false, "address": "Piazzale Giuseppe Perrucchetti, 4610, 20147 Milano", "lat": 45.46509, "fuel_level": 100}, {"virtual_rental_type_id": 2, "car_plate": "ET360XF", "virtual_rental_id": 410911, "car_category_id": 8, "car_category_type_id": 1, "lon": 9.248684, "carModelData": [100], "car_name": "Fiat 500", "onClick_disabled": false, "address": "Via Giuseppe Saragat, 6, 20128 Milano", "lat": 45.516434, "fuel_level": 54}, {"virtual_rental_type_id": 2, "car_plate": "EX501VG", "virtual_rental_id": 349197, "car_category_id": 8, "car_category_type_id": 1, "lon": 9.065217, "carModelData": [100], "car_name": "Fiat 500", "onClick_disabled": false, "address": "Via Ignazio Silone, 34, 20019 Settimo Milanese MI", "lat": 45.473118, "fuel_level": 45}, {"virtual_rental_type_id": 2, "car_plate": "EX986VG", "virtual_rental_id": 391085, "car_category_id": 8, "car_category_type_id": 1, "lon": 9.123395, "carModelData": [14, 100], "car_name": "Fiat 500", "onClick_disabled": false, "address": "Via S. Francesco, 20090 Buccinasco MI", "lat": 45.426212, "fuel_level": 28}, {"virtual_rental_type_id": 2, "car_plate": "ET927DD", "virtual_rental_id": 325053, "car_category_id": 8, "car_category_type_id": 1, "lon": 9.224562, "carModelData": [100], "car_name": "Fiat 500", "onClick_disabled": false, "address": "Via Monte Sabotino, 131, 20099 Sesto San Giovanni MI", "lat": 45.525017, "fuel_level": 45}, {"virtual_rental_type_id": 2, "car_plate": "EY169WC", "virtual_rental_id": 431416, "car_category_id": 8, "car_category_type_id": 1, "lon": 9.205717, "carModelData": [100], "car_name": "Fiat 500", "onClick_disabled": false, "address": "Via Fratelli Grimm, 1-5, 20162 Milano", "lat": 45.517338, "fuel_level": 94}, {"virtual_rental_type_id": 2, "car_plate": "ET027XL", "virtual_rental_id": 361810, "car_category_id": 8, "car_category_type_id": 1, "lon": 9.249869, "carModelData": [100], "car_name": "Fiat 500", "onClick_disabled": false, "address": "Via Carlo Feltrinelli, 12, 20138 Milano", "lat": 45.432384, "fuel_level": 100}, {"virtual_rental_type_id": 2, "car_plate": "FA827WD", "virtual_rental_id": 423753, "car_category_id": 8, "car_category_type_id": 1, "lon": 9.206315, "carModelData": [], "car_name": "Fiat 500", "onClick_disabled": false, "address": "Via Ponale, 66, 20162 Milano", "lat": 45.52332, "fuel_level": 87}, {"virtual_rental_type_id": 2, "car_plate": "ET961XK", "virtual_rental_id": 367999, "car_category_id": 8, "car_category_type_id": 1, "lon": 9.161676, "carModelData": [100], "car_name": "Fiat 500", "onClick_disabled": false, "address": "Via Mercantini Luigi, 25, 20158 Milano", "lat": 45.500866, "fuel_level": 20}, {"virtual_rental_type_id": 2, "car_plate": "ET991XK", "virtual_rental_id": 431261, "car_category_id": 8, "car_category_type_id": 1, "lon": 9.1756935, "carModelData": [100], "car_name": "Fiat 500", "onClick_disabled": false, "address": "Via Pietro Boifava, 72-84, 20142 Milano", "lat": 45.426758, "fuel_level": 57}, {"virtual_rental_type_id": 2, "car_plate": "ET068XL", "virtual_rental_id": 326980, "car_category_id": 8, "car_category_type_id": 1, "lon": 9.073875, "carModelData": [100], "car_name": "Fiat 500", "onClick_disabled": false, "address": "Via IV Novembre, 96, 20019 Settimo Milanese MI", "lat": 45.466213, "fuel_level": 94}, {"virtual_rental_type_id": 2, "car_plate": "EX991VG", "virtual_rental_id": 408841, "car_category_id": 8, "car_category_type_id": 1, "lon": 9.198362, "carModelData": [100], "car_name": "Fiat 500", "onClick_disabled": false, "address": "Galleria Strasburgo, 3, 20122 Milano", "lat": 45.465134, "fuel_level": 8}, {"virtual_rental_type_id": 2, "car_plate": "ET969DD", "virtual_rental_id": 336602, "car_category_id": 8, "car_category_type_id": 1, "lon": 9.187517, "carModelData": [100], "car_name": "Fiat 500", "onClick_disabled": false, "address": "Via Arrigo Boito, 6, 20121 Milano", "lat": 45.46828, "fuel_level": 56}, {"virtual_rental_type_id": 2, "car_plate": "ET695XJ", "virtual_rental_id": 359294, "car_category_id": 8, "car_category_type_id": 1, "lon": 9.087476, "carModelData": [100], "car_name": "Fiat 500", "onClick_disabled": false, "address": "Via Castrovillari, 25, 20152 Milano MI", "lat": 45.45569, "fuel_level": 15}, {"virtual_rental_type_id": 2, "car_plate": "EZ366GW", "virtual_rental_id": 418280, "car_category_id": 8, "car_category_type_id": 1, "lon": 9.179566, "carModelData": [], "car_name": "Fiat 500", "onClick_disabled": false, "address": "Foro Buonaparte, 61, 20121 Milano", "lat": 45.46768, "fuel_level": 76}, {"virtual_rental_type_id": 2, "car_plate": "ET999XK", "virtual_rental_id": 328780, "car_category_id": 8, "car_category_type_id": 1, "lon": 9.241903, "carModelData": [100], "car_name": "Fiat 500", "onClick_disabled": false, "address": "Via Crescenzago, 17-27, 20134 Milano", "lat": 45.4883, "fuel_level": 100}, {"virtual_rental_type_id": 2, "car_plate": "EZ337GW", "virtual_rental_id": 388233, "car_category_id": 8, "car_category_type_id": 1, "lon": 9.235357, "carModelData": [], "car_name": "Fiat 500", "onClick_disabled": false, "address": "Via Felice Cavallotti, 127, 20099 Sesto San Giovanni MI", "lat": 45.530716, "fuel_level": 100}, {"virtual_rental_type_id": 2, "car_plate": "ET259CY", "virtual_rental_id": 322420, "car_category_id": 8, "car_category_type_id": 1, "lon": 9.164497, "carModelData": [100], "car_name": "Fiat 500", "onClick_disabled": false, "address": "Via Alessandro Litta Modignani, 8, 20161 Milano", "lat": 45.523815, "fuel_level": 71}, {"virtual_rental_type_id": 2, "car_plate": "ET995CW", "virtual_rental_id": 332086, "car_category_id": 8, "car_category_type_id": 1, "lon": 9.200514, "carModelData": [100], "car_name": "Fiat 500", "onClick_disabled": false, "address": "Via Carlo Romussi, 14, 20125 Milano", "lat": 45.502487, "fuel_level": 98}, {"virtual_rental_type_id": 2, "car_plate": "ET005XL", "virtual_rental_id": 374615, "car_category_id": 8, "car_category_type_id": 1, "lon": 9.116022, "carModelData": [100], "car_name": "Fiat 500", "onClick_disabled": false, "address": "Via Lucerna, 23-41, 20152 Milano", "lat": 45.457623, "fuel_level": 3}, {"virtual_rental_type_id": 2, "car_plate": "FA458YY", "virtual_rental_id": 438280, "car_category_id": 8, "car_category_type_id": 1, "lon": 9.162596, "carModelData": [], "car_name": "Fiat 500", "onClick_disabled": false, "address": "Via S. Vigilio, 10, 20142 Milano", "lat": 45.43399, "fuel_level": 44}, {"virtual_rental_type_id": 2, "car_plate": "ET000XL", "virtual_rental_id": 332321, "car_category_id": 8, "car_category_type_id": 1, "lon": 9.125541, "carModelData": [100], "car_name": "Fiat 500", "onClick_disabled": false, "address": "Via Rodolfo Morandi, 2, 20090 Buccinasco MI", "lat": 45.42354, "fuel_level": 56}, {"virtual_rental_type_id": 2, "car_plate": "FA470YY", "virtual_rental_id": 422323, "car_category_id": 8, "car_category_type_id": 1, "lon": 9.125519, "carModelData": [], "car_name": "Fiat 500", "onClick_disabled": false, "address": "Via Giuseppe di Vittorio, 30, 20090 Buccinasco MI", "lat": 45.420845, "fuel_level": 98}, {"virtual_rental_type_id": 2, "car_plate": "ET989XK", "virtual_rental_id": 326444, "car_category_id": 8, "car_category_type_id": 1, "lon": 9.196065, "carModelData": [100], "car_name": "Fiat 500", "onClick_disabled": false, "address": "Piazza Cavour, 4, 20121 Milano", "lat": 45.473087, "fuel_level": 53}, {"virtual_rental_type_id": 2, "car_plate": "FA442YY", "virtual_rental_id": 318527, "car_category_id": 8, "car_category_type_id": 1, "lon": 9.107412, "carModelData": [], "car_name": "Fiat 500", "onClick_disabled": false, "address": "Via Appennini, 17, 20151 Milano", "lat": 45.500175, "fuel_level": 85}, {"virtual_rental_type_id": 2, "car_plate": "ET012DE", "virtual_rental_id": 436229, "car_category_id": 8, "car_category_type_id": 1, "lon": 9.099848, "carModelData": [100], "car_name": "Fiat 500", "onClick_disabled": false, "address": "Via Isonzo, 19, 20090 Cesano Boscone MI", "lat": 45.444923, "fuel_level": 6}, {"virtual_rental_type_id": 2, "car_plate": "ET986XK", "virtual_rental_id": 332527, "car_category_id": 8, "car_category_type_id": 1, "lon": 9.172304, "carModelData": [14, 100], "car_name": "Fiat 500", "onClick_disabled": false, "address": "Via Arrigo Minerbi, 20142 Milano", "lat": 45.41615, "fuel_level": 100}, {"virtual_rental_type_id": 2, "car_plate": "FA443YY", "virtual_rental_id": 382112, "car_category_id": 8, "car_category_type_id": 1, "lon": 9.174008, "carModelData": [], "car_name": "Fiat 500", "onClick_disabled": false, "address": "Via Iseo, 7, 20161 Milano", "lat": 45.52017, "fuel_level": 100}, {"virtual_rental_type_id": 2, "car_plate": "ET060XL", "virtual_rental_id": 344220, "car_category_id": 8, "car_category_type_id": 1, "lon": 9.23193, "carModelData": [100], "car_name": "Fiat 500", "onClick_disabled": false, "address": "Via Piave, 10, 20099 Sesto San Giovanni MI", "lat": 45.533546, "fuel_level": 46}, {"virtual_rental_type_id": 2, "car_plate": "FA421YY", "virtual_rental_id": 428296, "car_category_id": 8, "car_category_type_id": 1, "lon": 9.112475, "carModelData": [], "car_name": "Fiat 500", "onClick_disabled": false, "address": "Via Viterbo, 4-6, 20152 Milano", "lat": 45.457104, "fuel_level": 43}, {"virtual_rental_type_id": 2, "car_plate": "EZ380GW", "virtual_rental_id": 379830, "car_category_id": 8, "car_category_type_id": 1, "lon": 9.112098, "carModelData": [], "car_name": "Fiat 500", "onClick_disabled": false, "address": "Via Alessio Olivieri, 15, 20152 Milano", "lat": 45.466064, "fuel_level": 63}, {"virtual_rental_type_id": 2, "car_plate": "FA419YY", "virtual_rental_id": 352666, "car_category_id": 8, "car_category_type_id": 1, "lon": 9.170049, "carModelData": [], "car_name": "Fiat 500", "onClick_disabled": false, "address": "Via Bernardino Zenale, 11, 20123 Milano", "lat": 45.46453, "fuel_level": 55}, {"virtual_rental_type_id": 2, "car_plate": "EZ208TY", "virtual_rental_id": 346942, "car_category_id": 8, "car_category_type_id": 1, "lon": 9.24404, "carModelData": [], "car_name": "Fiat 500", "onClick_disabled": false, "address": "Via Carlo Alberto Pisani Dossi, 21, 20134 Milano", "lat": 45.48875, "fuel_level": 97}, {"virtual_rental_type_id": 2, "car_plate": "ET995XK", "virtual_rental_id": 387297, "car_category_id": 8, "car_category_type_id": 1, "lon": 9.136616, "carModelData": [100], "car_name": "Fiat 500", "onClick_disabled": false, "address": "Viale Aretusa, 34, 20147 Milano", "lat": 45.46561, "fuel_level": 58}, {"virtual_rental_type_id": 2, "car_plate": "EZ178GW", "virtual_rental_id": 333279, "car_category_id": 8, "car_category_type_id": 1, "lon": 9.097531, "carModelData": [], "car_name": "Fiat 500", "onClick_disabled": false, "address": "Via Palmi, 5-25, 20152 Milano", "lat": 45.45956, "fuel_level": 20}, {"virtual_rental_type_id": 2, "car_plate": "ET587XJ", "virtual_rental_id": 380011, "car_category_id": 8, "car_category_type_id": 1, "lon": 9.128512, "carModelData": [100], "car_name": "Fiat 500", "onClick_disabled": false, "address": "Via Antonio Gramsci, 6, 20090 Buccinasco MI", "lat": 45.419193, "fuel_level": 96}, {"virtual_rental_type_id": 2, "car_plate": "FA513YY", "virtual_rental_id": 363846, "car_category_id": 8, "car_category_type_id": 1, "lon": 9.208203, "carModelData": [], "car_name": "Fiat 500", "onClick_disabled": false, "address": "Via Macconago, 6-10, 20141 Milano", "lat": 45.413612, "fuel_level": 83}, {"virtual_rental_type_id": 2, "car_plate": "ET315XF", "virtual_rental_id": 414515, "car_category_id": 8, "car_category_type_id": 1, "lon": 9.108875, "carModelData": [100], "car_name": "Fiat 500", "onClick_disabled": false, "address": "Via Ugo Betti, 139, 20151 Milano", "lat": 45.495117, "fuel_level": 40}, {"virtual_rental_type_id": 2, "car_plate": "EZ182GW", "virtual_rental_id": 411239, "car_category_id": 8, "car_category_type_id": 1, "lon": 9.114871, "carModelData": [], "car_name": "Fiat 500", "onClick_disabled": false, "address": "Via Alessio Olivieri, 7-9, 20152 Milano", "lat": 45.462086, "fuel_level": 52}, {"virtual_rental_type_id": 2, "car_plate": "ET626XJ", "virtual_rental_id": 364263, "car_category_id": 8, "car_category_type_id": 1, "lon": 9.119066, "carModelData": [100], "car_name": "Fiat 500", "onClick_disabled": false, "address": "Via Bisceglie, 83, 20152 Milano", "lat": 45.44966, "fuel_level": 13}, {"virtual_rental_type_id": 2, "car_plate": "ET276XF", "virtual_rental_id": 351163, "car_category_id": 8, "car_category_type_id": 1, "lon": 9.196751, "carModelData": [100], "car_name": "Fiat 500", "onClick_disabled": false, "address": "Via Palestro, 14, 20121 Milano", "lat": 45.472923, "fuel_level": 2}, {"virtual_rental_type_id": 2, "car_plate": "FA430YY", "virtual_rental_id": 330171, "car_category_id": 8, "car_category_type_id": 1, "lon": 9.171648, "carModelData": [], "car_name": "Fiat 500", "onClick_disabled": false, "address": "Via Pesaro, 9, 20161 Milano", "lat": 45.530014, "fuel_level": 7}, {"virtual_rental_type_id": 2, "car_plate": "ET363XF", "virtual_rental_id": 341300, "car_category_id": 8, "car_category_type_id": 1, "lon": 9.121178, "carModelData": [100], "car_name": "Fiat 500", "onClick_disabled": false, "address": "Via Bisceglie, 110, 20152 Milano", "lat": 45.446495, "fuel_level": 60}, {"virtual_rental_type_id": 2, "car_plate": "EZ207TY", "virtual_rental_id": 322486, "car_category_id": 8, "car_category_type_id": 1, "lon": 9.247202, "carModelData": [], "car_name": "Fiat 500", "onClick_disabled": false, "address": "Via Privata Oslavia, 17, 20134 Milano", "lat": 45.48195, "fuel_level": 33}, {"virtual_rental_type_id": 2, "car_plate": "EZ216GW", "virtual_rental_id": 350647, "car_category_id": 8, "car_category_type_id": 1, "lon": 9.193653, "carModelData": [14, 100], "car_name": "Fiat 500", "onClick_disabled": false, "address": "Via Alessandro Manzoni, 37, 20121 Milano", "lat": 45.471012, "fuel_level": 97}, {"virtual_rental_type_id": 2, "car_plate": "ET010DE", "virtual_rental_id": 372417, "car_category_id": 8, "car_category_type_id": 1, "lon": 9.124403, "carModelData": [100], "car_name": "Fiat 500", "onClick_disabled": false, "address": "Via Quinto Cenni, 6-8, 20147 Milano", "lat": 45.469193, "fuel_level": 88}, {"virtual_rental_type_id": 2, "car_plate": "ET345XF", "virtual_rental_id": 405726, "car_category_id": 8, "car_category_type_id": 1, "lon": 9.138348, "carModelData": [], "car_name": "Fiat 500", "onClick_disabled": false, "address": "Via Antonio Panizzi, 2-4, 20146 Milano", "lat": 45.45237, "fuel_level": 6}, {"virtual_rental_type_id": 2, "car_plate": "ET011DE", "virtual_rental_id": 318493, "car_category_id": 8, "car_category_type_id": 1, "lon": 9.112163, "carModelData": [100], "car_name": "Fiat 500", "onClick_disabled": false, "address": "Via dei Mille, 5, 20090 Buccinasco MI", "lat": 45.42359, "fuel_level": 97}, {"virtual_rental_type_id": 2, "car_plate": "EZ907DF", "virtual_rental_id": 322474, "car_category_id": 8, "car_category_type_id": 1, "lon": 9.093591, "carModelData": [100], "car_name": "Fiat 500", "onClick_disabled": false, "address": "Via M. Monegherio, 35-39, 20090 Cesano Boscone MI", "lat": 45.4512, "fuel_level": 84}, {"virtual_rental_type_id": 2, "car_plate": "ET693XJ", "virtual_rental_id": 404131, "car_category_id": 8, "car_category_type_id": 1, "lon": 9.248092, "carModelData": [100], "car_name": "Fiat 500", "onClick_disabled": false, "address": "Via Passo Rolle, 23, 20134 Milano", "lat": 45.487854, "fuel_level": 98}, {"virtual_rental_type_id": 2, "car_plate": "FA403YY", "virtual_rental_id": 364164, "car_category_id": 8, "car_category_type_id": 1, "lon": 9.173074, "carModelData": [], "car_name": "Fiat 500", "onClick_disabled": false, "address": "Via Sant'Abbondio, 27, 20142 Milano", "lat": 45.42576, "fuel_level": 100}, {"virtual_rental_type_id": 2, "car_plate": "EZ156GW", "virtual_rental_id": 414209, "car_category_id": 8, "car_category_type_id": 1, "lon": 9.241274, "carModelData": [], "car_name": "Fiat 500", "onClick_disabled": false, "address": "Via Console Flaminio, 16, 20134 Milano", "lat": 45.481586, "fuel_level": 54}, {"virtual_rental_type_id": 2, "car_plate": "EZ750NF", "virtual_rental_id": 413742, "car_category_id": 8, "car_category_type_id": 1, "lon": 9.23185, "carModelData": [], "car_name": "Fiat 500", "onClick_disabled": false, "address": "Via Pompeo Mariani, 6-8, 20128 Milano", "lat": 45.510727, "fuel_level": 97}, {"virtual_rental_type_id": 2, "car_plate": "ET879DD", "virtual_rental_id": 361328, "car_category_id": 8, "car_category_type_id": 1, "lon": 9.165487, "carModelData": [100], "car_name": "Fiat 500", "onClick_disabled": false, "address": "Piazzale Lugano, 29-31, 20158 Milano", "lat": 45.498993, "fuel_level": 82}, {"virtual_rental_type_id": 2, "car_plate": "ET643XJ", "virtual_rental_id": 320676, "car_category_id": 8, "car_category_type_id": 1, "lon": 9.093264, "carModelData": [100], "car_name": "Fiat 500", "onClick_disabled": false, "address": "Via Capri, 21, 20153 Milano", "lat": 45.46771, "fuel_level": 41}, {"virtual_rental_type_id": 2, "car_plate": "EX656VB", "virtual_rental_id": 378441, "car_category_id": 8, "car_category_type_id": 1, "lon": 9.226123, "carModelData": [14, 100], "car_name": "Fiat 500", "onClick_disabled": false, "address": "Via Eugenio Villoresi, 15, 20099 Sesto San Giovanni MI", "lat": 45.52563, "fuel_level": 98}, {"virtual_rental_type_id": 2, "car_plate": "FA819WD", "virtual_rental_id": 355057, "car_category_id": 8, "car_category_type_id": 1, "lon": 9.2028475, "carModelData": [], "car_name": "Fiat 500", "onClick_disabled": false, "address": "Via Fra Riccardo Pampuri, 3, 20141 Milano", "lat": 45.425137, "fuel_level": 40}, {"virtual_rental_type_id": 2, "car_plate": "FA502YY", "virtual_rental_id": 422862, "car_category_id": 8, "car_category_type_id": 1, "lon": 9.170361, "carModelData": [], "car_name": "Fiat 500", "onClick_disabled": false, "address": "Via Enrico Cialdini, 74, 20161 Milano", "lat": 45.512493, "fuel_level": 78}, {"virtual_rental_type_id": 2, "car_plate": "EZ326GW", "virtual_rental_id": 389012, "car_category_id": 8, "car_category_type_id": 1, "lon": 9.105599, "carModelData": [], "car_name": "Fiat 500", "onClick_disabled": false, "address": "Via Appennini, 9, 20151 Milano", "lat": 45.501183, "fuel_level": 100}, {"virtual_rental_type_id": 2, "car_plate": "ET975XK", "virtual_rental_id": 325512, "car_category_id": 8, "car_category_type_id": 1, "lon": 9.238877, "carModelData": [100], "car_name": "Fiat 500", "onClick_disabled": false, "address": "Viale Italia, 121-139, 20099 Sesto San Giovanni MI", "lat": 45.530476, "fuel_level": 97}, {"virtual_rental_type_id": 2, "car_plate": "EZ037TY", "virtual_rental_id": 337426, "car_category_id": 8, "car_category_type_id": 1, "lon": 9.199722, "carModelData": [], "car_name": "Fiat 500", "onClick_disabled": false, "address": "Via Marina, 6, 20121 Milano", "lat": 45.471153, "fuel_level": 100}, {"virtual_rental_type_id": 2, "car_plate": "ET863DD", "virtual_rental_id": 393668, "car_category_id": 8, "car_category_type_id": 1, "lon": 9.11301, "carModelData": [], "car_name": "Fiat 500", "onClick_disabled": false, "address": "Via Lucca, 12, 20152 Milano", "lat": 45.45588, "fuel_level": 45}, {"virtual_rental_type_id": 2, "car_plate": "EZ134TY", "virtual_rental_id": 325190, "car_category_id": 8, "car_category_type_id": 1, "lon": 9.085033, "carModelData": [14], "car_name": "Fiat 500", "onClick_disabled": false, "address": "Via Salvo D'Acquisto, 7, 20090 Cesano Boscone MI", "lat": 45.44465, "fuel_level": 64}, {"virtual_rental_type_id": 2, "car_plate": "FA506YY", "virtual_rental_id": 348195, "car_category_id": 8, "car_category_type_id": 1, "lon": 9.151178, "carModelData": [14], "car_name": "Fiat 500", "onClick_disabled": false, "address": "Viale Teodorico, 26, 20149 Milano", "lat": 45.484417, "fuel_level": 29}, {"virtual_rental_type_id": 2, "car_plate": "FA830WD", "virtual_rental_id": 336813, "car_category_id": 8, "car_category_type_id": 1, "lon": 9.124518, "carModelData": [], "car_name": "Fiat 500", "onClick_disabled": false, "address": "Via Aldo Moro, 1, 20090 Buccinasco MI", "lat": 45.4168, "fuel_level": 92}, {"virtual_rental_type_id": 2, "car_plate": "ET642XJ", "virtual_rental_id": 365125, "car_category_id": 8, "car_category_type_id": 1, "lon": 9.121473, "carModelData": [100], "car_name": "Fiat 500", "onClick_disabled": false, "address": "Via Sem Benelli, 16, 20151 Milano", "lat": 45.497326, "fuel_level": 100}, {"virtual_rental_type_id": 2, "car_plate": "EX500VG", "virtual_rental_id": 323262, "car_category_id": 8, "car_category_type_id": 1, "lon": 9.230096, "carModelData": [100], "car_name": "Fiat 500", "onClick_disabled": false, "address": "Via Empedocle, 20, 20128 Milano", "lat": 45.51912, "fuel_level": 33}, {"virtual_rental_type_id": 2, "car_plate": "ET965XK", "virtual_rental_id": 402936, "car_category_id": 8, "car_category_type_id": 1, "lon": 9.243361, "carModelData": [100], "car_name": "Fiat 500", "onClick_disabled": false, "address": "Viale Italia, 409, 20099 Sesto San Giovanni MI", "lat": 45.535038, "fuel_level": 46}, {"virtual_rental_type_id": 2, "car_plate": "FA840WD", "virtual_rental_id": 359322, "car_category_id": 8, "car_category_type_id": 1, "lon": 9.123538, "carModelData": [], "car_name": "Fiat 500", "onClick_disabled": false, "address": "Via Uruguay, 11, 20151 Milano", "lat": 45.495605, "fuel_level": 49}, {"virtual_rental_type_id": 2, "car_plate": "EZ098TY", "virtual_rental_id": 358903, "car_category_id": 8, "car_category_type_id": 1, "lon": 9.240637, "carModelData": [], "car_name": "Fiat 500", "onClick_disabled": false, "address": "Viale Italia, 225, 20099 Sesto San Giovanni MI", "lat": 45.532314, "fuel_level": 87}, {"virtual_rental_type_id": 2, "car_plate": "ET061XL", "virtual_rental_id": 321416, "car_category_id": 8, "car_category_type_id": 1, "lon": 9.171252, "carModelData": [100], "car_name": "Fiat 500", "onClick_disabled": false, "address": "Via dell'Arcadia, 30-40, 20142 Milano", "lat": 45.415806, "fuel_level": 100}, {"virtual_rental_type_id": 2, "car_plate": "FB324SM", "virtual_rental_id": 435828, "car_category_id": 8, "car_category_type_id": 1, "lon": 9.102467, "carModelData": [], "car_name": "Fiat 500", "onClick_disabled": false, "address": "Via Prato, 10, 20152 Milano MI", "lat": 45.4546, "fuel_level": 30}, {"virtual_rental_type_id": 2, "car_plate": "ET996DD", "virtual_rental_id": 367239, "car_category_id": 8, "car_category_type_id": 1, "lon": 9.19299, "carModelData": [100], "car_name": "Fiat 500", "onClick_disabled": false, "address": "Via S. Paolo, 15, 20121 Milano", "lat": 45.466232, "fuel_level": 67}, {"virtual_rental_type_id": 2, "car_plate": "EZ754NF", "virtual_rental_id": 352996, "car_category_id": 8, "car_category_type_id": 1, "lon": 9.190993, "carModelData": [], "car_name": "Fiat 500", "onClick_disabled": false, "address": "Via Melchiorre Gioia, 4-6, 20124 Milano", "lat": 45.48104, "fuel_level": 97}, {"virtual_rental_type_id": 2, "car_plate": "ET897DD", "virtual_rental_id": 339523, "car_category_id": 8, "car_category_type_id": 1, "lon": 9.192174, "carModelData": [100], "car_name": "Fiat 500", "onClick_disabled": false, "address": "Via dei Giardini, 1-3, 20121 Milano", "lat": 45.470592, "fuel_level": 40}, {"virtual_rental_type_id": 2, "car_plate": "ET015XL", "virtual_rental_id": 368034, "car_category_id": 8, "car_category_type_id": 1, "lon": 9.260187, "carModelData": [100], "car_name": "Fiat 500", "onClick_disabled": false, "address": "Via Giuseppe Impastato, 6, 20138 Milano", "lat": 45.431385, "fuel_level": 50}, {"virtual_rental_type_id": 2, "car_plate": "ET274CY", "virtual_rental_id": 355569, "car_category_id": 8, "car_category_type_id": 1, "lon": 9.1852045, "carModelData": [100], "car_name": "Fiat 500", "onClick_disabled": false, "address": "Viale Pasubio, 8, 20154 Milano", "lat": 45.48138, "fuel_level": 77}, {"virtual_rental_type_id": 2, "car_plate": "FD531NC", "virtual_rental_id": 437628, "car_category_id": 8, "car_category_type_id": 1, "lon": 9.276985, "carModelData": [12, 14, 100], "car_name": "Fiat 500", "onClick_disabled": false, "address": "Aeroporto Linate - Partenze, Segrate MI", "lat": 45.462574, "fuel_level": 66}, {"virtual_rental_type_id": 2, "car_plate": "FA834WD", "virtual_rental_id": 328938, "car_category_id": 8, "car_category_type_id": 1, "lon": 9.12628, "carModelData": [], "car_name": "Fiat 500", "onClick_disabled": false, "address": "Via Aldo Moro, 13, 20090 Buccinasco MI", "lat": 45.41796, "fuel_level": 38}, {"virtual_rental_type_id": 2, "car_plate": "EX997VG", "virtual_rental_id": 353852, "car_category_id": 8, "car_category_type_id": 1, "lon": 9.157915, "carModelData": [100], "car_name": "Fiat 500", "onClick_disabled": false, "address": "Via Privata Stefano Siccoli, 1-7, 20156 Milano", "lat": 45.502876, "fuel_level": 75}, {"virtual_rental_type_id": 2, "car_plate": "FA831WD", "virtual_rental_id": 342282, "car_category_id": 8, "car_category_type_id": 1, "lon": 9.070075, "carModelData": [14], "car_name": "Fiat 500", "onClick_disabled": false, "address": "Via Piero Gobetti, 12, 20019 Settimo Milanese MI", "lat": 45.47234, "fuel_level": 60}, {"virtual_rental_type_id": 2, "car_plate": "ET630XJ", "virtual_rental_id": 342828, "car_category_id": 8, "car_category_type_id": 1, "lon": 9.092751, "carModelData": [100], "car_name": "Fiat 500", "onClick_disabled": false, "address": "Via Capri, 18, 20153 Milano", "lat": 45.46745, "fuel_level": 98}, {"virtual_rental_type_id": 2, "car_plate": "EX523VG", "virtual_rental_id": 331899, "car_category_id": 8, "car_category_type_id": 1, "lon": 9.246383, "carModelData": [100], "car_name": "Fiat 500", "onClick_disabled": false, "address": "Via Monte Cengio, 18, 20138 Milano", "lat": 45.430702, "fuel_level": 100}, {"virtual_rental_type_id": 2, "car_plate": "ET638XJ", "virtual_rental_id": 390847, "car_category_id": 8, "car_category_type_id": 1, "lon": 9.170831, "carModelData": [100], "car_name": "Fiat 500", "onClick_disabled": false, "address": "Via Antonio Giovanola, 20142 Milano", "lat": 45.42752, "fuel_level": 17}, {"virtual_rental_type_id": 2, "car_plate": "ET939DD", "virtual_rental_id": 344430, "car_category_id": 8, "car_category_type_id": 1, "lon": 9.160812, "carModelData": [], "car_name": "Fiat 500", "onClick_disabled": false, "address": "Via Bellagio, 3, 20158 Milano", "lat": 45.501564, "fuel_level": 50}, {"virtual_rental_type_id": 2, "car_plate": "FA497YY", "virtual_rental_id": 433050, "car_category_id": 8, "car_category_type_id": 1, "lon": 9.197005, "carModelData": [], "car_name": "Fiat 500", "onClick_disabled": false, "address": "Corso Europa, 16-18, 20122 Milano", "lat": 45.46473, "fuel_level": 20}, {"virtual_rental_type_id": 2, "car_plate": "ET971DD", "virtual_rental_id": 331766, "car_category_id": 8, "car_category_type_id": 1, "lon": 9.232577, "carModelData": [14, 100], "car_name": "Fiat 500", "onClick_disabled": false, "address": "Via Pompeo Mariani, 15-17, 20128 Milano", "lat": 45.510857, "fuel_level": 73}, {"virtual_rental_type_id": 2, "car_plate": "FA818WD", "virtual_rental_id": 374162, "car_category_id": 8, "car_category_type_id": 1, "lon": 9.236309, "carModelData": [], "car_name": "Fiat 500", "onClick_disabled": false, "address": "Via Carlo Boncompagni, 74, 20139 Milano", "lat": 45.4359, "fuel_level": 71}, {"virtual_rental_type_id": 2, "car_plate": "ET589XJ", "virtual_rental_id": 351421, "car_category_id": 8, "car_category_type_id": 1, "lon": 9.145237, "carModelData": [100], "car_name": "Fiat 500", "onClick_disabled": false, "address": "Via Filippo Brunelleschi, 9-13, 20144 Milano", "lat": 45.447414, "fuel_level": 63}, {"virtual_rental_type_id": 2, "car_plate": "ET841DD", "virtual_rental_id": 346614, "car_category_id": 8, "car_category_type_id": 1, "lon": 9.119643, "carModelData": [100], "car_name": "Fiat 500", "onClick_disabled": false, "address": "Via Pasin, 2, 20090 Buccinasco MI", "lat": 45.428238, "fuel_level": 98}, {"virtual_rental_type_id": 2, "car_plate": "FA452YY", "virtual_rental_id": 426871, "car_category_id": 8, "car_category_type_id": 1, "lon": 9.091958, "carModelData": [], "car_name": "Fiat 500", "onClick_disabled": false, "address": "Via Vincenzo Bellini, 1, 20090 Cesano Boscone MI", "lat": 45.441753, "fuel_level": 5}, {"virtual_rental_type_id": 2, "car_plate": "FA832WD", "virtual_rental_id": 327607, "car_category_id": 8, "car_category_type_id": 1, "lon": 9.24603, "carModelData": [], "car_name": "Fiat 500", "onClick_disabled": false, "address": "Via Adriano, 49, 20128 Milano", "lat": 45.512856, "fuel_level": 98}, {"virtual_rental_type_id": 2, "car_plate": "FA424YY", "virtual_rental_id": 437164, "car_category_id": 8, "car_category_type_id": 1, "lon": 9.17472, "carModelData": [], "car_name": "Fiat 500", "onClick_disabled": false, "address": "Via Vincenzo da Seregno, 38, 20161 Milano MI", "lat": 45.522984, "fuel_level": 48}, {"virtual_rental_type_id": 2, "car_plate": "FA432YY", "virtual_rental_id": 325913, "car_category_id": 8, "car_category_type_id": 1, "lon": 9.161849, "carModelData": [], "car_name": "Fiat 500", "onClick_disabled": false, "address": "Via Comasina, 113, 20161 Milano", "lat": 45.531364, "fuel_level": 70}, {"virtual_rental_type_id": 2, "car_plate": "FA485YY", "virtual_rental_id": 371323, "car_category_id": 8, "car_category_type_id": 1, "lon": 9.199363, "carModelData": [], "car_name": "Fiat 500", "onClick_disabled": false, "address": "Viale Fulvio Testi, 29, 20162 Milano", "lat": 45.50489, "fuel_level": 24}, {"virtual_rental_type_id": 2, "car_plate": "ET593XJ", "virtual_rental_id": 347735, "car_category_id": 8, "car_category_type_id": 1, "lon": 9.092723, "carModelData": [14, 100], "car_name": "Fiat 500", "onClick_disabled": false, "address": "Via Enzo Ferrieri, 10, 20153 Milano", "lat": 45.477093, "fuel_level": 73}, {"virtual_rental_type_id": 2, "car_plate": "EZ170GW", "virtual_rental_id": 348762, "car_category_id": 8, "car_category_type_id": 1, "lon": 9.123884, "carModelData": [], "car_name": "Fiat 500", "onClick_disabled": false, "address": "A4 Torino - Trieste, 20157 Milano", "lat": 45.516167, "fuel_level": 57}, {"virtual_rental_type_id": 2, "car_plate": "EZ038TY", "virtual_rental_id": 341180, "car_category_id": 8, "car_category_type_id": 1, "lon": 9.127111, "carModelData": [], "car_name": "Fiat 500", "onClick_disabled": false, "address": "Via Rodolfo Morandi, 7, 20090 Buccinasco MI", "lat": 45.423355, "fuel_level": 38}, {"virtual_rental_type_id": 2, "car_plate": "ET985CW", "virtual_rental_id": 350912, "car_category_id": 8, "car_category_type_id": 1, "lon": 9.173517, "carModelData": [100], "car_name": "Fiat 500", "onClick_disabled": false, "address": "Via Eugenio Curiel, 2, 20142 Milano MI", "lat": 45.400867, "fuel_level": 20}, {"virtual_rental_type_id": 2, "car_plate": "EX520VG", "virtual_rental_id": 375272, "car_category_id": 8, "car_category_type_id": 1, "lon": 9.109401, "carModelData": [14, 100], "car_name": "Fiat 500", "onClick_disabled": false, "address": "Via Lario, 5, 20090 Buccinasco MI", "lat": 45.422302, "fuel_level": 41}, {"virtual_rental_type_id": 2, "car_plate": "FA478YY", "virtual_rental_id": 393064, "car_category_id": 8, "car_category_type_id": 1, "lon": 9.225584, "carModelData": [], "car_name": "Fiat 500", "onClick_disabled": false, "address": "Via Brunico, 4, 20126 Milano", "lat": 45.5181, "fuel_level": 100}, {"virtual_rental_type_id": 2, "car_plate": "EZ339GW", "virtual_rental_id": 343476, "car_category_id": 8, "car_category_type_id": 1, "lon": 9.127016, "carModelData": [], "car_name": "Fiat 500", "onClick_disabled": false, "address": "Via Pier Francesco Cittadini, 5, 20157 Milano", "lat": 45.51366, "fuel_level": 42}, {"virtual_rental_type_id": 2, "car_plate": "ET264CY", "virtual_rental_id": 389517, "car_category_id": 8, "car_category_type_id": 1, "lon": 9.093367, "carModelData": [100], "car_name": "Fiat 500", "onClick_disabled": false, "address": "Via Valsesia, 94, 20152 Milano", "lat": 45.456215, "fuel_level": 54}, {"virtual_rental_type_id": 2, "car_plate": "ET686XJ", "virtual_rental_id": 384781, "car_category_id": 8, "car_category_type_id": 1, "lon": 9.171096, "carModelData": [100], "car_name": "Fiat 500", "onClick_disabled": false, "address": "Via Costantino Baroni, 93, 20142 Milano", "lat": 45.40502, "fuel_level": 100}, {"virtual_rental_type_id": 2, "car_plate": "EZ375GW", "virtual_rental_id": 403630, "car_category_id": 8, "car_category_type_id": 1, "lon": 9.1721735, "carModelData": [], "car_name": "Fiat 500", "onClick_disabled": false, "address": "Via Caradosso, 1-5, 20123 Milano", "lat": 45.46629, "fuel_level": 96}, {"virtual_rental_type_id": 2, "car_plate": "EZ282GW", "virtual_rental_id": 365540, "car_category_id": 8, "car_category_type_id": 1, "lon": 9.140999, "carModelData": [100], "car_name": "Fiat 500", "onClick_disabled": false, "address": "Via Desenzano, 22, 20146 Milano", "lat": 45.461075, "fuel_level": 21}, {"virtual_rental_type_id": 2, "car_plate": "ET354XF", "virtual_rental_id": 342754, "car_category_id": 8, "car_category_type_id": 1, "lon": 9.274542, "carModelData": [100], "car_name": "Fiat 500", "onClick_disabled": false, "address": "Via Europa, 44, 20097 San Donato Milanese MI", "lat": 45.412655, "fuel_level": 54}, {"virtual_rental_type_id": 2, "car_plate": "ET986CW", "virtual_rental_id": 356027, "car_category_id": 8, "car_category_type_id": 1, "lon": 9.182583, "carModelData": [100], "car_name": "Fiat 500", "onClick_disabled": false, "address": "Via Pietro Maroncelli, 24-28, 20154 Milano", "lat": 45.48441, "fuel_level": 13}, {"virtual_rental_type_id": 2, "car_plate": "ET373XF", "virtual_rental_id": 345508, "car_category_id": 8, "car_category_type_id": 1, "lon": 9.185731, "carModelData": [100], "car_name": "Fiat 500", "onClick_disabled": false, "address": "Via dell'Orso, 20, 20121 Milano", "lat": 45.46909, "fuel_level": 73}, {"virtual_rental_type_id": 2, "car_plate": "ET953DD", "virtual_rental_id": 378601, "car_category_id": 8, "car_category_type_id": 1, "lon": 9.240782, "carModelData": [100], "car_name": "Fiat 500", "onClick_disabled": false, "address": "Via Tommaso Pini, 35, 20134 Milano", "lat": 45.485317, "fuel_level": 80}, {"virtual_rental_type_id": 2, "car_plate": "FA505YY", "virtual_rental_id": 377049, "car_category_id": 8, "car_category_type_id": 1, "lon": 9.150078, "carModelData": [14], "car_name": "Fiat 500", "onClick_disabled": false, "address": "Via Flavio Gioia, 7, 20149 Milano", "lat": 45.47982, "fuel_level": 81}, {"virtual_rental_type_id": 2, "car_plate": "EZ211TY", "virtual_rental_id": 324684, "car_category_id": 8, "car_category_type_id": 1, "lon": 9.164215, "carModelData": [], "car_name": "Fiat 500", "onClick_disabled": false, "address": "Via Ippocrate, 45, 20161 Milano", "lat": 45.52183, "fuel_level": 38}, {"virtual_rental_type_id": 2, "car_plate": "ET652XJ", "virtual_rental_id": 382534, "car_category_id": 8, "car_category_type_id": 1, "lon": 9.241331, "carModelData": [100], "car_name": "Fiat 500", "onClick_disabled": false, "address": "Via Pusiano, 6-20, 20132 Milano", "lat": 45.499344, "fuel_level": 22}, {"virtual_rental_type_id": 2, "car_plate": "ET876DD", "virtual_rental_id": 424034, "car_category_id": 8, "car_category_type_id": 1, "lon": 9.159819, "carModelData": [100], "car_name": "Fiat 500", "onClick_disabled": false, "address": "Via Ippolito Nievo, 2, 20145 Milano", "lat": 45.47182, "fuel_level": 61}, {"virtual_rental_type_id": 2, "car_plate": "ET978DD", "virtual_rental_id": 376255, "car_category_id": 8, "car_category_type_id": 1, "lon": 9.10629, "carModelData": [100], "car_name": "Fiat 500", "onClick_disabled": false, "address": "Via Francesco Cilea, 12-20, 20151 Milano", "lat": 45.495445, "fuel_level": 50}, {"virtual_rental_type_id": 2, "car_plate": "ET931DD", "virtual_rental_id": 373988, "car_category_id": 8, "car_category_type_id": 1, "lon": 9.115117, "carModelData": [100], "car_name": "Fiat 500", "onClick_disabled": false, "address": "Via Francesco Barzaghi, 14a, 20156 Milano", "lat": 45.509678, "fuel_level": 33}, {"virtual_rental_type_id": 2, "car_plate": "ET358XF", "virtual_rental_id": 360516, "car_category_id": 8, "car_category_type_id": 1, "lon": 9.191277, "carModelData": [100], "car_name": "Fiat 500", "onClick_disabled": false, "address": "Via Luigi Ornato, 7102, 20162 Milano", "lat": 45.525215, "fuel_level": 78}, {"virtual_rental_type_id": 2, "car_plate": "ET623XJ", "virtual_rental_id": 358047, "car_category_id": 8, "car_category_type_id": 1, "lon": 9.22194, "carModelData": [100], "car_name": "Fiat 500", "onClick_disabled": false, "address": "Via Giacosa Giuseppe, 46, 20127 Milano", "lat": 45.494736, "fuel_level": 37}, {"virtual_rental_type_id": 2, "car_plate": "FA450YY", "virtual_rental_id": 433158, "car_category_id": 8, "car_category_type_id": 1, "lon": 9.061157, "carModelData": [], "car_name": "Fiat 500", "onClick_disabled": false, "address": "Via Leonardo da Vinci, 56, 20019 Settimo Milanese MI", "lat": 45.469772, "fuel_level": 80}, {"virtual_rental_type_id": 2, "car_plate": "ET596XJ", "virtual_rental_id": 414507, "car_category_id": 8, "car_category_type_id": 1, "lon": 9.06137, "carModelData": [100], "car_name": "Fiat 500", "onClick_disabled": false, "address": "Via Moirano, 5, 20019 Settimo Milanese MI", "lat": 45.471237, "fuel_level": 40}, {"virtual_rental_type_id": 2, "car_plate": "ET632XJ", "virtual_rental_id": 371202, "car_category_id": 8, "car_category_type_id": 1, "lon": 9.111714, "carModelData": [100], "car_name": "Fiat 500", "onClick_disabled": false, "address": "Via Castellanza, 16-18, 20151 Milano", "lat": 45.50047, "fuel_level": 26}, {"virtual_rental_type_id": 2, "car_plate": "EZ251GW", "virtual_rental_id": 421967, "car_category_id": 8, "car_category_type_id": 1, "lon": 9.117408, "carModelData": [100], "car_name": "Fiat 500", "onClick_disabled": false, "address": "Via Antonio Cechov, 21, 20151 Milano", "lat": 45.491863, "fuel_level": 75}, {"virtual_rental_type_id": 2, "car_plate": "ET954DD", "virtual_rental_id": 352744, "car_category_id": 8, "car_category_type_id": 1, "lon": 9.127044, "carModelData": [100], "car_name": "Fiat 500", "onClick_disabled": false, "address": "Via Giovanni Battista Grassi, 5, 20157 Milano", "lat": 45.512497, "fuel_level": 80}, {"virtual_rental_type_id": 2, "car_plate": "FA794WD", "virtual_rental_id": 358065, "car_category_id": 8, "car_category_type_id": 1, "lon": 9.067852, "carModelData": [], "car_name": "Fiat 500", "onClick_disabled": false, "address": "Via Sandro Pertini, 9, 20019 Milano", "lat": 45.473766, "fuel_level": 74}, {"virtual_rental_type_id": 2, "car_plate": "ET962XK", "virtual_rental_id": 373289, "car_category_id": 8, "car_category_type_id": 1, "lon": 9.211102, "carModelData": [100], "car_name": "Fiat 500", "onClick_disabled": false, "address": "Via Soperga, 35, 20127 Milano", "lat": 45.489475, "fuel_level": 63}, {"virtual_rental_type_id": 2, "car_plate": "ET377XF", "virtual_rental_id": 329547, "car_category_id": 8, "car_category_type_id": 1, "lon": 9.179446, "carModelData": [100], "car_name": "Fiat 500", "onClick_disabled": false, "address": "Piazza Castello, 9, 20121 Milano", "lat": 45.468502, "fuel_level": 56}, {"virtual_rental_type_id": 2, "car_plate": "EY186YA", "virtual_rental_id": 369557, "car_category_id": 8, "car_category_type_id": 1, "lon": 9.159915, "carModelData": [100], "car_name": "Fiat 500", "onClick_disabled": false, "address": "Via Giovanni Dupr\u00e8, 18, 20155 Milano", "lat": 45.494316, "fuel_level": 100}, {"virtual_rental_type_id": 2, "car_plate": "ET361XF", "virtual_rental_id": 357036, "car_category_id": 8, "car_category_type_id": 1, "lon": 9.170129, "carModelData": [100], "car_name": "Fiat 500", "onClick_disabled": false, "address": "Via Cialdini Enrico, 80, 20161 Milano", "lat": 45.512726, "fuel_level": 86}, {"virtual_rental_type_id": 2, "car_plate": "EZ254GW", "virtual_rental_id": 358932, "car_category_id": 8, "car_category_type_id": 1, "lon": 9.202413, "carModelData": [100], "car_name": "Fiat 500", "onClick_disabled": false, "address": "Via Privata Leopoldo Gasparotto, 1, 20124 Milano", "lat": 45.48754, "fuel_level": 84}, {"virtual_rental_type_id": 2, "car_plate": "EZ355GW", "virtual_rental_id": 331012, "car_category_id": 8, "car_category_type_id": 1, "lon": 9.07384, "carModelData": [], "car_name": "Fiat 500", "onClick_disabled": false, "address": "Via IV Novembre, 96, 20019 Settimo Milanese MI", "lat": 45.466095, "fuel_level": 20}, {"virtual_rental_type_id": 2, "car_plate": "EZ200TY", "virtual_rental_id": 360721, "car_category_id": 8, "car_category_type_id": 1, "lon": 9.203332, "carModelData": [], "car_name": "Fiat 500", "onClick_disabled": false, "address": "Via Conservatorio, 2, 20122 Milano", "lat": 45.46391, "fuel_level": 100}, {"virtual_rental_type_id": 2, "car_plate": "EZ285GW", "virtual_rental_id": 359768, "car_category_id": 8, "car_category_type_id": 1, "lon": 9.17179, "carModelData": [100], "car_name": "Fiat 500", "onClick_disabled": false, "address": "Via Gaeta, 15, 20161 Milano", "lat": 45.520443, "fuel_level": 95}, {"virtual_rental_type_id": 2, "car_plate": "EZ359GW", "virtual_rental_id": 367215, "car_category_id": 8, "car_category_type_id": 1, "lon": 9.201773, "carModelData": [], "car_name": "Fiat 500", "onClick_disabled": false, "address": "Via Giovanni Battista Ramusio, 20141 Milano", "lat": 45.422386, "fuel_level": 87}, {"virtual_rental_type_id": 2, "car_plate": "ET998XK", "virtual_rental_id": 322408, "car_category_id": 8, "car_category_type_id": 1, "lon": 9.100769, "carModelData": [100], "car_name": "Fiat 500", "onClick_disabled": false, "address": "Piazza Europa, 44, 20094 Corsico MI", "lat": 45.42664, "fuel_level": 1}, {"virtual_rental_type_id": 2, "car_plate": "ET987XK", "virtual_rental_id": 329898, "car_category_id": 8, "car_category_type_id": 1, "lon": 9.171514, "carModelData": [100], "car_name": "Fiat 500", "onClick_disabled": false, "address": "Via Privata Publio Rutilio Rufo, 22, 20161 Milano", "lat": 45.519928, "fuel_level": 81}, {"virtual_rental_type_id": 2, "car_plate": "FA507YY", "virtual_rental_id": 374329, "car_category_id": 8, "car_category_type_id": 1, "lon": 9.1231575, "carModelData": [], "car_name": "Fiat 500", "onClick_disabled": false, "address": "Via Privata Gadames, 122-124, 20151 Milano", "lat": 45.50149, "fuel_level": 40}, {"virtual_rental_type_id": 2, "car_plate": "FA422YY", "virtual_rental_id": 361693, "car_category_id": 8, "car_category_type_id": 1, "lon": 9.123429, "carModelData": [], "car_name": "Fiat 500", "onClick_disabled": false, "address": "Via Giacomo Quarenghi, 2, 20151 Milano", "lat": 45.494267, "fuel_level": 80}, {"virtual_rental_type_id": 2, "car_plate": "FA420YY", "virtual_rental_id": 437569, "car_category_id": 8, "car_category_type_id": 1, "lon": 9.145905, "carModelData": [], "car_name": "Fiat 500", "onClick_disabled": false, "address": "Via Renato Simoni, 13, 20157 Milano", "lat": 45.519226, "fuel_level": 36}, {"virtual_rental_type_id": 2, "car_plate": "EZ183GW", "virtual_rental_id": 352258, "car_category_id": 8, "car_category_type_id": 1, "lon": 9.203728, "carModelData": [], "car_name": "Fiat 500", "onClick_disabled": false, "address": "Via S. Barnaba, 45, 20122 Milano", "lat": 45.460106, "fuel_level": 23}, {"virtual_rental_type_id": 2, "car_plate": "EZ343GW", "virtual_rental_id": 352566, "car_category_id": 8, "car_category_type_id": 1, "lon": 9.170589, "carModelData": [], "car_name": "Fiat 500", "onClick_disabled": false, "address": "Via Don Rodrigo, 20142 Milano", "lat": 45.433933, "fuel_level": 98}, {"virtual_rental_type_id": 2, "car_plate": "ET004XL", "virtual_rental_id": 353872, "car_category_id": 8, "car_category_type_id": 1, "lon": 9.245959, "carModelData": [100], "car_name": "Fiat 500", "onClick_disabled": false, "address": "Via Rogoredo, 57-59, 20138 Milano", "lat": 45.430084, "fuel_level": 57}, {"virtual_rental_type_id": 2, "car_plate": "FA449YY", "virtual_rental_id": 327945, "car_category_id": 8, "car_category_type_id": 1, "lon": 9.276865, "carModelData": [], "car_name": "Fiat 500", "onClick_disabled": false, "address": "Aeroporto Linate - Partenze, Segrate MI", "lat": 45.462543, "fuel_level": 36}, {"virtual_rental_type_id": 2, "car_plate": "EZ151GW", "virtual_rental_id": 400399, "car_category_id": 8, "car_category_type_id": 1, "lon": 9.099095, "carModelData": [], "car_name": "Fiat 500", "onClick_disabled": false, "address": "Via Torquato Tasso, 9, 20090 Cesano Boscone MI", "lat": 45.438168, "fuel_level": 49}, {"virtual_rental_type_id": 2, "car_plate": "EX526VG", "virtual_rental_id": 342508, "car_category_id": 8, "car_category_type_id": 1, "lon": 9.225639, "carModelData": [14, 100], "car_name": "Fiat 500", "onClick_disabled": false, "address": "Via Doberd\u00f2, 8, 20126 Milano", "lat": 45.51897, "fuel_level": 71}, {"virtual_rental_type_id": 2, "car_plate": "EZ766NF", "virtual_rental_id": 325483, "car_category_id": 8, "car_category_type_id": 1, "lon": 9.250121, "carModelData": [], "car_name": "Fiat 500", "onClick_disabled": false, "address": "Via Caduti in Missione di Pace, 13, 20134 Milano", "lat": 45.478405, "fuel_level": 85}, {"virtual_rental_type_id": 2, "car_plate": "ET357XF", "virtual_rental_id": 322572, "car_category_id": 8, "car_category_type_id": 1, "lon": 9.247698, "carModelData": [100], "car_name": "Fiat 500", "onClick_disabled": false, "address": "Via Privata Giuseppe Maria Giulietti, 33, 20132 Milano", "lat": 45.50639, "fuel_level": 60}, {"virtual_rental_type_id": 2, "car_plate": "EZ331GW", "virtual_rental_id": 371951, "car_category_id": 8, "car_category_type_id": 1, "lon": 9.069113, "carModelData": [], "car_name": "Fiat 500", "onClick_disabled": false, "address": "Via Antonio Meucci, 16, 20019 Settimo Milanese MI", "lat": 45.465054, "fuel_level": 53}, {"virtual_rental_type_id": 2, "car_plate": "EZ364GW", "virtual_rental_id": 327998, "car_category_id": 8, "car_category_type_id": 1, "lon": 9.184025, "carModelData": [], "car_name": "Fiat 500", "onClick_disabled": false, "address": "Viale Francesco Crispi, 6-24, 20154 Milano", "lat": 45.480965, "fuel_level": 10}, {"virtual_rental_type_id": 2, "car_plate": "ET275XF", "virtual_rental_id": 407656, "car_category_id": 8, "car_category_type_id": 1, "lon": 9.194933, "carModelData": [100], "car_name": "Fiat 500", "onClick_disabled": false, "address": "Via Monte Napoleone, 12, 20121 Milano", "lat": 45.468636, "fuel_level": 48}, {"virtual_rental_type_id": 2, "car_plate": "EZ769NF", "virtual_rental_id": 392957, "car_category_id": 8, "car_category_type_id": 1, "lon": 9.227501, "carModelData": [], "car_name": "Fiat 500", "onClick_disabled": false, "address": "Via Parmenide, 2, 20128 Milano", "lat": 45.514874, "fuel_level": 53}, {"virtual_rental_type_id": 2, "car_plate": "EZ192GW", "virtual_rental_id": 396045, "car_category_id": 8, "car_category_type_id": 1, "lon": 9.098045, "carModelData": [], "car_name": "Fiat 500", "onClick_disabled": false, "address": "Via Luigi Cadorna, 8, 20090 Buccinasco MI", "lat": 45.417553, "fuel_level": 32}, {"virtual_rental_type_id": 2, "car_plate": "ET905DD", "virtual_rental_id": 393378, "car_category_id": 8, "car_category_type_id": 1, "lon": 9.117672, "carModelData": [100], "car_name": "Fiat 500", "onClick_disabled": false, "address": "Via Eugenio Montale, 10, 20151 Milano", "lat": 45.48859, "fuel_level": 23}, {"virtual_rental_type_id": 2, "car_plate": "FE804SS", "virtual_rental_id": 350003, "car_category_id": 8, "car_category_type_id": 1, "lon": 9.195876, "carModelData": [14], "car_name": "Fiat 500", "onClick_disabled": false, "address": "Via Veglia, 70, 20159 Milano", "lat": 45.50155, "fuel_level": 100}, {"virtual_rental_type_id": 2, "car_plate": "ET912DD", "virtual_rental_id": 336537, "car_category_id": 8, "car_category_type_id": 1, "lon": 9.171865, "carModelData": [100], "car_name": "Fiat 500", "onClick_disabled": false, "address": "Via Antonio Giovanola, 17, 20142 Milano", "lat": 45.42929, "fuel_level": 71}, {"virtual_rental_type_id": 2, "car_plate": "FA469YY", "virtual_rental_id": 377572, "car_category_id": 8, "car_category_type_id": 1, "lon": 9.274696, "carModelData": [], "car_name": "Fiat 500", "onClick_disabled": false, "address": "Via Rodolfo Morandi, 13, 20097 San Donato Milanese MI", "lat": 45.412487, "fuel_level": 41}, {"virtual_rental_type_id": 2, "car_plate": "FA476YY", "virtual_rental_id": 333620, "car_category_id": 8, "car_category_type_id": 1, "lon": 9.156478, "carModelData": [], "car_name": "Fiat 500", "onClick_disabled": false, "address": "Via Giuseppe La Masa, 20, 20156 Milano", "lat": 45.501198, "fuel_level": 45}, {"virtual_rental_type_id": 2, "car_plate": "ET260CY", "virtual_rental_id": 399873, "car_category_id": 8, "car_category_type_id": 1, "lon": 9.110215, "carModelData": [100], "car_name": "Fiat 500", "onClick_disabled": false, "address": "Via Ugo Ojetti, 48-54, 20151 Milano", "lat": 45.495583, "fuel_level": 66}, {"virtual_rental_type_id": 2, "car_plate": "ET850DD", "virtual_rental_id": 325841, "car_category_id": 8, "car_category_type_id": 1, "lon": 9.171014, "carModelData": [100], "car_name": "Fiat 500", "onClick_disabled": false, "address": "Via Sant'Abbondio, 6, 20142 Milano", "lat": 45.42476, "fuel_level": 91}, {"virtual_rental_type_id": 2, "car_plate": "FA512YY", "virtual_rental_id": 371242, "car_category_id": 8, "car_category_type_id": 1, "lon": 9.19774, "carModelData": [], "car_name": "Fiat 500", "onClick_disabled": false, "address": "Via Marina, 2, 20121 Milano", "lat": 45.47041, "fuel_level": 24}, {"virtual_rental_type_id": 2, "car_plate": "ET922DD", "virtual_rental_id": 329148, "car_category_id": 8, "car_category_type_id": 1, "lon": 9.180723, "carModelData": [100], "car_name": "Fiat 500", "onClick_disabled": false, "address": "Via Fratelli Fraschini, 22, 20142 Milano", "lat": 45.416183, "fuel_level": 24}, {"virtual_rental_type_id": 2, "car_plate": "ET603XJ", "virtual_rental_id": 412416, "car_category_id": 8, "car_category_type_id": 1, "lon": 9.118848, "carModelData": [100], "car_name": "Fiat 500", "onClick_disabled": false, "address": "Via Dante Alighieri, 65, 20090 Buccinasco MI", "lat": 45.426838, "fuel_level": 67}, {"virtual_rental_type_id": 2, "car_plate": "ET341XF", "virtual_rental_id": 326931, "car_category_id": 8, "car_category_type_id": 1, "lon": 9.094894, "carModelData": [100], "car_name": "Fiat 500", "onClick_disabled": false, "address": "Via Roma, 56, 20090 Cesano Boscone MI", "lat": 45.44268, "fuel_level": 40}, {"virtual_rental_type_id": 2, "car_plate": "ET829DD", "virtual_rental_id": 356359, "car_category_id": 8, "car_category_type_id": 1, "lon": 9.127814, "carModelData": [100], "car_name": "Fiat 500", "onClick_disabled": false, "address": "Via Indipendenza, 5A, 20090 Buccinasco MI", "lat": 45.42303, "fuel_level": 75}, {"virtual_rental_type_id": 2, "car_plate": "ET647XJ", "virtual_rental_id": 339927, "car_category_id": 8, "car_category_type_id": 1, "lon": 9.283494, "carModelData": [], "car_name": "Fiat 500", "onClick_disabled": false, "address": "Via Felice Maritano, 24, 20097 San Donato Milanese MI", "lat": 45.42014, "fuel_level": 100}, {"virtual_rental_type_id": 2, "car_plate": "ET889DD", "virtual_rental_id": 379030, "car_category_id": 8, "car_category_type_id": 1, "lon": 9.174986, "carModelData": [100], "car_name": "Fiat 500", "onClick_disabled": false, "address": "Via dei Missaglia, 99, 20142 Milano", "lat": 45.41154, "fuel_level": 100}, {"virtual_rental_type_id": 2, "car_plate": "EX993VG", "virtual_rental_id": 363992, "car_category_id": 8, "car_category_type_id": 1, "lon": 9.085308, "carModelData": [100], "car_name": "Fiat 500", "onClick_disabled": false, "address": "Via Salvo D'Acquisto, 7, 20090 Cesano Boscone MI", "lat": 45.444298, "fuel_level": 2}, {"virtual_rental_type_id": 1, "car_plate": "ED57404", "virtual_rental_id": 308918, "car_category_id": 7, "car_category_type_id": 2, "lon": 9.130163, "carModelData": [100], "car_name": "Piaggio MP3", "onClick_disabled": false, "address": "Piazza Tirana, 32, 20147 Milano MI", "lat": 45.442863, "fuel_level": 93}, {"virtual_rental_type_id": 1, "car_plate": "DR81186", "virtual_rental_id": 284575, "car_category_id": 7, "car_category_type_id": 2, "lon": 9.146493, "carModelData": [100], "car_name": "Piaggio MP3", "onClick_disabled": false, "address": "Via Grosotto, 7, 20149 Milano", "lat": 45.491005, "fuel_level": 100}, {"virtual_rental_type_id": 1, "car_plate": "ED57144", "virtual_rental_id": 283914, "car_category_id": 7, "car_category_type_id": 2, "lon": 9.148713, "carModelData": [100], "car_name": "Piaggio MP3", "onClick_disabled": false, "address": "Via Leone Tolstoi, 70, 20146 Milano", "lat": 45.45535, "fuel_level": 74}, {"virtual_rental_type_id": 1, "car_plate": "ED57067", "virtual_rental_id": 274727, "car_category_id": 7, "car_category_type_id": 2, "lon": 9.253856, "carModelData": [100], "car_name": "Piaggio MP3", "onClick_disabled": false, "address": "Via Piero Portaluppi, 1, 20138 Milano", "lat": 45.45436, "fuel_level": 10}, {"virtual_rental_type_id": 1, "car_plate": "ED57149", "virtual_rental_id": 274702, "car_category_id": 7, "car_category_type_id": 2, "lon": 9.136087, "carModelData": [100], "car_name": "Piaggio MP3", "onClick_disabled": false, "address": "Via Longarone, 1, 20157 Milano", "lat": 45.51995, "fuel_level": 38}, {"virtual_rental_type_id": 1, "car_plate": "ED57414", "virtual_rental_id": 300628, "car_category_id": 7, "car_category_type_id": 2, "lon": 9.24821, "carModelData": [100], "car_name": "Piaggio MP3", "onClick_disabled": false, "address": "Via Camillo e Otto Cima, 23, 20134 Milano", "lat": 45.472057, "fuel_level": 53}, {"virtual_rental_type_id": 1, "car_plate": "ED57389", "virtual_rental_id": 274656, "car_category_id": 7, "car_category_type_id": 2, "lon": 9.124549, "carModelData": [100], "car_name": "Piaggio MP3", "onClick_disabled": false, "address": "Via Berna, 15, 20147 Milano", "lat": 45.45712, "fuel_level": 66}, {"virtual_rental_type_id": 1, "car_plate": "ED57153", "virtual_rental_id": 275142, "car_category_id": 7, "car_category_type_id": 2, "lon": 9.264386, "carModelData": [100], "car_name": "Piaggio MP3", "onClick_disabled": false, "address": "Via Guido Ucelli di Nemi, 51, 20138 Milano", "lat": 45.43802, "fuel_level": 12}, {"virtual_rental_type_id": 1, "car_plate": "ED04661", "virtual_rental_id": 274839, "car_category_id": 7, "car_category_type_id": 2, "lon": 9.174026, "carModelData": [100], "car_name": "Piaggio MP3", "onClick_disabled": false, "address": "Via Achille Fontanelli, 10, 20161 Milano", "lat": 45.52492, "fuel_level": 25}, {"virtual_rental_type_id": 1, "car_plate": "ED57164", "virtual_rental_id": 374443, "car_category_id": 7, "car_category_type_id": 2, "lon": 9.266988, "carModelData": [100], "car_name": "Piaggio MP3", "onClick_disabled": false, "address": "Via Olgettina, 9, 20090 Vimodrone MI", "lat": 45.511906, "fuel_level": 60}, {"virtual_rental_type_id": 1, "car_plate": "ED04655", "virtual_rental_id": 398212, "car_category_id": 7, "car_category_type_id": 2, "lon": 9.243819, "carModelData": [100], "car_name": "Piaggio MP3", "onClick_disabled": false, "address": "Via Antonio De Curtis, 20128 Milano", "lat": 45.516384, "fuel_level": 100}, {"virtual_rental_type_id": 1, "car_plate": "ED04625", "virtual_rental_id": 284330, "car_category_id": 7, "car_category_type_id": 2, "lon": 9.236566, "carModelData": [100], "car_name": "Piaggio MP3", "onClick_disabled": false, "address": "Via Carlo Valvassori Peroni, 77, 20133 Milano", "lat": 45.482708, "fuel_level": 87},