{"placemarks": [{"name": "GTR 8187", "vin": "WMEEJ3BA5FK797032", "coordinates": [-73.94257, 40.69248, 0], "smartPhoneRequired": false, "interior": "GOOD", "exterior": "GOOD", "address": "841 Dekalb Ave, Brooklyn, NY 11221, USA", "fuel": 72, "engineType": "CE"}, {"name": "GUM  8160", "vin": "WMEEJ3BA8FK800229", "coordinates": [-74.00943, 40.64271, 0], "smartPhoneRequired": false, "interior": "GOOD", "exterior": "GOOD", "address": "578 52nd St, Brooklyn, NY 11220, USA", "fuel": 60, "engineType": "CE"}, {"name": "GSW 7780", "vin": "WMEEJ3BA9FK796305", "coordinates": [-73.99106, 40.66181, 0], "smartPhoneRequired": false, "interior": "GOOD", "exterior": "GOOD", "address": "275 19th St, Brooklyn, NY 11215, USA", "fuel": 42, "engineType": "CE"}, {"name": "HAR 7934", "vin": "WMEEJ3BA6EK764295", "coordinates": [-73.99997, 40.5771, 0], "smartPhoneRequired": false, "interior": "GOOD", "exterior": "GOOD", "address": "2801-2841 W 33rd St, Brooklyn, NY 11224, USA", "fuel": 63, "engineType": "CE"}, {"name": "GTP 8941", "vin": "WMEEJ3BA5FK797080", "coordinates": [-73.89056, 40.76823, 0], "smartPhoneRequired": false, "interior": "GOOD", "exterior": "GOOD", "address": "22-16 79th St, East Elmhurst, NY 11370, USA", "fuel": 100, "engineType": "CE"}, {"name": "HAR 7944", "vin": "WMEEJ3BA3EK773603", "coordinates": [-73.95041, 40.71325, 0], "smartPhoneRequired": false, "interior": "GOOD", "exterior": "GOOD", "address": "21 Devoe St, Brooklyn, NY 11211, USA", "fuel": 100, "engineType": "CE"}, {"name": "GTS3759", "vin": "WMEEJ3BA5FK798763", "coordinates": [-73.89039, 40.77216, 0], "smartPhoneRequired": false, "interior": "GOOD", "exterior": "GOOD", "address": "19-40 80th St, East Elmhurst, NY 11370, USA", "fuel": 69, "engineType": "CE"}, {"name": "GSW 7809", "vin": "WMEEJ3BA2FK796128", "coordinates": [-73.99765, 40.67863, 0], "smartPhoneRequired": false, "interior": "GOOD", "exterior": "GOOD", "address": "427 Court St, Brooklyn, NY 11231, USA", "fuel": 63, "engineType": "CE"}, {"name": "GTR 8205", "vin": "WMEEJ3BA9FK797146", "coordinates": [-73.95329, 40.6569, 0], "smartPhoneRequired": false, "interior": "GOOD", "exterior": "GOOD", "address": "200 Winthrop St, Brooklyn, NY 11225, USA", "fuel": 48, "engineType": "CE"}, {"name": "HAR 7980", "vin": "WMEEJ3BA3EK769308", "coordinates": [-73.92997, 40.68771, 0], "smartPhoneRequired": false, "interior": "GOOD", "exterior": "GOOD", "address": "165 Malcolm X Blvd, Brooklyn, NY 11221, USA", "fuel": 42, "engineType": "CE"}, {"name": "GSW 7845", "vin": "WMEEJ3BA8FK795856", "coordinates": [-74.01326, 40.67714, 0], "smartPhoneRequired": false, "interior": "GOOD", "exterior": "GOOD", "address": "374 Van Brunt St, Brooklyn, NY 11231, USA", "fuel": 72, "engineType": "CE"}, {"name": "GTP 9006", "vin": "WMEEJ3BA6FK796651", "coordinates": [-73.92758, 40.704, 0], "smartPhoneRequired": false, "interior": "GOOD", "exterior": "GOOD", "address": "170 Knickerbocker Ave, Brooklyn, NY 11237, USA", "fuel": 100, "engineType": "CE"}, {"name": "GTP 9036", "vin": "WMEEJ3BA0FK797312", "coordinates": [-73.94881, 40.67339, 0], "smartPhoneRequired": false, "interior": "GOOD", "exterior": "GOOD", "address": "867 Park Pl, Brooklyn, NY 11216, USA", "fuel": 100, "engineType": "CE"}, {"name": "GUM  8121", "vin": "WMEEJ3BA6FK800066", "coordinates": [-73.94362, 40.68405, 0], "smartPhoneRequired": false, "interior": "GOOD", "exterior": "GOOD", "address": "351 Jefferson Ave, Brooklyn, NY 11221, USA", "fuel": 84, "engineType": "CE"}, {"name": "GTP 8963", "vin": "WMEEJ3BA7FK797131", "coordinates": [-73.97367, 40.6796, 0], "smartPhoneRequired": false, "interior": "GOOD", "exterior": "GOOD", "address": "92 St Marks Ave, Brooklyn, NY 11217, USA", "fuel": 96, "engineType": "CE"}, {"name": "GSW 7767", "vin": "WMEEJ3BA9FK795770", "coordinates": [-73.92925, 40.67141, 0], "smartPhoneRequired": false, "interior": "GOOD", "exterior": "GOOD", "address": "1485 Sterling Pl, Brooklyn, NY 11213, USA", "fuel": 100, "engineType": "CE"}, {"name": "GSW 7724", "vin": "WMEEJ3BA3FK796025", "coordinates": [-74.0121, 40.61017, 0], "smartPhoneRequired": false, "interior": "GOOD", "exterior": "GOOD", "address": "1426-1448 Benson Ave, Brooklyn, NY 11228, USA", "fuel": 100, "engineType": "CE"}, {"name": "GTP 8942", "vin": "WMEEJ3BA8FK797008", "coordinates": [-73.90776, 40.74448, 0], "smartPhoneRequired": false, "interior": "GOOD", "exterior": "GOOD", "address": "41-25 57th St, Flushing, NY 11377, USA", "fuel": 78, "engineType": "CE"}, {"name": "GTR 8286", "vin": "WMEEJ3BA9FK798670", "coordinates": [-74.01409, 40.67722, 0], "smartPhoneRequired": false, "interior": "GOOD", "exterior": "GOOD", "address": "128 Dikeman St, Brooklyn, NY 11231, USA", "fuel": 100, "engineType": "CE"}, {"name": "GTS3765", "vin": "WMEEJ3BA5FK798004", "coordinates": [-73.92368, 40.74191, 0], "smartPhoneRequired": false, "interior": "GOOD", "exterior": "GOOD", "address": "45-55 41st St, Long Island City, NY 11104, USA", "fuel": 100, "engineType": "CE"}, {"name": "GTP 9015", "vin": "WMEEJ3BA1FK798078", "coordinates": [-73.9551, 40.68109, 0], "smartPhoneRequired": false, "interior": "GOOD", "exterior": "GOOD", "address": "1165 Fulton St, Brooklyn, NY 11216, USA", "fuel": 87, "engineType": "CE"}, {"name": "GTP 8982", "vin": "WMEEJ3BA0FK798279", "coordinates": [-73.93944, 40.68454, 0], "smartPhoneRequired": false, "interior": "GOOD", "exterior": "GOOD", "address": "465 Jefferson Ave, Brooklyn, NY 11221, USA", "fuel": 100, "engineType": "CE"}, {"name": "GTP 8883", "vin": "WMEEJ3BA4FK795725", "coordinates": [-73.9471, 40.69929, 0], "smartPhoneRequired": false, "interior": "GOOD", "exterior": "GOOD", "address": "32-34 Tompkins Ave, Brooklyn, NY 11206, USA", "fuel": 96, "engineType": "CE"}, {"name": "GTS3727", "vin": "WMEEJ3BA0FK798282", "coordinates": [-73.97147, 40.67979, 0], "smartPhoneRequired": false, "interior": "GOOD", "exterior": "GOOD", "address": "581-583 Carlton Ave, Brooklyn, NY 11238, USA", "fuel": 39, "engineType": "CE"}, {"name": "GTR 8281", "vin": "WMEEJ3BAXFK797110", "coordinates": [-73.95369, 40.69161, 0], "smartPhoneRequired": false, "interior": "GOOD", "exterior": "GOOD", "address": "236 Walworth St, Brooklyn, NY 11205, USA", "fuel": 27, "engineType": "CE"}, {"name": "GSW 7810", "vin": "WMEEJ3BA1FK797917", "coordinates": [-73.98256, 40.61648, 0], "smartPhoneRequired": false, "interior": "GOOD", "exterior": "GOOD", "address": "2081 63rd St, Brooklyn, NY 11204, USA", "fuel": 51, "engineType": "CE"}, {"name": "GXV 2023", "vin": "WMEEJ3BAXFK795048", "coordinates": [-73.91654, 40.77161, 0], "smartPhoneRequired": false, "interior": "GOOD", "exterior": "GOOD", "address": "24-32 31st St, Long Island City, NY 11102, USA", "fuel": 66, "engineType": "CE"}, {"name": "GSW 7868", "vin": "WMEEJ3BA4FK796258", "coordinates": [-73.89802, 40.75037, 0], "smartPhoneRequired": false, "interior": "GOOD", "exterior": "GOOD", "address": "64-16 35th Ave, Flushing, NY 11377, USA", "fuel": 78, "engineType": "CE"}, {"name": "HAR 7930", "vin": "WMEEJ3BA2EK775083", "coordinates": [-73.9223, 40.68109, 0], "smartPhoneRequired": false, "interior": "GOOD", "exterior": "GOOD", "address": "247 Ralph Ave, Brooklyn, NY 11233, USA", "fuel": 81, "engineType": "CE"}, {"name": "GTP 8953", "vin": "WMEEJ3BA2FK798235", "coordinates": [-73.96251, 40.67634, 0], "smartPhoneRequired": false, "interior": "GOOD", "exterior": "GOOD", "address": "417 Prospect Pl, Brooklyn, NY 11238, USA", "fuel": 57, "engineType": "CE"}, {"name": "GTS3651", "vin": "WMEEJ3BA2FK799093", "coordinates": [-73.91915, 40.75612, 0], "smartPhoneRequired": false, "interior": "GOOD", "exterior": "GOOD", "address": "32-82 42nd St, Astoria, NY 11103, USA", "fuel": 78, "engineType": "CE"}, {"name": "GTR 8251", "vin": "WMEEJ3BA5FK797869", "coordinates": [-74.03417, 40.63734, 0], "smartPhoneRequired": false, "interior": "GOOD", "exterior": "GOOD", "address": "7001 Narrows Ave, Brooklyn, NY 11209, USA", "fuel": 69, "engineType": "CE"}, {"name": "GTP 9039", "vin": "WMEEJ3BA1FK797464", "coordinates": [-73.96215, 40.70563, 0], "smartPhoneRequired": false, "interior": "GOOD", "exterior": "GOOD", "address": "125-157 Wilson St, Brooklyn, NY 11211, USA", "fuel": 18, "engineType": "CE"}, {"name": "GSW 7775", "vin": "WMEEJ3BA4FK796194", "coordinates": [-73.97069, 40.58777, 0], "smartPhoneRequired": false, "interior": "GOOD", "exterior": "GOOD", "address": "2522 W 1st St, Brooklyn, NY 11223, USA", "fuel": 48, "engineType": "CE"}, {"name": "GUM  8126", "vin": "WMEEJ3BA2FK800730", "coordinates": [-74.00369, 40.68162, 0], "smartPhoneRequired": false, "interior": "GOOD", "exterior": "GOOD", "address": "33 Woodhull St, Brooklyn, NY 11231, USA", "fuel": 78, "engineType": "CE"}, {"name": "HAR 7986", "vin": "WMEEJ3BA3EK763783", "coordinates": [-73.8947, 40.77048, 0], "smartPhoneRequired": false, "interior": "GOOD", "exterior": "GOOD", "address": "19-52 75th St, Flushing, NY 11370, USA", "fuel": 69, "engineType": "CE"}, {"name": "HAR 7951", "vin": "WMEEJ3BA6EK773336", "coordinates": [-73.99127, 40.61695, 0], "smartPhoneRequired": false, "interior": "GOOD", "exterior": "GOOD", "address": "1824 68th St, Brooklyn, NY 11204, USA", "fuel": 24, "engineType": "CE"}, {"name": "GTR 8292", "vin": "WMEEJ3BAXFK798421", "coordinates": [-73.95217, 40.73426, 0], "smartPhoneRequired": false, "interior": "GOOD", "exterior": "GOOD", "address": "342 McGuinness Blvd, Brooklyn, NY 11222, USA", "fuel": 100, "engineType": "CE"}, {"name": "GTS3710", "vin": "WMEEJ3BA9FK798524", "coordinates": [-73.9521, 40.73188, 0], "smartPhoneRequired": false, "interior": "GOOD", "exterior": "GOOD", "address": "209 Java St, Brooklyn, NY 11222, USA", "fuel": 90, "engineType": "CE"}, {"name": "GSW 7824", "vin": "WMEEJ3BA3FK795621", "coordinates": [-73.98721, 40.66125, 0], "smartPhoneRequired": false, "interior": "GOOD", "exterior": "GOOD", "address": "357 17th St, Brooklyn, NY 11215, USA", "fuel": 63, "engineType": "CE"}, {"name": "GTP 8881", "vin": "WMEEJ3BA9FK795896", "coordinates": [-73.90397, 40.75108, 0], "smartPhoneRequired": false, "interior": "GOOD", "exterior": "GOOD", "address": "34-26 58th St, Flushing, NY 11377, USA", "fuel": 57, "engineType": "CE"}, {"name": "GVK  7088", "vin": "WMEEJ3BA5FK800432", "coordinates": [-74.00268, 40.59847, 0], "smartPhoneRequired": false, "interior": "GOOD", "exterior": "GOOD", "address": "2041-2049 21st Dr, Brooklyn, NY 11214, USA", "fuel": 39, "engineType": "CE"}, {"name": "GTS  3691", "vin": "WMEEJ3BA4FK799015", "coordinates": [-74.0051, 40.68425, 0], "smartPhoneRequired": false, "interior": "GOOD", "exterior": "GOOD", "address": "39 President St, Brooklyn, NY 11231, USA", "fuel": 100, "engineType": "CE"}, {"name": "GSW 7813", "vin": "WMEEJ3BA1FK796475", "coordinates": [-73.9105, 40.68582, 0], "smartPhoneRequired": false, "interior": "GOOD", "exterior": "GOOD", "address": "1025-1093 Decatur St, Brooklyn, NY 11207, USA", "fuel": 69, "engineType": "CE"}, {"name": "GTP 8985", "vin": "WMEEJ3BA9FK796448", "coordinates": [-73.96266, 40.68168, 0], "smartPhoneRequired": false, "interior": "GOOD", "exterior": "GOOD", "address": "20-22 Lefferts Pl, Brooklyn, NY 11238, USA", "fuel": 30, "engineType": "CE"}, {"name": "GTR 8196", "vin": "WMEEJ3BA3FK797482", "coordinates": [-74.0009, 40.66037, 0], "smartPhoneRequired": false, "interior": "GOOD", "exterior": "GOOD", "address": "146-154 27th St, Brooklyn, NY 11232, USA", "fuel": 87, "engineType": "CE"}, {"name": "HAR 7960", "vin": "WMEEJ3BA4EK767180", "coordinates": [-73.9519, 40.71257, 0], "smartPhoneRequired": false, "interior": "GOOD", "exterior": "GOOD", "address": "65 Ainslie St, Brooklyn, NY 11211, USA", "fuel": 36, "engineType": "CE"}, {"name": "GTP 9013", "vin": "WMEEJ3BA1FK797402", "coordinates": [-73.97638, 40.65382, 0], "smartPhoneRequired": false, "interior": "GOOD", "exterior": "GOOD", "address": "1200 Prospect Ave, Brooklyn, NY 11218, USA", "fuel": 48, "engineType": "CE"}, {"name": "GTR 8190", "vin": "WMEEJ3BA6FK798643", "coordinates": [-73.96093, 40.64725, 0], "smartPhoneRequired": false, "interior": "GOOD", "exterior": "GOOD", "address": "1917 Albemarle Rd, Brooklyn, NY 11226, USA", "fuel": 72, "engineType": "CE"}, {"name": "HAR 7904", "vin": "WMEEJ3BAXEK753283", "coordinates": [-74.03581, 40.61921, 0], "smartPhoneRequired": false, "interior": "GOOD", "exterior": "GOOD", "address": "9302 Ridge Blvd, Brooklyn, NY 11209, USA", "fuel": 48, "engineType": "CE"}, {"name": "GUM  8161", "vin": "WMEEJ3BAXFK800085", "coordinates": [-73.97707, 40.64144, 0], "smartPhoneRequired": false, "interior": "GOOD", "exterior": "GOOD", "address": "422 E 3rd St, Brooklyn, NY 11218, USA", "fuel": 84, "engineType": "CE"}, {"name": "HAR 7935", "vin": "WMEEJ3BA8EK769532", "coordinates": [-73.9659, 40.64924, 0], "smartPhoneRequired": false, "interior": "GOOD", "exterior": "GOOD", "address": "43 Marlborough Rd, Brooklyn, NY 11226, USA", "fuel": 18, "engineType": "CE"}, {"name": "HAR 7921", "vin": "WMEEJ3BA7EK768999", "coordinates": [-73.89351, 40.77044, 0], "smartPhoneRequired": false, "interior": "GOOD", "exterior": "GOOD", "address": "76-6-76-8 21st Ave, East Elmhurst, NY 11370, USA", "fuel": 100, "engineType": "CE"}, {"name": "GTS3772", "vin": "WMEEJ3BA4FK799127", "coordinates": [-73.97652, 40.64385, 0], "smartPhoneRequired": false, "interior": "GOOD", "exterior": "GOOD", "address": "343 E 4th St, Brooklyn, NY 11218, USA", "fuel": 100, "engineType": "CE"}, {"name": "GTR 8240", "vin": "WMEEJ3BA4FK797622", "coordinates": [-73.92333, 40.6682, 0], "smartPhoneRequired": false, "interior": "GOOD", "exterior": "GOOD", "address": "1360 Eastern Pkwy, Brooklyn, NY 11233, USA", "fuel": 30, "engineType": "CE"}, {"name": "GTR 8211", "vin": "WMEEJ3BA9FK797809", "coordinates": [-73.9585, 40.73057, 0], "smartPhoneRequired": false, "interior": "GOOD", "exterior": "GOOD", "address": "67 Kent St, Brooklyn, NY 11222, USA", "fuel": 33, "engineType": "CE"}, {"name": "GTR 8225", "vin": "WMEEJ3BA8FK797137", "coordinates": [-73.93218, 40.66621, 0], "smartPhoneRequired": false, "interior": "GOOD", "exterior": "GOOD", "address": "1629 Carroll St, Brooklyn, NY 11213, USA", "fuel": 57, "engineType": "CE"}, {"name": "GSW 7725", "vin": "WMEEJ3BA3FK796302", "coordinates": [-73.92045, 40.74126, 0], "smartPhoneRequired": false, "interior": "GOOD", "exterior": "GOOD", "address": "44-14 47th Ave, Woodside, NY 11377, USA", "fuel": 66, "engineType": "CE"}, {"name": "HAR 7971", "vin": "WMEEJ3BAXEK766261", "coordinates": [-73.91172, 40.68168, 0], "smartPhoneRequired": false, "interior": "GOOD", "exterior": "GOOD", "address": "442 Marion St, Brooklyn, NY 11233, USA", "fuel": 51, "engineType": "CE"}, {"name": "GTP 9001", "vin": "WMEEJ3BA2FK797344", "coordinates": [-73.91468, 40.75754, 0], "smartPhoneRequired": false, "interior": "GOOD", "exterior": "GOOD", "address": "31-76-31-80 45th St, Astoria, NY 11103, USA", "fuel": 72, "engineType": "CE"}, {"name": "GUM  8164", "vin": "WMEEJ3BA1FK800248", "coordinates": [-73.96926, 40.69494, 0], "smartPhoneRequired": false, "interior": "GOOD", "exterior": "GOOD", "address": "94 Clinton Ave, Brooklyn, NY 11205, USA", "fuel": 60, "engineType": "CE"}, {"name": "HAR 7926", "vin": "WMEEJ3BAXEK772304", "coordinates": [-73.97702, 40.64897, 0], "smartPhoneRequired": false, "interior": "GOOD", "exterior": "GOOD", "address": "2814 Fort Hamilton Pkwy, Brooklyn, NY 11218, USA", "fuel": 78, "engineType": "CE"}, {"name": "GTS3761", "vin": "WMEEJ3BA7FK798571", "coordinates": [-73.93302, 40.67163, 0], "smartPhoneRequired": false, "interior": "GOOD", "exterior": "GOOD", "address": "1373 Sterling Pl, Brooklyn, NY 11213, USA", "fuel": 84, "engineType": "CE"}, {"name": "GSW 7802", "vin": "WMEEJ3BA7FK796321", "coordinates": [-73.94152, 40.72514, 0], "smartPhoneRequired": false, "interior": "GOOD", "exterior": "GOOD", "address": "246 Kingsland Ave, Brooklyn, NY 11222, USA", "fuel": 87, "engineType": "CE"}, {"name": "GUM  8168", "vin": "WMEEJ3BA6FK800553", "coordinates": [-73.97883, 40.60862, 0], "smartPhoneRequired": false, "interior": "GOOD", "exterior": "GOOD", "address": "1586 W 5th St, Brooklyn, NY 11204, USA", "fuel": 54, "engineType": "CE"}, {"name": "GVK  7087", "vin": "WMEEJ3BA4FK800096", "coordinates": [-73.95153, 40.65414, 0], "smartPhoneRequired": false, "interior": "GOOD", "exterior": "GOOD", "address": "237 Lenox Rd, Brooklyn, NY 11226, USA", "fuel": 60, "engineType": "CE"}, {"name": "GTR 8257", "vin": "WMEEJ3BA7FK797503", "coordinates": [-73.92128, 40.74007, 0], "smartPhoneRequired": false, "interior": "GOOD", "exterior": "GOOD", "address": "47-42-47-44 44 St, Woodside, NY 11377, USA", "fuel": 66, "engineType": "CE"}, {"name": "HAR 7962", "vin": "WMEEJ3BA7EK771563", "coordinates": [-73.91964, 40.68385, 0], "smartPhoneRequired": false, "interior": "GOOD", "exterior": "GOOD", "address": "661 MacDonough St, Brooklyn, NY 11233, USA", "fuel": 54, "engineType": "CE"}, {"name": "HAR 7975", "vin": "WMEEJ3BA7EK767450", "coordinates": [-73.90887, 40.68051, 0], "smartPhoneRequired": false, "interior": "GOOD", "exterior": "GOOD", "address": "288 MacDougal St, Brooklyn, NY 11233, USA", "fuel": 75, "engineType": "CE"}, {"name": "GSW 7743", "vin": "WMEEJ3BA0FK796984", "coordinates": [-73.99705, 40.68466, 0], "smartPhoneRequired": false, "interior": "GOOD", "exterior": "GOOD", "address": "351A Clinton St, Brooklyn, NY 11231, USA", "fuel": 72, "engineType": "CE"}, {"name": "HAR 7978", "vin": "WMEEJ3BA6EK767052", "coordinates": [-74.00542, 40.67398, 0], "smartPhoneRequired": false, "interior": "GOOD", "exterior": "GOOD", "address": "98 Lorraine St, Brooklyn, NY 11231, USA", "fuel": 84, "engineType": "CE"}, {"name": "GVK  7001", "vin": "WMEEJ3BA6FK800701", "coordinates": [-73.94493, 40.69286, 0], "smartPhoneRequired": false, "interior": "GOOD", "exterior": "GOOD", "address": "155 Pulaski St, Brooklyn, NY 11206, USA", "fuel": 100, "engineType": "CE"}, {"name": "GTR 8284", "vin": "WMEEJ3BA9FK797065", "coordinates": [-73.96032, 40.64725, 0], "smartPhoneRequired": false, "interior": "GOOD", "exterior": "GOOD", "address": "2016 Albemarle Rd, Brooklyn, NY 11226, USA", "fuel": 66, "engineType": "CE"}, {"name": "GTR 8183", "vin": "WMEEJ3BA1FK797089", "coordinates": [-73.97038, 40.6111, 0], "smartPhoneRequired": false, "interior": "GOOD", "exterior": "GOOD", "address": "1614 E 4th St, Brooklyn, NY 11230, USA", "fuel": 33, "engineType": "CE"}, {"name": "GTS3645", "vin": "WMEEJ3BA0FK798914", "coordinates": [-73.98917, 40.66057, 0], "smartPhoneRequired": false, "interior": "GOOD", "exterior": "GOOD", "address": "326A 19th St, Brooklyn, NY 11215, USA", "fuel": 100, "engineType": "CE"}, {"name": "GTS3668", "vin": "WMEEJ3BA3FK798843", "coordinates": [-73.94109, 40.72261, 0], "smartPhoneRequired": false, "interior": "GOOD", "exterior": "GOOD", "address": "166 Kingsland Ave, Brooklyn, NY 11222, USA", "fuel": 78, "engineType": "CE"}, {"name": "GUM  8124", "vin": "WMEEJ3BA7FK799980", "coordinates": [-73.88851, 40.76728, 0], "smartPhoneRequired": false, "interior": "GOOD", "exterior": "GOOD", "address": "22-50-22-98 81st St, East Elmhurst, NY 11370, USA", "fuel": 100, "engineType": "CE"}, {"name": "GTP 9010", "vin": "WMEEJ3BA0FK797598", "coordinates": [-73.97587, 40.61324, 0], "smartPhoneRequired": false, "interior": "GOOD", "exterior": "GOOD", "address": "2362 62nd St, Brooklyn, NY 11204, USA", "fuel": 87, "engineType": "CE"}, {"name": "HAR 7918", "vin": "WMEEJ3BA9EK753940", "coordinates": [-73.99317, 40.63023, 0], "smartPhoneRequired": false, "interior": "GOOD", "exterior": "GOOD", "address": "1401 55th St, Brooklyn, NY 11219, USA", "fuel": 48, "engineType": "CE"}, {"name": "GSW 7779", "vin": "WMEEJ3BA5FK796415", "coordinates": [-73.99563, 40.61424, 0], "smartPhoneRequired": false, "interior": "GOOD", "exterior": "GOOD", "address": "1779 74th St, Brooklyn, NY 11204, USA", "fuel": 36, "engineType": "CE"}, {"name": "HAR 7907", "vin": "WMEEJ3BA0EK769752", "coordinates": [-74.0136, 40.64842, 0], "smartPhoneRequired": false, "interior": "GOOD", "exterior": "GOOD", "address": "4801 3rd Ave, Brooklyn, NY 11220, USA", "fuel": 51, "engineType": "CE"}, {"name": "GTR 8201", "vin": "WMEEJ3BA3FK797692", "coordinates": [-73.95041, 40.66714, 0], "smartPhoneRequired": false, "interior": "GOOD", "exterior": "GOOD", "address": "1196 Carroll St, Brooklyn, NY 11225, USA", "fuel": 57, "engineType": "CE"}, {"name": "GTP 8913", "vin": "WMEEJ3BA2FK797649", "coordinates": [-73.99278, 40.62812, 0], "smartPhoneRequired": false, "interior": "GOOD", "exterior": "GOOD", "address": "1478 57th St, Brooklyn, NY 11219, USA", "fuel": 60, "engineType": "CE"}, {"name": "GTP 8984", "vin": "WMEEJ3BA2FK797134", "coordinates": [-73.9455, 40.72318, 0], "smartPhoneRequired": false, "interior": "GOOD", "exterior": "GOOD", "address": "13 Diamond St, Brooklyn, NY 11222, USA", "fuel": 96, "engineType": "CE"}, {"name": "GSW 7838", "vin": "WMEEJ3BA5FK796981", "coordinates": [-73.98155, 40.62768, 0], "smartPhoneRequired": false, "interior": "GOOD", "exterior": "GOOD", "address": "1800-1814 50th St, Brooklyn, NY 11204, USA", "fuel": 69, "engineType": "CE"}, {"name": "HAR 7912", "vin": "WMEEJ3BA7EK770798", "coordinates": [-74.00707, 40.64501, 0], "smartPhoneRequired": false, "interior": "GOOD", "exterior": "GOOD", "address": "573 48th St, Brooklyn, NY 11220, USA", "fuel": 60, "engineType": "CE"}, {"name": "GTR 8200", "vin": "WMEEJ3BA3FK797532", "coordinates": [-73.94712, 40.72609, 0], "smartPhoneRequired": false, "interior": "GOOD", "exterior": "GOOD", "address": "98 Diamond St, Brooklyn, NY 11222, USA", "fuel": 84, "engineType": "CE"}, {"name": "HAR 7908", "vin": "WMEEJ3BA9EK774058", "coordinates": [-73.92684, 40.70258, 0], "smartPhoneRequired": false, "interior": "GOOD", "exterior": "GOOD", "address": "235 Troutman St, Brooklyn, NY 11237, USA", "fuel": 96, "engineType": "CE"}, {"name": "GTR 8203", "vin": "WMEEJ3BA9FK797020", "coordinates": [-73.99747, 40.66293, 0], "smartPhoneRequired": false, "interior": "GOOD", "exterior": "GOOD", "address": "141 1/2 22nd St, Brooklyn, NY 11232, USA", "fuel": 81, "engineType": "CE"}, {"name": "GTP 8879", "vin": "WMEEJ3BA8FK797140", "coordinates": [-73.93859, 40.67769, 0], "smartPhoneRequired": false, "interior": "GOOD", "exterior": "GOOD", "address": "93 Albany Ave, Brooklyn, NY 11213, USA", "fuel": 45, "engineType": "CE"}, {"name": "GVK  7003", "vin": "WMEEJ3BA7FK800190", "coordinates": [-73.97029, 40.68503, 0], "smartPhoneRequired": false, "interior": "GOOD", "exterior": "GOOD", "address": "424 Adelphi St, Brooklyn, NY 11238, USA", "fuel": 54, "engineType": "CE"}, {"name": "GUM  8129", "vin": "WMEEJ3BA4FK800695", "coordinates": [-73.98365, 40.6705, 0], "smartPhoneRequired": false, "interior": "GOOD", "exterior": "GOOD", "address": "363A 6th St, Brooklyn, NY 11215, USA", "fuel": 84, "engineType": "CE"}, {"name": "GTR 8219", "vin": "WMEEJ3BAXFK798287", "coordinates": [-73.91062, 40.77981, 0], "smartPhoneRequired": false, "interior": "GOOD", "exterior": "GOOD", "address": "20-88-20-98 27th St, Astoria, NY 11105, USA", "fuel": 60, "engineType": "CE"}, {"name": "HAR 7967", "vin": "WMEEJ3BA3EK768479", "coordinates": [-73.99192, 40.66226, 0], "smartPhoneRequired": false, "interior": "GOOD", "exterior": "GOOD", "address": "248-250 19th St, Brooklyn, NY 11215, USA", "fuel": 100, "engineType": "CE"}, {"name": "GTR 8222", "vin": "WMEEJ3BA2FK797652", "coordinates": [-73.98035, 40.62981, 0], "smartPhoneRequired": false, "interior": "GOOD", "exterior": "GOOD", "address": "1753 47th St, Brooklyn, NY 11204, USA", "fuel": 36, "engineType": "CE"}, {"name": "GSW 7791", "vin": "WMEEJ3BA0FK795950", "coordinates": [-73.90638, 40.68413, 0], "smartPhoneRequired": false, "interior": "GOOD", "exterior": "GOOD", "address": "87 Granite St, Brooklyn, NY 11207, USA", "fuel": 96, "engineType": "CE"}, {"name": "GTR 8207", "vin": "WMEEJ3BA3FK797143", "coordinates": [-73.92666, 40.77254, 0], "smartPhoneRequired": false, "interior": "GOOD", "exterior": "GOOD", "address": "18-23 27th Ave, Long Island City, NY 11102, USA", "fuel": 51, "engineType": "CE"}, {"name": "GUM  8134", "vin": "WMEEJ3BA2FK800047", "coordinates": [-73.93836, 40.68493, 0], "smartPhoneRequired": false, "interior": "GOOD", "exterior": "GOOD", "address": "357 Marcus Garvey Blvd, Brooklyn, NY 11221, USA", "fuel": 100, "engineType": "CE"}, {"name": "GVK  7089", "vin": "WMEEJ3BA6FK800424", "coordinates": [-73.91407, 40.68568, 0], "smartPhoneRequired": false, "interior": "GOOD", "exterior": "GOOD", "address": "14-16 Eldert St, Brooklyn, NY 11207, USA", "fuel": 100, "engineType": "CE"}, {"name": "HAR 7917", "vin": "WMEEJ3BA4EK766742", "coordinates": [-73.97054, 40.64289, 0], "smartPhoneRequired": false, "interior": "GOOD", "exterior": "GOOD", "address": "219-263 E 9th St, Brooklyn, NY 11218, USA", "fuel": 51, "engineType": "CE"}, {"name": "GTS3644", "vin": "WMEEJ3BA0FK798864", "coordinates": [-73.92772, 40.69039, 0], "smartPhoneRequired": false, "interior": "GOOD", "exterior": "GOOD", "address": "823 Lexington Ave, Brooklyn, NY 11221, USA", "fuel": 18, "engineType": "CE"}, {"name": "HAR 7958", "vin": "WMEEJ3BAXEK764865", "coordinates": [-74.00118, 40.6877, 0], "smartPhoneRequired": false, "interior": "GOOD", "exterior": "GOOD", "address": "87 Kane St, Brooklyn, NY 11201, USA", "fuel": 60, "engineType": "CE"}, {"name": "GTS3747", "vin": "WMEEJ3BAXFK798533", "coordinates": [-74.0242, 40.62038, 0], "smartPhoneRequired": false, "interior": "GOOD", "exterior": "GOOD", "address": "601 86th St, Brooklyn, NY 11209, USA", "fuel": 51, "engineType": "CE"}, {"name": "GTS3649", "vin": "WMEEJ3BA1FK799165", "coordinates": [-73.93049, 40.69793, 0], "smartPhoneRequired": false, "interior": "GOOD", "exterior": "GOOD", "address": "957 Willoughby Ave, Brooklyn, NY 11221, USA", "fuel": 33, "engineType": "CE"}, {"name": "GTP 8949", "vin": "WMEEJ3BA5FK797838", "coordinates": [-73.89031, 40.76736, 0], "smartPhoneRequired": false, "interior": "GOOD", "exterior": "GOOD", "address": "22-45-22-59 79th St, East Elmhurst, NY 11370, USA", "fuel": 100, "engineType": "CE"}, {"name": "GTR 8188", "vin": "WMEEJ3BA5FK797113", "coordinates": [-73.8912, 40.76708, 0], "smartPhoneRequired": false, "interior": "GOOD", "exterior": "GOOD", "address": "22-57-22-99 78th St, East Elmhurst, NY 11370, USA", "fuel": 93, "engineType": "CE"}, {"name": "GTR 8271", "vin": "WMEEJ3BA8FK797428", "coordinates": [-73.95491, 40.72741, 0], "smartPhoneRequired": false, "interior": "GOOD", "exterior": "GOOD", "address": "191-199 Guernsey St, Brooklyn, NY 11222, USA", "fuel": 100, "engineType": "CE"}, {"name": "GTR 8285", "vin": "WMEEJ3BA9FK797440", "coordinates": [-73.96532, 40.70889, 0], "smartPhoneRequired": false, "interior": "GOOD", "exterior": "GOOD", "address": "95 S 9th St, Brooklyn, NY 11249, USA", "fuel": 69, "engineType": "CE"}, {"name": "GSW 7850", "vin": "WMEEJ3BA9FK796255", "coordinates": [-73.98371, 40.66846, 0], "smartPhoneRequired": false, "interior": "GOOD", "exterior": "GOOD", "address": "424 6th Ave, Brooklyn, NY 11215, USA", "fuel": 27, "engineType": "CE"}, {"name": "GTP 9035", "vin": "WMEEJ3BA0FK797309", "coordinates": [-73.89647, 40.74725, 0], "smartPhoneRequired": false, "interior": "GOOD", "exterior": "GOOD", "address": "3739-3741 69th St, Woodside, NY 11377, USA", "fuel": 100, "engineType": "CE"}, {"name": "GTR 8248", "vin": "WMEEJ3BA5FK797497", "coordinates": [-73.97393, 40.67394, 0], "smartPhoneRequired": false, "interior": "GOOD", "exterior": "GOOD", "address": "893 Union St, Brooklyn, NY 11215, USA", "fuel": 36, "engineType": "CE"}, {"name": "GTS3716", "vin": "WMEEJ3BAXFK798614", "coordinates": [-73.94197, 40.68196, 0], "smartPhoneRequired": false, "interior": "GOOD", "exterior": "GOOD", "address": "235 Macon St, Brooklyn, NY 11216, USA", "fuel": 51, "engineType": "CE"}, {"name": "GTS3770", "vin": "WMEEJ3BA8FK798983", "coordinates": [-73.90238, 40.74708, 0], "smartPhoneRequired": false, "interior": "GOOD", "exterior": "GOOD", "address": "616-6112 39th Ave, Woodside, NY 11377, USA", "fuel": 81, "engineType": "CE"}, {"name": "GTR 8181", "vin": "WMEEJ3BA5FK797953", "coordinates": [-73.95074, 40.71823, 0], "smartPhoneRequired": false, "interior": "GOOD", "exterior": "GOOD", "address": "32A Richardson St, Brooklyn, NY 11211, USA", "fuel": 15, "engineType": "CE"}, {"name": "GTP 9016", "vin": "WMEEJ3BA1FK798257", "coordinates": [-73.90013, 40.76783, 0], "smartPhoneRequired": false, "interior": "GOOD", "exterior": "GOOD", "address": "22-13-22-15 Hazen St, East Elmhurst, NY 11370, USA", "fuel": 100, "engineType": "CE"}, {"name": "GTR 8246", "vin": "WMEEJ3BA6FK797959", "coordinates": [-73.91645, 40.70479, 0], "smartPhoneRequired": false, "interior": "GOOD", "exterior": "GOOD", "address": "391 Stanhope St, Brooklyn, NY 11237, USA", "fuel": 57, "engineType": "CE"}, {"name": "GTR 8192", "vin": "WMEEJ3BA7FK797050", "coordinates": [-73.90862, 40.77073, 0], "smartPhoneRequired": false, "interior": "GOOD", "exterior": "GOOD", "address": "23-41-23-69 Steinway St, Astoria, NY 11105, USA", "fuel": 78, "engineType": "CE"}, {"name": "HAR 7963", "vin": "WMEEJ3BA8EK764170", "coordinates": [-73.98886, 40.66041, 0], "smartPhoneRequired": false, "interior": "GOOD", "exterior": "GOOD", "address": "334 19th St, Brooklyn, NY 11215, USA", "fuel": 100, "engineType": "CE"}, {"name": "GTS3762", "vin": "WMEEJ3BA5FK798455", "coordinates": [-73.96214, 40.64426, 0], "smartPhoneRequired": false, "interior": "GOOD", "exterior": "GOOD", "address": "270-300 E 18th St, Brooklyn, NY 11226, USA", "fuel": 100, "engineType": "CE"}, {"name": "HAR 7955", "vin": "WMEEJ3BA7EK766668", "coordinates": [-74.01617, 40.64411, 0], "smartPhoneRequired": false, "interior": "GOOD", "exterior": "GOOD", "address": "355 55th St, Brooklyn, NY 11220, USA", "fuel": 100, "engineType": "CE"}, {"name": "GSW 7764", "vin": "WMEEJ3BA7FK796299", "coordinates": [-73.92656, 40.69922, 0], "smartPhoneRequired": false, "interior": "GOOD", "exterior": "GOOD", "address": "154-158 Suydam St, Brooklyn, NY 11221, USA", "fuel": 100, "engineType": "CE"}, {"name": "GSW 7847", "vin": "WMEEJ3BA9FK795851", "coordinates": [-73.92767, 40.70053, 0], "smartPhoneRequired": false, "interior": "GOOD", "exterior": "GOOD", "address": "1-35 Starr St, Brooklyn, NY 11221, USA", "fuel": 42, "engineType": "CE"}, {"name": "HAR 7923", "vin": "WMEEJ3BA0EK768567", "coordinates": [-73.91134, 40.70151, 0], "smartPhoneRequired": false, "interior": "GOOD", "exterior": "GOOD", "address": "16-52 Linden St, Ridgewood, NY 11385, USA", "fuel": 33, "engineType": "CE"}, {"name": "GTS3705", "vin": "WMEEJ3BA7FK798974", "coordinates": [-73.93046, 40.69028, 0], "smartPhoneRequired": false, "interior": "GOOD", "exterior": "GOOD", "address": "99 Malcolm X Blvd, Brooklyn, NY 11221, USA", "fuel": 72, "engineType": "CE"}, {"name": "GSW 7777", "vin": "WMEEJ3BA7FK796271", "coordinates": [-73.94578, 40.6774, 0], "smartPhoneRequired": false, "interior": "GOOD", "exterior": "GOOD", "address": "1348 Pacific St, Brooklyn, NY 11216, USA", "fuel": 27, "engineType": "CE"}, {"name": "GTR 8272", "vin": "WMEEJ3BA8FK797509", "coordinates": [-73.93165, 40.6962, 0], "smartPhoneRequired": false, "interior": "GOOD", "exterior": "GOOD", "address": "27 Suydam St, Brooklyn, NY 11221, USA", "fuel": 78, "engineType": "CE"}, {"name": "GSW 7749", "vin": "WMEEJ3BA2FK796954", "coordinates": [-74.02368, 40.63178, 0], "smartPhoneRequired": false, "interior": "GOOD", "exterior": "GOOD", "address": "431 73rd St, Brooklyn, NY 11209, USA", "fuel": 51, "engineType": "CE"}, {"name": "GTR 8199", "vin": "WMEEJ3BA3FK797059", "coordinates": [-73.90069, 40.75776, 0], "smartPhoneRequired": false, "interior": "GOOD", "exterior": "GOOD", "address": "61-2 31st Ave, Woodside, NY 11377, USA", "fuel": 100, "engineType": "CE"}, {"name": "GSW 7748", "vin": "WMEEJ3BA0FK797116", "coordinates": [-73.94252, 40.70293, 0], "smartPhoneRequired": false, "interior": "GOOD", "exterior": "GOOD", "address": "45 Graham Ave, Brooklyn, NY 11206, USA", "fuel": 30, "engineType": "CE"}, {"name": "GSW 7820", "vin": "WMEEJ3BAXFK797107", "coordinates": [-74.00264, 40.57386, 0], "smartPhoneRequired": false, "interior": "GOOD", "exterior": "GOOD", "address": "2901-2999 W 37th St, Brooklyn, NY 11224, USA", "fuel": 87, "engineType": "CE"}, {"name": "GTS3648", "vin": "WMEEJ3BA1FK798341", "coordinates": [-73.95576, 40.67047, 0], "smartPhoneRequired": false, "interior": "GOOD", "exterior": "GOOD", "address": "391 Eastern Parkway,, 11216", "fuel": 72, "engineType": "CE"}, {"name": "GTR 8180", "vin": "WMEEJ3BA1FK797125", "coordinates": [-73.92822, 40.69754, 0], "smartPhoneRequired": false, "interior": "GOOD", "exterior": "GOOD", "address": "600-608 Hart St, Brooklyn, NY 11221, USA", "fuel": 54, "engineType": "CE"}, {"name": "GTS3773", "vin": "WMEEJ3BA0FK798461", "coordinates": [-73.91847, 40.74414, 0], "smartPhoneRequired": false, "interior": "GOOD", "exterior": "GOOD", "address": "43-15-43-33 Bliss St, Sunnyside, NY 11104, USA", "fuel": 100, "engineType": "CE"}, {"name": "GTR 8282", "vin": "WMEEJ3BA9FK796675", "coordinates": [-74.01096, 40.67246, 0], "smartPhoneRequired": false, "interior": "GOOD", "exterior": "GOOD", "address": "82-102 Otsego St, Brooklyn, NY 11231, USA", "fuel": 96, "engineType": "CE"}, {"name": "GSW 7853", "vin": "WMEEJ3BA3FK796221", "coordinates": [-73.93141, 40.69296, 0], "smartPhoneRequired": false, "interior": "GOOD", "exterior": "GOOD", "address": "581 Kosciuszko St, Brooklyn, NY 11221, USA", "fuel": 100, "engineType": "CE"}, {"name": "GUM7996", "vin": "WMEEJ3BA1FK798601", "coordinates": [-73.98538, 40.66537, 0], "smartPhoneRequired": false, "interior": "GOOD", "exterior": "GOOD", "address": "343 13th St, Brooklyn, NY 11215, USA", "fuel": 66, "engineType": "CE"}, {"name": "GTS3667", "vin": "WMEEJ3BA2FK798882", "coordinates": [-73.9896, 40.58577, 0], "smartPhoneRequired": false, "interior": "GOOD", "exterior": "GOOD", "address": "2056-2080 Shore Pkwy, Brooklyn, NY 11214, USA", "fuel": 100, "engineType": "CE"}, {"name": "GTP 9046", "vin": "WMEEJ3BA4FK797586", "coordinates": [-73.94285, 40.72675, 0], "smartPhoneRequired": false, "interior": "GOOD", "exterior": "GOOD", "address": "217 Monitor St, Brooklyn, NY 11222, USA", "fuel": 60, "engineType": "CE"}, {"name": "GZT 7513", "vin": "WMEEJ3BA6FK797329", "coordinates": [-73.91404, 40.74438, 0], "smartPhoneRequired": false, "interior": "GOOD", "exterior": "GOOD", "address": "50-05 43rd Ave, Woodside, NY 11377, USA", "fuel": 100, "engineType": "CE"}, {"name": "GTR 8290", "vin": "WMEEJ3BAXFK797768", "coordinates": [-73.9548, 40.67827, 0], "smartPhoneRequired": false, "interior": "GOOD", "exterior": "GOOD", "address": "1153 Pacific St, Brooklyn, NY 11216, USA", "fuel": 100, "engineType": "CE"}, {"name": "HAR 7977", "vin": "WMEEJ3BA5EK768595", "coordinates": [-73.99734, 40.68616, 0], "smartPhoneRequired": false, "interior": "GOOD", "exterior": "GOOD", "address": "5 Strong Pl, Brooklyn, NY 11231, USA", "fuel": 51, "engineType": "CE"}, {"name": "GTP 8893", "vin": "WMEEJ3BA2FK795058", "coordinates": [-73.97423, 40.60156, 0], "smartPhoneRequired": false, "interior": "GOOD", "exterior": "GOOD", "address": "306-320 Avenue S, Brooklyn, NY 11223, USA", "fuel": 100, "engineType": "CE"}, {"name": "GTR 8247", "vin": "WMEEJ3BA7FK797128", "coordinates": [-73.9897, 40.61595, 0], "smartPhoneRequired": false, "interior": "GOOD", "exterior": "GOOD", "address": "1914 68th St, Brooklyn, NY 11204, USA", "fuel": 84, "engineType": "CE"}, {"name": "HAR 7901", "vin": "WMEEJ3BA0EK771226", "coordinates": [-73.95155, 40.67175, 0], "smartPhoneRequired": false, "interior": "GOOD", "exterior": "GOOD", "address": "805-807 St Johns Pl, Brooklyn, NY 11216, USA", "fuel": 54, "engineType": "CE"}, {"name": "GTR 8186", "vin": "WMEEJ3BA4FK797572", "coordinates": [-73.96146, 40.64099, 0], "smartPhoneRequired": false, "interior": "GOOD", "exterior": "GOOD", "address": "407-435 E 18th St, Brooklyn, NY 11226, USA", "fuel": 72, "engineType": "CE"}, {"name": "GTS3736", "vin": "WMEEJ3BA2FK798946", "coordinates": [-73.97148, 40.6369, 0], "smartPhoneRequired": false, "interior": "GOOD", "exterior": "GOOD", "address": "608 E 7th St, Brooklyn, NY 11218, USA", "fuel": 36, "engineType": "CE"}, {"name": "GSW 7817", "vin": "WMEEJ3BA9FK798054", "coordinates": [-74.01213, 40.60288, 0], "smartPhoneRequired": false, "interior": "GOOD", "exterior": "GOOD", "address": "309-311 Bay 14th St, Brooklyn, NY 11214, USA", "fuel": 63, "engineType": "CE"}, {"name": "GSW 7844", "vin": "WMEEJ3BA7FK795881", "coordinates": [-73.9487, 40.74391, 0], "smartPhoneRequired": false, "interior": "GOOD", "exterior": "GOOD", "address": "47-27 21st St, Long Island City, NY 11101, USA", "fuel": 42, "engineType": "CE"}, {"name": "GTP 8952", "vin": "WMEEJ3BA3FK797076", "coordinates": [-73.99955, 40.68863, 0], "smartPhoneRequired": false, "interior": "GOOD", "exterior": "GOOD", "address": "110 Warren St, Brooklyn, NY 11201, USA", "fuel": 75, "engineType": "CE"}, {"name": "GTS3768", "vin": "WMEEJ3BA7FK798408", "coordinates": [-73.96681, 40.63797, 0], "smartPhoneRequired": false, "interior": "GOOD", "exterior": "GOOD", "address": "1115 Dorchester Rd, Brooklyn, NY 11218, USA", "fuel": 36, "engineType": "CE"}, {"name": "HAR 7987", "vin": "WMEEJ3BA3EK764500", "coordinates": [-74.02182, 40.61774, 0], "smartPhoneRequired": false, "interior": "GOOD", "exterior": "GOOD", "address": "2-18 Parrott Pl, Brooklyn, NY 11228, USA", "fuel": 100, "engineType": "CE"}, {"name": "HAR 7968", "vin": "WMEEJ3BA4EK766286", "coordinates": [-73.98252, 40.67075, 0], "smartPhoneRequired": false, "interior": "GOOD", "exterior": "GOOD", "address": "385-387 5th St, Brooklyn, NY 11215, USA", "fuel": 100, "engineType": "CE"}, {"name": "GUM  8174", "vin": "WMEEJ3BA4FK800874", "coordinates": [-74.00799, 40.63451, 0], "smartPhoneRequired": false, "interior": "GOOD", "exterior": "GOOD", "address": "864 60th St, Brooklyn, NY 11220, USA", "fuel": 100, "engineType": "CE"}, {"name": "GTR 8212", "vin": "WMEEJ3BA9FK798250", "coordinates": [-74.03247, 40.63261, 0], "smartPhoneRequired": false, "interior": "GOOD", "exterior": "GOOD", "address": "119 Bay Ridge Pkwy, Brooklyn, NY 11230, USA", "fuel": 78, "engineType": "CE"}, {"name": "GTS3694", "vin": "WMEEJ3BA7FK798473", "coordinates": [-73.94693, 40.69338, 0], "smartPhoneRequired": false, "interior": "GOOD", "exterior": "GOOD", "address": "113 Hart St, Brooklyn, NY 11206, USA", "fuel": 39, "engineType": "CE"}, {"name": "GTS3708", "vin": "WMEEJ3BA7FK799106", "coordinates": [-73.93291, 40.68526, 0], "smartPhoneRequired": false, "interior": "GOOD", "exterior": "GOOD", "address": "633 Jefferson Ave, Brooklyn, NY 11221, USA", "fuel": 39, "engineType": "CE"}, {"name": "GUM  8130", "vin": "WMEEJ3BA4FK800941", "coordinates": [-73.94708, 40.6795, 0], "smartPhoneRequired": false, "interior": "GOOD", "exterior": "GOOD", "address": "194 Herkimer St, Brooklyn, NY 11216, USA", "fuel": 54, "engineType": "CE"}, {"name": "HAR 7924", "vin": "WMEEJ3BA0EK772070", "coordinates": [-73.96647, 40.68187, 0], "smartPhoneRequired": false, "interior": "GOOD", "exterior": "GOOD", "address": "541 Clinton Ave, Brooklyn, NY 11238, USA", "fuel": 33, "engineType": "CE"}, {"name": "GTS3689", "vin": "WMEEJ3BA1FK798467", "coordinates": [-73.90677, 40.74705, 0], "smartPhoneRequired": false, "interior": "GOOD", "exterior": "GOOD", "address": "39-38-39-40 57th St, Woodside, NY 11377, USA", "fuel": 60, "engineType": "CE"}, {"name": "GSW 7828", "vin": "WMEEJ3BA5FK795183", "coordinates": [-74.006, 40.60747, 0], "smartPhoneRequired": false, "interior": "GOOD", "exterior": "GOOD", "address": "8655 17th Ave, Brooklyn, NY 11214, USA", "fuel": 87, "engineType": "CE"}, {"name": "GTR 8217", "vin": "WMEEJ3BAXFK797365", "coordinates": [-74.00884, 40.64789, 0], "smartPhoneRequired": false, "interior": "GOOD", "exterior": "GOOD", "address": "455 46th St, Brooklyn, NY 11220, USA", "fuel": 100, "engineType": "CE"}, {"name": "GTP 8989", "vin": "WMEEJ3BA8FK797350", "coordinates": [-73.96138, 40.72013, 0], "smartPhoneRequired": false, "interior": "GOOD", "exterior": "GOOD", "address": "61-63 N 7th St, Brooklyn, NY 11249, USA", "fuel": 63, "engineType": "CE"}, {"name": "GZT 7900", "vin": "WMEEJ3BA5FK798374", "coordinates": [-73.90784, 40.75776, 0], "smartPhoneRequired": false, "interior": "GOOD", "exterior": "GOOD", "address": "30-80-30-98 Hobart St, Woodside, NY 11377, USA", "fuel": 57, "engineType": "CE"}, {"name": "HAR 7919", "vin": "WMEEJ3BA1EK770490", "coordinates": [-73.97786, 40.64876, 0], "smartPhoneRequired": false, "interior": "GOOD", "exterior": "GOOD", "address": "2911 Fort Hamilton Pkwy, Brooklyn, NY 11218, USA", "fuel": 27, "engineType": "CE"}, {"name": "GSW 7869", "vin": "WMEEJ3BA4FK796406", "coordinates": [-74.01678, 40.6204, 0], "smartPhoneRequired": false, "interior": "GOOD", "exterior": "GOOD", "address": "1030 81 St, Brooklyn, NY 11228, USA", "fuel": 42, "engineType": "CE"}, {"name": "GSW 7856", "vin": "WMEEJ3BA5FK796110", "coordinates": [-73.93759, 40.69224, 0], "smartPhoneRequired": false, "interior": "GOOD", "exterior": "GOOD", "address": "417-457 Kosciuszko St, Brooklyn, NY 11221, USA", "fuel": 48, "engineType": "CE"}, {"name": "GUM  8125", "vin": "WMEEJ3BA1FK798811", "coordinates": [-73.96538, 40.68558, 0], "smartPhoneRequired": false, "interior": "GOOD", "exterior": "GOOD", "address": "412-460 Washington Ave, Brooklyn, NY 11238, USA", "fuel": 30, "engineType": "CE"}, {"name": "GTS3776", "vin": "WMEEJ3BA3FK798311", "coordinates": [-73.97944, 40.70112, 0], "smartPhoneRequired": false, "interior": "GOOD", "exterior": "GOOD", "address": "Morris Avenue,, 11251", "fuel": 51, "engineType": "CE"}, {"name": "GVK  7094", "vin": "WMEEJ3BA8FK800196", "coordinates": [-73.97583, 40.67791, 0], "smartPhoneRequired": false, "interior": "GOOD", "exterior": "GOOD", "address": "78-80 Ed Rogowsky Way, Brooklyn, NY 11217, USA", "fuel": 39, "engineType": "CE"}, {"name": "GTR 8250", "vin": "WMEEJ3BA5FK797774", "coordinates": [-73.91602, 40.75004, 0], "smartPhoneRequired": false, "interior": "GOOD", "exterior": "GOOD", "address": "47-07 Barnett Ave, Long Island City, NY 11104, USA", "fuel": 100, "engineType": "CE"}, {"name": "GTR 8259", "vin": "WMEEJ3BA7FK798215", "coordinates": [-74.04071, 40.62505, 0], "smartPhoneRequired": false, "interior": "GOOD", "exterior": "GOOD", "address": "8600-8798 Shore Rd, Brooklyn, NY 11209, USA", "fuel": 90, "engineType": "CE"}, {"name": "GTS3749", "vin": "WMEEJ3BAXFK799178", "coordinates": [-73.948, 40.75572, 0], "smartPhoneRequired": false, "interior": "GOOD", "exterior": "GOOD", "address": "41-16 Vernon Blvd, Long Island City, NY 11101, USA", "fuel": 66, "engineType": "CE"}, {"name": "HAR 7946", "vin": "WMEEJ3BA6EK774955", "coordinates": [-73.90716, 40.76972, 0], "smartPhoneRequired": false, "interior": "GOOD", "exterior": "GOOD", "address": "23-10-23-12 42nd St, Astoria, NY 11105, USA", "fuel": 60, "engineType": "CE"}, {"name": "GTS3646", "vin": "WMEEJ3BA0FK798962", "coordinates": [-73.94879, 40.68942, 0], "smartPhoneRequired": false, "interior": "GOOD", "exterior": "GOOD", "address": "396 Clifton Pl, Brooklyn, NY 11216, USA", "fuel": 30, "engineType": "CE"}, {"name": "GTS3732", "vin": "WMEEJ3BA1FK799182", "coordinates": [-73.99475, 40.66004, 0], "smartPhoneRequired": false, "interior": "GOOD", "exterior": "GOOD", "address": "725-739 5th Ave, Brooklyn, NY 11215, USA", "fuel": 81, "engineType": "CE"}, {"name": "HAR 7943", "vin": "WMEEJ3BA9EK772584", "coordinates": [-73.90716, 40.68438, 0], "smartPhoneRequired": false, "interior": "GOOD", "exterior": "GOOD", "address": "80-82 Pilling St, Brooklyn, NY 11207, USA", "fuel": 100, "engineType": "CE"}, {"name": "GUM  8123", "vin": "WMEEJ3BA6FK800567", "coordinates": [-73.91465, 40.67855, 0], "smartPhoneRequired": false, "interior": "GOOD", "exterior": "GOOD", "address": "1999 Fulton St, Brooklyn, NY 11233, USA", "fuel": 21, "engineType": "CE"}, {"name": "GTR 8208", "vin": "WMEEJ3BAXFK797673", "coordinates": [-73.95084, 40.68247, 0], "smartPhoneRequired": false, "interior": "GOOD", "exterior": "GOOD", "address": "129 Hancock St, Brooklyn, NY 11216, USA", "fuel": 57, "engineType": "CE"}, {"name": "GTS3704", "vin": "WMEEJ3BA7FK798361", "coordinates": [-73.93915, 40.69876, 0], "smartPhoneRequired": false, "interior": "GOOD", "exterior": "GOOD", "address": "896 Park Ave, Brooklyn, NY 11206, USA", "fuel": 60, "engineType": "CE"}, {"name": "GTP 8938", "vin": "WMEEJ3BA6FK795841", "coordinates": [-73.93488, 40.75906, 0], "smartPhoneRequired": false, "interior": "GOOD", "exterior": "GOOD", "address": "23-02 36th Ave, Long Island City, NY 11106, USA", "fuel": 57, "engineType": "CE"}, {"name": "GTS3712", "vin": "WMEEJ3BAXFK799102", "coordinates": [-73.94041, 40.69197, 0], "smartPhoneRequired": false, "interior": "GOOD", "exterior": "GOOD", "address": "361 Kosciuszko St, Brooklyn, NY 11221, USA", "fuel": 66, "engineType": "CE"}, {"name": "HAL 2377", "vin": "WMEEJ3BA5FK797631", "coordinates": [-73.91736, 40.74008, 0], "smartPhoneRequired": false, "interior": "GOOD", "exterior": "GOOD", "address": "47-31 48th St, Flushing, NY 11377, USA", "fuel": 78, "engineType": "CE"}, {"name": "GXV 1452", "vin": "WMEEJ3BA5FK797550", "coordinates": [-73.89931, 40.74211, 0], "smartPhoneRequired": false, "interior": "GOOD", "exterior": "GOOD", "address": "42-48-42-54 65th Pl, Woodside, NY 11377, USA", "fuel": 51, "engineType": "CE"}, {"name": "GTR 8191", "vin": "WMEEJ3BA7FK797002", "coordinates": [-73.96178, 40.67956, 0], "smartPhoneRequired": false, "interior": "GOOD", "exterior": "GOOD", "address": "538-562 Grand Ave, Brooklyn, NY 11238, USA", "fuel": 96, "engineType": "CE"}, {"name": "GTS3650", "vin": "WMEEJ3BA2FK798364", "coordinates": [-73.90728, 40.69627, 0], "smartPhoneRequired": false, "interior": "GOOD", "exterior": "GOOD", "address": "1427 Hancock St, Brooklyn, NY 11237, USA", "fuel": 93, "engineType": "CE"}, {"name": "HAR 7950", "vin": "WMEEJ3BA3EK768451", "coordinates": [-73.94071, 40.67382, 0], "smartPhoneRequired": false, "interior": "GOOD", "exterior": "GOOD", "address": "1077 Prospect Pl, Brooklyn, NY 11213, USA", "fuel": 60, "engineType": "CE"}, {"name": "GTP 8951", "vin": "WMEEJ3BA4FK796969", "coordinates": [-73.99342, 40.66147, 0], "smartPhoneRequired": false, "interior": "GOOD", "exterior": "GOOD", "address": "690 5th Ave, Brooklyn, NY 11215, USA", "fuel": 100, "engineType": "CE"}, {"name": "GTR 8268", "vin": "WMEEJ3BA7FK798649", "coordinates": [-73.93939, 40.72206, 0], "smartPhoneRequired": false, "interior": "GOOD", "exterior": "GOOD", "address": "55 Lombardy St, Brooklyn, NY 11222, USA", "fuel": 36, "engineType": "CE"}, {"name": "HAR 7925", "vin": "WMEEJ3BA9EK770575", "coordinates": [-73.89164, 40.76945, 0], "smartPhoneRequired": false, "interior": "GOOD", "exterior": "GOOD", "address": "21-39 78th St, East Elmhurst, NY 11370, USA", "fuel": 100, "engineType": "CE"}, {"name": "HAR 7931", "vin": "WMEEJ3BA8EK775427", "coordinates": [-73.9341, 40.70795, 0], "smartPhoneRequired": false, "interior": "GOOD", "exterior": "GOOD", "address": "132 Bogart St, Brooklyn, NY 11206, USA", "fuel": 84, "engineType": "CE"}, {"name": "HAR 7909", "vin": "WMEEJ3BA6EK764006", "coordinates": [-74.01371, 40.63711, 0], "smartPhoneRequired": false, "interior": "GOOD", "exterior": "GOOD", "address": "629 61st St, Brooklyn, NY 11220, USA", "fuel": 48, "engineType": "CE"}, {"name": "GSW 7842", "vin": "WMEEJ3BA4FK796342", "coordinates": [-73.98908, 40.60554, 0], "smartPhoneRequired": false, "interior": "GOOD", "exterior": "GOOD", "address": "2223 79th St, Brooklyn, NY 11214, USA", "fuel": 100, "engineType": "CE"}, {"name": "GTP 8936", "vin": "WMEEJ3BA9FK796966", "coordinates": [-73.95478, 40.69273, 0], "smartPhoneRequired": false, "interior": "GOOD", "exterior": "GOOD", "address": "179 Spencer St, Brooklyn, NY 11205, USA", "fuel": 60, "engineType": "CE"}, {"name": "GTP 9040", "vin": "WMEEJ3BA1FK798274", "coordinates": [-73.92917, 40.70023, 0], "smartPhoneRequired": false, "interior": "GOOD", "exterior": "GOOD", "address": "143 Troutman St, Brooklyn, NY 11206, USA", "fuel": 100, "engineType": "CE"}, {"name": "GTR 8277", "vin": "WMEEJ3BA8FK798451", "coordinates": [-73.9885, 40.66285, 0], "smartPhoneRequired": false, "interior": "GOOD", "exterior": "GOOD", "address": "278-304 Prospect Ave, Brooklyn, NY 11215, USA", "fuel": 87, "engineType": "CE"}, {"name": "GTP 8962", "vin": "WMEEJ3BA6FK797122", "coordinates": [-73.97437, 40.64339, 0], "smartPhoneRequired": false, "interior": "GOOD", "exterior": "GOOD", "address": "250 Ocean Pkwy, Brooklyn, NY 11218, USA", "fuel": 54, "engineType": "CE"}, {"name": "GSW 7829", "vin": "WMEEJ3BA6FK795631", "coordinates": [-73.9596, 40.63899, 0], "smartPhoneRequired": false, "interior": "GOOD", "exterior": "GOOD", "address": "1908 Ditmas Ave, Brooklyn, NY 11226, USA", "fuel": 45, "engineType": "CE"}, {"name": "GTP 9000", "vin": "WMEEJ3BA2FK797098", "coordinates": [-73.9725, 40.60157, 0], "smartPhoneRequired": false, "interior": "GOOD", "exterior": "GOOD", "address": "2083-2099 McDonald Ave, Brooklyn, NY 11223, USA", "fuel": 100, "engineType": "CE"}, {"name": "GTP 8880", "vin": "WMEEJ3BAXFK794630", "coordinates": [-74.00231, 40.57321, 0], "smartPhoneRequired": false, "interior": "GOOD", "exterior": "GOOD", "address": "3616-3698 Surf Ave, Brooklyn, NY 11224, USA", "fuel": 36, "engineType": "CE"}, {"name": "GTP 8894", "vin": "WMEEJ3BA2FK795576", "coordinates": [-73.99215, 40.59095, 0], "smartPhoneRequired": false, "interior": "GOOD", "exterior": "GOOD", "address": "303-349 Bay 41st St, Brooklyn, NY 11214, USA", "fuel": 75, "engineType": "CE"}, {"name": "HAR 7911", "vin": "WMEEJ3BA5EK772274", "coordinates": [-74.01263, 40.6474, 0], "smartPhoneRequired": false, "interior": "GOOD", "exterior": "GOOD", "address": "356-358 49th St, Brooklyn, NY 11220, USA", "fuel": 69, "engineType": "CE"}, {"name": "GSW 7825", "vin": "WMEEJ3BA0FK797844", "coordinates": [-73.93046, 40.68965, 0], "smartPhoneRequired": false, "interior": "GOOD", "exterior": "GOOD", "address": "118 Malcolm X Blvd, Brooklyn, NY 11221, USA", "fuel": 60, "engineType": "CE"}, {"name": "GVK  7002", "vin": "WMEEJ3BA7FK800013", "coordinates": [-74.02015, 40.6206, 0], "smartPhoneRequired": false, "interior": "GOOD", "exterior": "GOOD", "address": "900-918 83rd St, Brooklyn, NY 11228, USA", "fuel": 51, "engineType": "CE"}, {"name": "GTS3730", "vin": "WMEEJ3BA1FK798484", "coordinates": [-73.94688, 40.70984, 0], "smartPhoneRequired": false, "interior": "GOOD", "exterior": "GOOD", "address": "158-172 Leonard St, Brooklyn, NY 11206, USA", "fuel": 84, "engineType": "CE"}, {"name": "HAR 7910", "vin": "WMEEJ3BA4EK771374", "coordinates": [-73.96859, 40.67949, 0], "smartPhoneRequired": false, "interior": "GOOD", "exterior": "GOOD", "address": "626A Bergen St, Brooklyn, NY 11238, USA", "fuel": 54, "engineType": "CE"}, {"name": "GSW 7831", "vin": "WMEEJ3BA8FK795128", "coordinates": [-73.97359, 40.67076, 0], "smartPhoneRequired": false, "interior": "GOOD", "exterior": "GOOD", "address": "303 Garfield Pl, Brooklyn, NY 11215, USA", "fuel": 30, "engineType": "CE"}, {"name": "GZT 7901", "vin": "WMEEJ3BA0FK800225", "coordinates": [-73.96175, 40.70583, 0], "smartPhoneRequired": false, "interior": "GOOD", "exterior": "GOOD", "address": "157-175 Wilson St, Brooklyn, NY 11211, USA", "fuel": 100, "engineType": "CE"}, {"name": "GSW 7851", "vin": "WMEEJ3BA3FK796106", "coordinates": [-73.97895, 40.7015, 0], "smartPhoneRequired": false, "interior": "GOOD", "exterior": "GOOD", "address": "Morris Avenue,, 11251", "fuel": 48, "engineType": "CE"}, {"name": "HAR 7929", "vin": "WMEEJ3BAXEK764252", "coordinates": [-73.97163, 40.57586, 0], "smartPhoneRequired": false, "interior": "GOOD", "exterior": "GOOD", "address": "302 Sea Breeze Ave, Brooklyn, NY 11224, USA", "fuel": 100, "engineType": "CE"}, {"name": "GSW 7783", "vin": "WMEEJ3BAXFK795745", "coordinates": [-73.95868, 40.67059, 0], "smartPhoneRequired": false, "interior": "GOOD", "exterior": "GOOD", "address": "302 Eastern Pkwy, Brooklyn, NY 11225, USA", "fuel": 60, "engineType": "CE"}, {"name": "GTS3767", "vin": "WMEEJ3BA6FK798755", "coordinates": [-73.95693, 40.61163, 0], "smartPhoneRequired": false, "interior": "GOOD", "exterior": "GOOD", "address": "1574 E 17th St, Brooklyn, NY 11230, USA", "fuel": 90, "engineType": "CE"}, {"name": "GSW 7872", "vin": "WMEEJ3BAXFK797155", "coordinates": [-73.89051, 40.76829, 0], "smartPhoneRequired": false, "interior": "GOOD", "exterior": "GOOD", "address": "22-1-22-15 79th St, East Elmhurst, NY 11370, USA", "fuel": 100, "engineType": "CE"}, {"name": "GTR 8189", "vin": "WMEEJ3BA6FK798075", "coordinates": [-74.01191, 40.62585, 0], "smartPhoneRequired": false, "interior": "GOOD", "exterior": "GOOD", "address": "1013 72nd St, Brooklyn, NY 11228, USA", "fuel": 100, "engineType": "CE"}, {"name": "GXV 1453", "vin": "WMEEJ3BA2FK794590", "coordinates": [-73.98149, 40.6618, 0], "smartPhoneRequired": false, "interior": "GOOD", "exterior": "GOOD", "address": "427 15th St, Brooklyn, NY 11215, USA", "fuel": 78, "engineType": "CE"}, {"name": "GTR 8275", "vin": "WMEEJ3BA8FK797896", "coordinates": [-73.94287, 40.69167, 0], "smartPhoneRequired": false, "interior": "GOOD", "exterior": "GOOD", "address": "297-307 Kosciuszko St, Brooklyn, NY 11221, USA", "fuel": 60, "engineType": "CE"}, {"name": "GTC 4854", "vin": "WMEEJ3BA9FK797017", "coordinates": [-73.93582, 40.68637, 0], "smartPhoneRequired": false, "interior": "GOOD", "exterior": "GOOD", "address": "560 Madison St, Brooklyn, NY 11221, USA", "fuel": 57, "engineType": "CE"}, {"name": "HAR 7936", "vin": "WMEEJ3BA6EK764653", "coordinates": [-73.94339, 40.72182, 0], "smartPhoneRequired": false, "interior": "GOOD", "exterior": "GOOD", "address": "167-171 Engert Ave, Brooklyn, NY 11222, USA", "fuel": 33, "engineType": "CE"}, {"name": "GTP 9026", "vin": "WMEEJ3BA4FK797491", "coordinates": [-73.9613, 40.62451, 0], "smartPhoneRequired": false, "interior": "GOOD", "exterior": "GOOD", "address": "1026 E 15th St, Brooklyn, NY 11230, USA", "fuel": 60, "engineType": "CE"}, {"name": "GTR\u00a08213", "vin": "WMEEJ3BA9FK798264", "coordinates": [-74.02073, 40.61916, 0], "smartPhoneRequired": false, "interior": "GOOD", "exterior": "GOOD", "address": "900-912 85th St, Brooklyn, NY 11228, USA", "fuel": 100, "engineType": "CE"}, {"name": "GSW 7723", "vin": "WMEEJ3BA2FK795710", "coordinates": [-73.90856, 40.69725, 0], "smartPhoneRequired": false, "interior": "GOOD", "exterior": "GOOD", "address": "402 Cornelia St, Brooklyn, NY 11237, USA", "fuel": 27, "engineType": "CE"}, {"name": "GTP 8983", "vin": "WMEEJ3BA1FK796993", "coordinates": [-73.96733, 40.70784, 0], "smartPhoneRequired": false, "interior": "GOOD", "exterior": "GOOD", "address": "481 Wythe Ave, Brooklyn, NY 11249, USA", "fuel": 93, "engineType": "CE"}, {"name": "GSW 7728", "vin": "WMEEJ3BA0FK796354", "coordinates": [-73.93744, 40.68253, 0], "smartPhoneRequired": false, "interior": "GOOD", "exterior": "GOOD", "address": "351 Macon St, Brooklyn, NY 11233, USA", "fuel": 69, "engineType": "CE"}, {"name": "GSW 7784", "vin": "WMEEJ3BAXFK795891", "coordinates": [-73.95979, 40.61036, 0], "smartPhoneRequired": false, "interior": "GOOD", "exterior": "GOOD", "address": "1319 Avenue P, Brooklyn, NY 11229, USA", "fuel": 39, "engineType": "CE"}, {"name": "GUM  8127", "vin": "WMEEJ3BA2FK800856", "coordinates": [-73.99898, 40.68683, 0], "smartPhoneRequired": false, "interior": "GOOD", "exterior": "GOOD", "address": "1-11 Cheever Pl, Brooklyn, NY 11231, USA", "fuel": 54, "engineType": "CE"}, {"name": "HAR 7953", "vin": "WMEEJ3BA0EK767158", "coordinates": [-73.91415, 40.68678, 0], "smartPhoneRequired": false, "interior": "GOOD", "exterior": "GOOD", "address": "1024 Halsey St, Brooklyn, NY 11207, USA", "fuel": 100, "engineType": "CE"}, {"name": "GUM  8132", "vin": "WMEEJ3BA5FK800592", "coordinates": [-73.93841, 40.68093, 0], "smartPhoneRequired": false, "interior": "GOOD", "exterior": "GOOD", "address": "137 Decatur St, Brooklyn, NY 11216, USA", "fuel": 54, "engineType": "CE"}, {"name": "GTR 8255", "vin": "WMEEJ3BA7FK797422", "coordinates": [-73.95517, 40.74427, 0], "smartPhoneRequired": false, "interior": "GOOD", "exterior": "GOOD", "address": "5-0-5-68 48th Ave, Long Island City, NY 11101, USA", "fuel": 100, "engineType": "CE"}, {"name": "HAR 7940", "vin": "WMEEJ3BA3EK765176", "coordinates": [-73.91704, 40.70639, 0], "smartPhoneRequired": false, "interior": "GOOD", "exterior": "GOOD", "address": "1726 Dekalb Ave, Brooklyn, NY 11237, USA", "fuel": 66, "engineType": "CE"}, {"name": "GTP 8961", "vin": "WMEEJ3BA6FK797038", "coordinates": [-73.96434, 40.69478, 0], "smartPhoneRequired": false, "interior": "GOOD", "exterior": "GOOD", "address": "94 Grand Ave, Brooklyn, NY 11205, USA", "fuel": 72, "engineType": "CE"}, {"name": "GTP 8882", "vin": "WMEEJ3BA4FK795403", "coordinates": [-73.9671, 40.70702, 0], "smartPhoneRequired": false, "interior": "GOOD", "exterior": "GOOD", "address": "42-50 Division Ave, Brooklyn, NY 11249, USA", "fuel": 81, "engineType": "CE"}, {"name": "GTS3661", "vin": "WMEEJ3BA0FK798850", "coordinates": [-73.94925, 40.74696, 0], "smartPhoneRequired": false, "interior": "GOOD", "exterior": "GOOD", "address": "11-22 45th Rd, Long Island City, NY 11101, USA", "fuel": 66, "engineType": "CE"}, {"name": "GSW 7839", "vin": "WMEEJ3BA5FK797158", "coordinates": [-73.99016, 40.66038, 0], "smartPhoneRequired": false, "interior": "GOOD", "exterior": "GOOD", "address": "309 20th St, Brooklyn, NY 11215, USA", "fuel": 63, "engineType": "CE"}, {"name": "GSW 7801", "vin": "WMEEJ3BA7FK796206", "coordinates": [-73.94458, 40.70222, 0], "smartPhoneRequired": false, "interior": "GOOD", "exterior": "GOOD", "address": "666 Broadway, Brooklyn, NY 11206, USA", "fuel": 72, "engineType": "CE"}, {"name": "HAR 7957", "vin": "WMEEJ3BAXEK767099", "coordinates": [-74.00404, 40.6821, 0], "smartPhoneRequired": false, "interior": "GOOD", "exterior": "GOOD", "address": "295 Columbia St, Brooklyn, NY 11231, USA", "fuel": 54, "engineType": "CE"}, {"name": "GTR 8184", "vin": "WMEEJ3BA3FK798700", "coordinates": [-74.01073, 40.63897, 0], "smartPhoneRequired": false, "interior": "GOOD", "exterior": "GOOD", "address": "658-660 57th St, Brooklyn, NY 11220, USA", "fuel": 51, "engineType": "CE"}, {"name": "GTR 8276", "vin": "WMEEJ3BA8FK798224", "coordinates": [-73.95217, 40.67183, 0], "smartPhoneRequired": false, "interior": "GOOD", "exterior": "GOOD", "address": "783 St Johns Pl, Brooklyn, NY 11216, USA", "fuel": 51, "engineType": "CE"}, {"name": "GSW 7765", "vin": "WMEEJ3BA9FK795073", "coordinates": [-74.02336, 40.64015, 0], "smartPhoneRequired": false, "interior": "GOOD", "exterior": "GOOD", "address": "250 64th St, Brooklyn, NY 11220, USA", "fuel": 100, "engineType": "CE"}, {"name": "GZT 7514", "vin": "WMEEJ3BA9FK796403", "coordinates": [-73.98407, 40.61644, 0], "smartPhoneRequired": false, "interior": "GOOD", "exterior": "GOOD", "address": "2037 64th St, Brooklyn, NY 11204, USA", "fuel": 57, "engineType": "CE"}, {"name": "GTP 8900", "vin": "WMEEJ3BA1FK795178", "coordinates": [-73.93021, 40.66782, 0], "smartPhoneRequired": false, "interior": "GOOD", "exterior": "GOOD", "address": "1783 Union St, Brooklyn, NY 11213, USA", "fuel": 69, "engineType": "CE"}, {"name": "HAR 7915", "vin": "WMEEJ3BAXEK756815", "coordinates": [-73.94452, 40.69222, 0], "smartPhoneRequired": false, "interior": "GOOD", "exterior": "GOOD", "address": "793 Dekalb Ave, Brooklyn, NY 11221, USA", "fuel": 45, "engineType": "CE"}, {"name": "GTP 8992", "vin": "WMEEJ3BA4FK797104", "coordinates": [-73.95899, 40.62551, 0], "smartPhoneRequired": false, "interior": "GOOD", "exterior": "GOOD", "address": "1715 Avenue J, Brooklyn, NY 11230, USA", "fuel": 69, "engineType": "CE"}, {"name": "GTR 8262", "vin": "WMEEJ3BA7FK798425", "coordinates": [-73.95705, 40.66857, 0], "smartPhoneRequired": false, "interior": "GOOD", "exterior": "GOOD", "address": "1036-1042 President St, Brooklyn, NY 11225, USA", "fuel": 33, "engineType": "CE"}, {"name": "GTR 8261", "vin": "WMEEJ3BA7FK798344", "coordinates": [-73.95994, 40.66923, 0], "smartPhoneRequired": false, "interior": "GOOD", "exterior": "GOOD", "address": "991 President St, Brooklyn, NY 11225, USA", "fuel": 90, "engineType": "CE"}, {"name": "GTS3688", "vin": "WMEEJ3BA1FK798470", "coordinates": [-73.96764, 40.63808, 0], "smartPhoneRequired": false, "interior": "GOOD", "exterior": "GOOD", "address": "428 Stratford Rd, Brooklyn, NY 11218, USA", "fuel": 93, "engineType": "CE"}, {"name": "HAR 7961", "vin": "WMEEJ3BAXEK764669", "coordinates": [-73.94075, 40.70244, 0], "smartPhoneRequired": false, "interior": "GOOD", "exterior": "GOOD", "address": "49 Humboldt St, Brooklyn, NY 11206, USA", "fuel": 63, "engineType": "CE"}, {"name": "GTR 8260", "vin": "WMEEJ3BA7FK798246", "coordinates": [-73.89914, 40.74283, 0], "smartPhoneRequired": false, "interior": "GOOD", "exterior": "GOOD", "address": "42-15-42-21 65th Pl, Woodside, NY 11377, USA", "fuel": 96, "engineType": "CE"}, {"name": "GTP 8954", "vin": "WMEEJ3BA0FK795138", "coordinates": [-73.9945, 40.68623, 0], "smartPhoneRequired": false, "interior": "GOOD", "exterior": "GOOD", "address": "254 Baltic St, Brooklyn, NY 11201, USA", "fuel": 93, "engineType": "CE"}, {"name": "GTS3771", "vin": "WMEEJ3BA9FK798636", "coordinates": [-73.97755, 40.67088, 0], "smartPhoneRequired": false, "interior": "GOOD", "exterior": "GOOD", "address": "507-509 2nd St, Brooklyn, NY 11215, USA", "fuel": 51, "engineType": "CE"}, {"name": "GSW 7821", "vin": "WMEEJ3BAXFK797396", "coordinates": [-74.00412, 40.68245, 0], "smartPhoneRequired": false, "interior": "GOOD", "exterior": "GOOD", "address": "71 Summit St, Brooklyn, NY 11231, USA", "fuel": 57, "engineType": "CE"}, {"name": "GVK  7091", "vin": "WMEEJ3BA7FK800173", "coordinates": [-73.99989, 40.6345, 0], "smartPhoneRequired": false, "interior": "GOOD", "exterior": "GOOD", "address": "5420 11th Ave, Brooklyn, NY 11219, USA", "fuel": 100, "engineType": "CE"}, {"name": "GSW 8877", "vin": "WMEEJ3BA3FK797935", "coordinates": [-73.98197, 40.62985, 0], "smartPhoneRequired": false, "interior": "GOOD", "exterior": "GOOD", "address": "1715 48th St, Brooklyn, NY 11204, USA", "fuel": 78, "engineType": "CE"}, {"name": "GUM  8166", "vin": "WMEEJ3BA0FK800144", "coordinates": [-73.9886, 40.5735, 0], "smartPhoneRequired": false, "interior": "GOOD", "exterior": "GOOD", "address": "3026 W 22nd St, Brooklyn, NY 11224, USA", "fuel": 69, "engineType": "CE"}, {"name": "GSW 7819", "vin": "WMEEJ3BA5FK796978", "coordinates": [-73.98621, 40.62233, 0], "smartPhoneRequired": false, "interior": "GOOD", "exterior": "GOOD", "address": "1822 59th St, Brooklyn, NY 11204, USA", "fuel": 39, "engineType": "CE"}, {"name": "GSW 7763", "vin": "WMEEJ3BA7FK796125", "coordinates": [-73.94859, 40.6955, 0], "smartPhoneRequired": false, "interior": "GOOD", "exterior": "GOOD", "address": "847 Myrtle Ave, Brooklyn, NY 11206, USA", "fuel": 69, "engineType": "CE"}, {"name": "GTP 8892", "vin": "WMEEJ3BA1FK795133", "coordinates": [-73.9535, 40.70777, 0], "smartPhoneRequired": false, "interior": "GOOD", "exterior": "GOOD", "address": "330 Hooper St, Brooklyn, NY 11211, USA", "fuel": 51, "engineType": "CE"}, {"name": "GTS3718", "vin": "WMEEJ3BA5FK799055", "coordinates": [-74.03224, 40.61166, 0], "smartPhoneRequired": false, "interior": "GOOD", "exterior": "GOOD", "address": "9956 Fort Hamilton Pkwy, Brooklyn, NY 11209, USA", "fuel": 45, "engineType": "CE"}, {"name": "HAR 7903", "vin": "WMEEJ3BA5EK768340", "coordinates": [-73.94816, 40.66885, 0], "smartPhoneRequired": false, "interior": "GOOD", "exterior": "GOOD", "address": "1325 Union St, Brooklyn, NY 11225, USA", "fuel": 78, "engineType": "CE"}, {"name": "GTP 9025", "vin": "WMEEJ3BA4FK797443", "coordinates": [-73.93964, 40.68226, 0], "smartPhoneRequired": false, "interior": "GOOD", "exterior": "GOOD", "address": "295 Macon St, Brooklyn, NY 11216, USA", "fuel": 45, "engineType": "CE"}, {"name": "GSW 7818", "vin": "WMEEJ3BA2FK795836", "coordinates": [-73.99873, 40.68401, 0], "smartPhoneRequired": false, "interior": "GOOD", "exterior": "GOOD", "address": "219 Sackett St, Brooklyn, NY 11231, USA", "fuel": 100, "engineType": "CE"}, {"name": "GTR 8239", "vin": "WMEEJ3BA5FK797290", "coordinates": [-73.93052, 40.68558, 0], "smartPhoneRequired": false, "interior": "GOOD", "exterior": "GOOD", "address": "693 Jefferson Ave, Brooklyn, NY 11221, USA", "fuel": 100, "engineType": "CE"}, {"name": "GSW 7785", "vin": "WMEEJ3BA2FK795433", "coordinates": [-74.01865, 40.64833, 0], "smartPhoneRequired": false, "interior": "GOOD", "exterior": "GOOD", "address": "149-199 52nd St, Brooklyn, NY 11220, USA", "fuel": 30, "engineType": "CE"}, {"name": "GTS3662", "vin": "WMEEJ3BA0FK799173", "coordinates": [-73.94562, 40.69194, 0], "smartPhoneRequired": false, "interior": "GOOD", "exterior": "GOOD", "address": "209 Tompkins Ave, Brooklyn, NY 11216, USA", "fuel": 72, "engineType": "CE"}, {"name": "GSW 7859", "vin": "WMEEJ3BA9FK795378", "coordinates": [-73.96037, 40.62288, 0], "smartPhoneRequired": false, "interior": "GOOD", "exterior": "GOOD", "address": "1551-1599 Avenue K, Brooklyn, NY 11230, USA", "fuel": 39, "engineType": "CE"}, {"name": "GTR 8206", "vin": "WMEEJ3BA9FK798314", "coordinates": [-73.92896, 40.76843, 0], "smartPhoneRequired": false, "interior": "GOOD", "exterior": "GOOD", "address": "30-35-30-55 21st St, Astoria, NY 11102, USA", "fuel": 30, "engineType": "CE"}, {"name": "GTS3703", "vin": "WMEEJ3BA6FK799159", "coordinates": [-73.92569, 40.67024, 0], "smartPhoneRequired": false, "interior": "GOOD", "exterior": "GOOD", "address": "1584 St Johns Pl, Brooklyn, NY 11213, USA", "fuel": 100, "engineType": "CE"}, {"name": "GVK  7093", "vin": "WMEEJ3BA8FK798885", "coordinates": [-73.94948, 40.6971, 0], "smartPhoneRequired": false, "interior": "GOOD", "exterior": "GOOD", "address": "531 Marcy Ave, Brooklyn, NY 11206, USA", "fuel": 36, "engineType": "CE"}, {"name": "GTS3780", "vin": "WMEEJ3BAXFK799066", "coordinates": [-73.93446, 40.66449, 0], "smartPhoneRequired": false, "interior": "GOOD", "exterior": "GOOD", "address": "920 Montgomery St, Brooklyn, NY 11213, USA", "fuel": 87, "engineType": "CE"}, {"name": "HAR 7916", "vin": "WMEEJ3BA8EK766274", "coordinates": [-74.00845, 40.64307, 0], "smartPhoneRequired": false, "interior": "GOOD", "exterior": "GOOD", "address": "605 51st St, Brooklyn, NY 11220, USA", "fuel": 87, "engineType": "CE"}, {"name": "GTR 8270", "vin": "WMEEJ3BA8FK797011", "coordinates": [-74.02339, 40.62171, 0], "smartPhoneRequired": false, "interior": "GOOD", "exterior": "GOOD", "address": "577 84th St, Brooklyn, NY 11209, USA", "fuel": 100, "engineType": "CE"}, {"name": "GTR 8193", "vin": "WMEEJ3BA2FK798588", "coordinates": [-73.89945, 40.74214, 0], "smartPhoneRequired": false, "interior": "GOOD", "exterior": "GOOD", "address": "42-48 65th Pl, Woodside, NY 11377, USA", "fuel": 100, "engineType": "CE"}, {"name": "GTP 8878", "vin": "WMEEJ3BA6FK797170", "coordinates": [-73.99222, 40.66261, 0], "smartPhoneRequired": false, "interior": "GOOD", "exterior": "GOOD", "address": "648 5th Ave, Brooklyn, NY 11215, USA", "fuel": 100, "engineType": "CE"}, {"name": "GTS3729", "vin": "WMEEJ3BA1FK798291", "coordinates": [-73.99807, 40.62113, 0], "smartPhoneRequired": false, "interior": "GOOD", "exterior": "GOOD", "address": "1543 68th St, Brooklyn, NY 11219, USA", "fuel": 100, "engineType": "CE"}, {"name": "GSW 7827", "vin": "WMEEJ3BA2FK794640", "coordinates": [-73.92654, 40.66952, 0], "smartPhoneRequired": false, "interior": "GOOD", "exterior": "GOOD", "address": "1511-1513 Lincoln Pl, Brooklyn, NY 11213, USA", "fuel": 100, "engineType": "CE"}, {"name": "GUM  8172", "vin": "WMEEJ3BA1FK800010", "coordinates": [-74.01333, 40.6786, 0], "smartPhoneRequired": false, "interior": "GOOD", "exterior": "GOOD", "address": "116-126 Sullivan St, Brooklyn, NY 11231, USA", "fuel": 87, "engineType": "CE"}, {"name": "GTR 8215", "vin": "WMEEJ3BAXFK797026", "coordinates": [-73.90689, 40.74676, 0], "smartPhoneRequired": false, "interior": "GOOD", "exterior": "GOOD", "address": "39-48 57th St, Flushing, NY 11377, USA", "fuel": 100, "engineType": "CE"}, {"name": "GTP 8890", "vin": "WMEEJ3BA1FK794600", "coordinates": [-73.95386, 40.6525, 0], "smartPhoneRequired": false, "interior": "GOOD", "exterior": "GOOD", "address": "135-143 Linden Blvd, Brooklyn, NY 11226, USA", "fuel": 60, "engineType": "CE"}, {"name": "GTP 8895", "vin": "WMEEJ3BA3FK794873", "coordinates": [-73.94192, 40.72115, 0], "smartPhoneRequired": false, "interior": "GOOD", "exterior": "GOOD", "address": "55 Monitor St, Brooklyn, NY 11222, USA", "fuel": 63, "engineType": "CE"}, {"name": "GTP 9005", "vin": "WMEEJ3BA5FK797855", "coordinates": [-73.93996, 40.68598, 0], "smartPhoneRequired": false, "interior": "GOOD", "exterior": "GOOD", "address": "421-473 Madison St, Brooklyn, NY 11221, USA", "fuel": 78, "engineType": "CE"}, {"name": "HAR 7976", "vin": "WMEEJ3BA5EK766975", "coordinates": [-74.01344, 40.64622, 0], "smartPhoneRequired": false, "interior": "GOOD", "exterior": "GOOD", "address": "369 51st St, Brooklyn, NY 11220, USA", "fuel": 63, "engineType": "CE"}, {"name": "GTS3782", "vin": "WMEEJ3BA4FK798320", "coordinates": [-73.90915, 40.77839, 0], "smartPhoneRequired": false, "interior": "GOOD", "exterior": "GOOD", "address": "29-6-29-16 21st Ave, Astoria, NY 11105, USA", "fuel": 90, "engineType": "CE"}, {"name": "GTS3663", "vin": "WMEEJ3BA9FK798684", "coordinates": [-73.9247, 40.67843, 0], "smartPhoneRequired": false, "interior": "GOOD", "exterior": "GOOD", "address": "18 Buffalo Ave, Brooklyn, NY 11233, USA", "fuel": 36, "engineType": "CE"}, {"name": "GTP 8896", "vin": "WMEEJ3BA3FK795408", "coordinates": [-73.97357, 40.64801, 0], "smartPhoneRequired": false, "interior": "GOOD", "exterior": "GOOD", "address": "161 E 7th St, Brooklyn, NY 11218, USA", "fuel": 72, "engineType": "CE"}, {"name": "GTS3745", "vin": "WMEEJ3BA9FK799110", "coordinates": [-73.9792, 40.65553, 0], "smartPhoneRequired": false, "interior": "GOOD", "exterior": "GOOD", "address": "609 18th St, Brooklyn, NY 11218, USA", "fuel": 30, "engineType": "CE"}, {"name": "GTP 8950", "vin": "WMEEJ3BA5FK797628", "coordinates": [-73.95375, 40.66823, 0], "smartPhoneRequired": false, "interior": "GOOD", "exterior": "GOOD", "address": "1120 President St, Brooklyn, NY 11225, USA", "fuel": 54, "engineType": "CE"}, {"name": "HAR 7974", "vin": "WMEEJ3BAXEK767264", "coordinates": [-73.9936, 40.66152, 0], "smartPhoneRequired": false, "interior": "GOOD", "exterior": "GOOD", "address": "227 21st St, Brooklyn, NY 11232, USA", "fuel": 78, "engineType": "CE"}, {"name": "GTS3698", "vin": "WMEEJ3BA4FK798415", "coordinates": [-73.94097, 40.70758, 0], "smartPhoneRequired": false, "interior": "GOOD", "exterior": "GOOD", "address": "199-201 Montrose Ave, Brooklyn, NY 11206, USA", "fuel": 100, "engineType": "CE"}, {"name": "GSW 7768", "vin": "WMEEJ3BAXFK796135", "coordinates": [-73.99957, 40.68739, 0], "smartPhoneRequired": false, "interior": "GOOD", "exterior": "GOOD", "address": "449 Hicks St, Brooklyn, NY 11201, USA", "fuel": 60, "engineType": "CE"}, {"name": "GUM  8131", "vin": "WMEEJ3BA5FK800379", "coordinates": [-73.97872, 40.67444, 0], "smartPhoneRequired": false, "interior": "GOOD", "exterior": "GOOD", "address": "230 6th Ave, Brooklyn, NY 11215, USA", "fuel": 42, "engineType": "CE"}, {"name": "GTP 8998", "vin": "WMEEJ3BA1FK797738", "coordinates": [-73.89771, 40.77376, 0], "smartPhoneRequired": false, "interior": "GOOD", "exterior": "GOOD", "address": "46-1 20th Ave, Astoria, NY 11105, USA", "fuel": 100, "engineType": "CE"}, {"name": "GTS3701", "vin": "WMEEJ3BA5FK797970", "coordinates": [-73.9431, 40.6697, 0], "smartPhoneRequired": false, "interior": "GOOD", "exterior": "GOOD", "address": "763 Eastern Parkway Pedestrian Mall, Brooklyn, NY 11213, USA", "fuel": 51, "engineType": "CE"}, {"name": "GTP 8891", "vin": "WMEEJ3BA9FK797664", "coordinates": [-73.92666, 40.7016, 0], "smartPhoneRequired": false, "interior": "GOOD", "exterior": "GOOD", "address": "61 Starr St, Brooklyn, NY 11237, USA", "fuel": 93, "engineType": "CE"}, {"name": "GTS3741", "vin": "WMEEJ3BA4FK798446", "coordinates": [-73.90711, 40.69397, 0], "smartPhoneRequired": false, "interior": "GOOD", "exterior": "GOOD", "address": "1312-1314 Halsey St, Brooklyn, NY 11237, USA", "fuel": 27, "engineType": "CE"}, {"name": "GSW 7848", "vin": "WMEEJ3BA9FK796191", "coordinates": [-73.97319, 40.67521, 0], "smartPhoneRequired": false, "interior": "GOOD", "exterior": "GOOD", "address": "215 Lincoln Pl, Brooklyn, NY 11217, USA", "fuel": 57, "engineType": "CE"}, {"name": "GTC 4855", "vin": "WMEEJ3BA9FK796336", "coordinates": [-73.95966, 40.68245, 0], "smartPhoneRequired": false, "interior": "GOOD", "exterior": "GOOD", "address": "87 Irving Pl, Brooklyn, NY 11238, USA", "fuel": 75, "engineType": "CE"}, {"name": "GTR 8185", "vin": "WMEEJ3BA4FK797569", "coordinates": [-73.89625, 40.7728, 0], "smartPhoneRequired": false, "interior": "GOOD", "exterior": "GOOD", "address": "48-1-48-11 20th Ave, East Elmhurst, NY 11370, USA", "fuel": 100, "engineType": "CE"}, {"name": "HAR 7938", "vin": "WMEEJ3BA1EK764463", "coordinates": [-73.96894, 40.61728, 0], "smartPhoneRequired": false, "interior": "GOOD", "exterior": "GOOD", "address": "1291 Ocean Pkwy, Brooklyn, NY 11230, USA", "fuel": 100, "engineType": "CE"}, {"name": "GSW 7814", "vin": "WMEEJ3BA0FK796502", "coordinates": [-74.00487, 40.59933, 0], "smartPhoneRequired": false, "interior": "GOOD", "exterior": "GOOD", "address": "1946-1998 19th Ln, Brooklyn, NY 11214, USA", "fuel": 81, "engineType": "CE"}, {"name": "GTP 9024", "vin": "WMEEJ3BA4FK797393", "coordinates": [-73.94374, 40.73216, 0], "smartPhoneRequired": false, "interior": "GOOD", "exterior": "GOOD", "address": "332 Monitor St, Brooklyn, NY 11222, USA", "fuel": 100, "engineType": "CE"}, {"name": "GTR 8288", "vin": "WMEEJ3BA4FK796499", "coordinates": [-73.89022, 40.7668, 0], "smartPhoneRequired": false, "interior": "GOOD", "exterior": "GOOD", "address": "22-99 79th St, East Elmhurst, NY 11370, USA", "fuel": 100, "engineType": "CE"}, {"name": "HAR 7906", "vin": "WMEEJ3BA5EK776096", "coordinates": [-73.93911, 40.67981, 0], "smartPhoneRequired": false, "interior": "GOOD", "exterior": "GOOD", "address": "1546 Fulton St, Brooklyn, NY 11216, USA", "fuel": 54, "engineType": "CE"}, {"name": "GTS3731", "vin": "WMEEJ3BA1FK798730", "coordinates": [-73.907, 40.78016, 0], "smartPhoneRequired": false, "interior": "GOOD", "exterior": "GOOD", "address": "29-10-29-14 20th Ave, Astoria, NY 11105, USA", "fuel": 60, "engineType": "CE"}, {"name": "GTR 8289", "vin": "WMEEJ3BA7FK798294", "coordinates": [-73.92475, 40.66866, 0], "smartPhoneRequired": false, "interior": "GOOD", "exterior": "GOOD", "address": "Eastern Parkway Service Road,, 11233", "fuel": 84, "engineType": "CE"}, {"name": "HAR 7949", "vin": "WMEEJ3BA7EK773975", "coordinates": [-73.93398, 40.7048, 0], "smartPhoneRequired": false, "interior": "GOOD", "exterior": "GOOD", "address": "250-260 Moore St, Brooklyn, NY 11206, USA", "fuel": 63, "engineType": "CE"}, {"name": "GTS3702", "vin": "WMEEJ3BA6FK798996", "coordinates": [-73.96953, 40.58009, 0], "smartPhoneRequired": false, "interior": "GOOD", "exterior": "GOOD", "address": "425 Neptune Ave, Brooklyn, NY 11224, USA", "fuel": 30, "engineType": "CE"}, {"name": "GTP 9004", "vin": "WMEEJ3BA3FK798356", "coordinates": [-73.88875, 40.76872, 0], "smartPhoneRequired": false, "interior": "GOOD", "exterior": "GOOD", "address": "22-02 81st St, Flushing, NY 11370, USA", "fuel": 72, "engineType": "CE"}, {"name": "GSW 7860", "vin": "WMEEJ3BA9FK798507", "coordinates": [-73.95255, 40.7427, 0], "smartPhoneRequired": false, "interior": "GOOD", "exterior": "GOOD", "address": "1059-1061 Jackson Ave, Long Island City, NY 11101, USA", "fuel": 42, "engineType": "CE"}, {"name": "HAR 7952", "vin": "WMEEJ3BA8EK767845", "coordinates": [-73.96252, 40.61151, 0], "smartPhoneRequired": false, "interior": "GOOD", "exterior": "GOOD", "address": "1881 Coney Island Ave, Brooklyn, NY 11230, USA", "fuel": 100, "engineType": "CE"}, {"name": "GUM  8122", "vin": "WMEEJ3BA6FK800293", "coordinates": [-73.94976, 40.72216, 0], "smartPhoneRequired": false, "interior": "GOOD", "exterior": "GOOD", "address": "544-554 Manhattan Ave, Brooklyn, NY 11222, USA", "fuel": 93, "engineType": "CE"}, {"name": "GTS3734", "vin": "WMEEJ3BA2FK798476", "coordinates": [-73.93639, 40.69816, 0], "smartPhoneRequired": false, "interior": "GOOD", "exterior": "GOOD", "address": "12 Arion Pl, Brooklyn, NY 11206, USA", "fuel": 78, "engineType": "CE"}, {"name": "HAR 7947", "vin": "WMEEJ3BA9EK767093", "coordinates": [-73.93412, 40.69192, 0], "smartPhoneRequired": false, "interior": "GOOD", "exterior": "GOOD", "address": "955 Lafayette Ave, Brooklyn, NY 11221, USA", "fuel": 93, "engineType": "CE"}, {"name": "GSW 7830", "vin": "WMEEJ3BA7FK795945", "coordinates": [-73.96694, 40.67304, 0], "smartPhoneRequired": false, "interior": "GOOD", "exterior": "GOOD", "address": "241-261 Underhill Ave, Brooklyn, NY 11238, USA", "fuel": 21, "engineType": "CE"}, {"name": "HAR 7933", "vin": "WMEEJ3BA6EK768962", "coordinates": [-73.98601, 40.59099, 0], "smartPhoneRequired": false, "interior": "GOOD", "exterior": "GOOD", "address": "61-73 Bay 46th St, Brooklyn, NY 11214, USA", "fuel": 33, "engineType": "CE"}, {"name": "HAR 7900", "vin": "WMEEJ3BA8EK749118", "coordinates": [-73.98719, 40.63844, 0], "smartPhoneRequired": false, "interior": "GOOD", "exterior": "GOOD", "address": "1329 42nd St, Brooklyn, NY 11219, USA", "fuel": 63, "engineType": "CE"}, {"name": "GUM  8165", "vin": "WMEEJ3BA7FK800254", "coordinates": [-74.00851, 40.64583, 0], "smartPhoneRequired": false, "interior": "GOOD", "exterior": "GOOD", "address": "526 48th St, Brooklyn, NY 11220, USA", "fuel": 54, "engineType": "CE"}, {"name": "GTR 8293", "vin": "WMEEJ3BA6FK797119", "coordinates": [-73.95942, 40.67656, 0], "smartPhoneRequired": false, "interior": "GOOD", "exterior": "GOOD", "address": "713 Classon Ave, Brooklyn, NY 11238, USA", "fuel": 60, "engineType": "CE"}, {"name": "GTP 9011", "vin": "WMEEJ3BA1FK796637", "coordinates": [-73.9277, 40.77688, 0], "smartPhoneRequired": false, "interior": "GOOD", "exterior": "GOOD", "address": "25-40 Shore Blvd, Astoria, NY 11102, USA", "fuel": 100, "engineType": "CE"}, {"name": "GSW 7747", "vin": "WMEEJ3BA2FK797005", "coordinates": [-73.98861, 40.63933, 0], "smartPhoneRequired": false, "interior": "GOOD", "exterior": "GOOD", "address": "1265 42nd St, Brooklyn, NY 11219, USA", "fuel": 36, "engineType": "CE"}, {"name": "HAR 7942", "vin": "WMEEJ3BA4EK765042", "coordinates": [-73.99253, 40.68915, 0], "smartPhoneRequired": false, "interior": "GOOD", "exterior": "GOOD", "address": "199 Pacific St, Brooklyn, NY 11201, USA", "fuel": 100, "engineType": "CE"}, {"name": "GTR 8241", "vin": "WMEEJ3BA4FK797717", "coordinates": [-73.95903, 40.68388, 0], "smartPhoneRequired": false, "interior": "GOOD", "exterior": "GOOD", "address": "470 Classon Ave, Brooklyn, NY 11238, USA", "fuel": 81, "engineType": "CE"}, {"name": "GTR 8245", "vin": "WMEEJ3BA6FK797458", "coordinates": [-73.99725, 40.5998, 0], "smartPhoneRequired": false, "interior": "GOOD", "exterior": "GOOD", "address": "125 Bay 29th St, Brooklyn, NY 11214, USA", "fuel": 100, "engineType": "CE"}, {"name": "HCZ 8515", "vin": "WMEEJ3BA1FK796122", "coordinates": [-73.97048, 40.69078, 0], "smartPhoneRequired": false, "interior": "GOOD", "exterior": "GOOD", "address": "208-264 Clermont Ave, Brooklyn, NY 11205, USA", "fuel": 42, "engineType": "CE"}, {"name": "HAR 7939", "vin": "WMEEJ3BA7EK749398", "coordinates": [-73.95771, 40.68308, 0], "smartPhoneRequired": false, "interior": "GOOD", "exterior": "GOOD", "address": "2-10 Claver Pl, Brooklyn, NY 11238, USA", "fuel": 57, "engineType": "CE"}, {"name": "HAR 7979", "vin": "WMEEJ3BAXEK774764", "coordinates": [-73.95221, 40.69051, 0], "smartPhoneRequired": false, "interior": "GOOD", "exterior": "GOOD", "address": "76 Kosciuszko St, Brooklyn, NY 11205, USA", "fuel": 84, "engineType": "CE"}, {"name": "GTP 9019", "vin": "WMEEJ3BA3FK798440", "coordinates": [-74.0115, 40.6783, 0], "smartPhoneRequired": false, "interior": "GOOD", "exterior": "GOOD", "address": "116-134 King St, Brooklyn, NY 11231, USA", "fuel": 78, "engineType": "CE"}, {"name": "GTS3746", "vin": "WMEEJ3BAXFK798404", "coordinates": [-73.97637, 40.65374, 0], "smartPhoneRequired": false, "interior": "GOOD", "exterior": "GOOD", "address": "1200 Prospect Ave, Brooklyn, NY 11218, USA", "fuel": 69, "engineType": "CE"}, {"name": "GTP 8986", "vin": "WMEEJ3BA0FK795866", "coordinates": [-73.92201, 40.68422, 0], "smartPhoneRequired": false, "interior": "GOOD", "exterior": "GOOD", "address": "718 Macon St, Brooklyn, NY 11233, USA", "fuel": 72, "engineType": "CE"}, {"name": "GTS3719", "vin": "WMEEJ3BA7FK799011", "coordinates": [-73.98291, 40.68543, 0], "smartPhoneRequired": false, "interior": "GOOD", "exterior": "GOOD", "address": "455 Pacific St, Brooklyn, NY 11217, USA", "fuel": 36, "engineType": "CE"}, {"name": "GTP 9022", "vin": "WMEEJ3BA4FK797023", "coordinates": [-73.96135, 40.66504, 0], "smartPhoneRequired": false, "interior": "GOOD", "exterior": "GOOD", "address": "1004-1026 Washington Ave, Brooklyn, NY 11225, USA", "fuel": 100, "engineType": "CE"}, {"name": "GTS3641", "vin": "WMEEJ3BA4FK798978", "coordinates": [-73.93509, 40.6717, 0], "smartPhoneRequired": false, "interior": "GOOD", "exterior": "GOOD", "address": "1314-1316 Sterling Pl, Brooklyn, NY 11213, USA", "fuel": 66, "engineType": "CE"}, {"name": "GTR 8265", "vin": "WMEEJ3BA5FK797841", "coordinates": [-73.91658, 40.70033, 0], "smartPhoneRequired": false, "interior": "GOOD", "exterior": "GOOD", "address": "247 Irving Ave, Brooklyn, NY 11237, USA", "fuel": 100, "engineType": "CE"}, {"name": "GTP 9021", "vin": "WMEEJ3BA4FK796972", "coordinates": [-73.94427, 40.71334, 0], "smartPhoneRequired": false, "interior": "GOOD", "exterior": "GOOD", "address": "305 Graham Ave, Brooklyn, NY 11211, USA", "fuel": 48, "engineType": "CE"}, {"name": "HAR 7932", "vin": "WMEEJ3BA5EK763333", "coordinates": [-73.92264, 40.74164, 0], "smartPhoneRequired": false, "interior": "GOOD", "exterior": "GOOD", "address": "42-1-42-59 47th Ave, Sunnyside, NY 11104, USA", "fuel": 72, "engineType": "CE"}, {"name": "GSW 7812", "vin": "WMEEJ3BA2FK796999", "coordinates": [-73.98861, 40.6108, 0], "smartPhoneRequired": false, "interior": "GOOD", "exterior": "GOOD", "address": "2072 73rd St, Brooklyn, NY 11204, USA", "fuel": 54, "engineType": "CE"}, {"name": "HAR 7984", "vin": "WMEEJ3BA2EK764603", "coordinates": [-73.98933, 40.68222, 0], "smartPhoneRequired": false, "interior": "GOOD", "exterior": "GOOD", "address": "152 Douglass St, Brooklyn, NY 11217, USA", "fuel": 66, "engineType": "CE"}, {"name": "GTS3781", "vin": "WMEEJ3BA0FK799058", "coordinates": [-74.0235, 40.62116, 0], "smartPhoneRequired": false, "interior": "GOOD", "exterior": "GOOD", "address": "8440 Fort Hamilton Pkwy, Brooklyn, NY 11209, USA", "fuel": 90, "engineType": "CE"}, {"name": "GTP 9042", "vin": "WMEEJ3BA1FK798436", "coordinates": [-73.95136, 40.67774, 0], "smartPhoneRequired": false, "interior": "GOOD", "exterior": "GOOD", "address": "1222-1224 Pacific St, Brooklyn, NY 11216, USA", "fuel": 96, "engineType": "CE"}, {"name": "GTP 8956", "vin": "WMEEJ3BA4FK795871", "coordinates": [-73.98343, 40.67454, 0], "smartPhoneRequired": false, "interior": "GOOD", "exterior": "GOOD", "address": "276-278 1st St, Brooklyn, NY 11215, USA", "fuel": 48, "engineType": "CE"}, {"name": "GUM  8116", "vin": "WMEEJ3BA2FK800128", "coordinates": [-73.9426, 40.69137, 0], "smartPhoneRequired": false, "interior": "GOOD", "exterior": "GOOD", "address": "349A Throop Ave, Brooklyn, NY 11221, USA", "fuel": 84, "engineType": "CE"}, {"name": "GTS3666", "vin": "WMEEJ3BA2FK798350", "coordinates": [-74.01558, 40.6521, 0], "smartPhoneRequired": false, "interior": "GOOD", "exterior": "GOOD", "address": "4502 2nd Ave, Brooklyn, NY 11232, USA", "fuel": 100, "engineType": "CE"}, {"name": "GTR 8223", "vin": "WMEEJ3BA6FK797086", "coordinates": [-73.99596, 40.63371, 0], "smartPhoneRequired": false, "interior": "GOOD", "exterior": "GOOD", "address": "1225 53rd St, Brooklyn, NY 11219, USA", "fuel": 96, "engineType": "CE"}, {"name": "GTS3707", "vin": "WMEEJ3BA6FK798934", "coordinates": [-73.94648, 40.66942, 0], "smartPhoneRequired": false, "interior": "GOOD", "exterior": "GOOD", "address": "664 Eastern Pkwy, Brooklyn, NY 11213, USA", "fuel": 96, "engineType": "CE"}, {"name": "GTR 8214", "vin": "WMEEJ3BA9FK798331", "coordinates": [-73.98381, 40.59437, 0], "smartPhoneRequired": false, "interior": "GOOD", "exterior": "GOOD", "address": "2100-2198 W 13th St, Brooklyn, NY 11223, USA", "fuel": 93, "engineType": "CE"}, {"name": "GTP 9044", "vin": "WMEEJ3BA4FK797541", "coordinates": [-73.98992, 40.61074, 0], "smartPhoneRequired": false, "interior": "GOOD", "exterior": "GOOD", "address": "2045 74th St, Brooklyn, NY 11204, USA", "fuel": 66, "engineType": "CE"}, {"name": "GTR 8218", "vin": "WMEEJ3BAXFK798208", "coordinates": [-73.94247, 40.67574, 0], "smartPhoneRequired": false, "interior": "GOOD", "exterior": "GOOD", "address": "1289 Bergen St, Brooklyn, NY 11213, USA", "fuel": 27, "engineType": "CE"}, {"name": "GTR 8294", "vin": "WMEEJ3BA8FK796960", "coordinates": [-73.91981, 40.70381, 0], "smartPhoneRequired": false, "interior": "GOOD", "exterior": "GOOD", "address": "1609 Dekalb Ave, Brooklyn, NY 11237, USA", "fuel": 45, "engineType": "CE"}, {"name": "HAR 7982", "vin": "WMEEJ3BA0EK766513", "coordinates": [-73.91167, 40.68173, 0], "smartPhoneRequired": false, "interior": "GOOD", "exterior": "GOOD", "address": "437 Marion St, Brooklyn, NY 11233, USA", "fuel": 24, "engineType": "CE"}, {"name": "GTR 8254", "vin": "WMEEJ3BA6FK797041", "coordinates": [-73.98732, 40.63971, 0], "smartPhoneRequired": false, "interior": "GOOD", "exterior": "GOOD", "address": "4014 13th Ave, Brooklyn, NY 11218, USA", "fuel": 54, "engineType": "CE"}, {"name": "GSW 7727", "vin": "WMEEJ3BA0FK796161", "coordinates": [-73.92297, 40.74521, 0], "smartPhoneRequired": false, "interior": "GOOD", "exterior": "GOOD", "address": "43-08 41st St, Sunnyside, NY 11104, USA", "fuel": 78, "engineType": "CE"}, {"name": "GTP 9014", "vin": "WMEEJ3BA1FK797318", "coordinates": [-73.91668, 40.77936, 0], "smartPhoneRequired": false, "interior": "GOOD", "exterior": "GOOD", "address": "21-20-21-98 22nd Rd, Astoria, NY 11105, USA", "fuel": 100, "engineType": "CE"}, {"name": "HAR 7969", "vin": "WMEEJ3BA0EK764695", "coordinates": [-73.99253, 40.63335, 0], "smartPhoneRequired": false, "interior": "GOOD", "exterior": "GOOD", "address": "1320 51st St, Brooklyn, NY 11219, USA", "fuel": 84, "engineType": "CE"}, {"name": "GTS3733", "vin": "WMEEJ3BA2FK798297", "coordinates": [-73.93654, 40.71069, 0], "smartPhoneRequired": false, "interior": "GOOD", "exterior": "GOOD", "address": "17 Meadow St, Brooklyn, NY 11206, USA", "fuel": 36, "engineType": "CE"}, {"name": "GSW 7750", "vin": "WMEEJ3BA1FK798212", "coordinates": [-73.95143, 40.68939, 0], "smartPhoneRequired": false, "interior": "GOOD", "exterior": "GOOD", "address": "294-310 Nostrand Ave, Brooklyn, NY 11216, USA", "fuel": 57, "engineType": "CE"}, {"name": "GSW 7744", "vin": "WMEEJ3BA2FK798302", "coordinates": [-73.91847, 40.74231, 0], "smartPhoneRequired": false, "interior": "GOOD", "exterior": "GOOD", "address": "46-01 Greenpoint Ave, Sunnyside, NY 11104, USA", "fuel": 100, "engineType": "CE"}, {"name": "GTP 8876", "vin": "WMEEJ3BA4FK797149", "coordinates": [-73.93163, 40.6973, 0], "smartPhoneRequired": false, "interior": "GOOD", "exterior": "GOOD", "address": "941 Willoughby Ave, Brooklyn, NY 11221, USA", "fuel": 60, "engineType": "CE"}, {"name": "HAL 2283", "vin": "WMEEJ3BA4FK798334", "coordinates": [-73.98548, 40.59474, 0], "smartPhoneRequired": false, "interior": "GOOD", "exterior": "GOOD", "address": "1-43 Bay 43rd St, Brooklyn, NY 11214, USA", "fuel": 100, "engineType": "CE"}, {"name": "GTS3717", "vin": "WMEEJ3BA8FK798711", "coordinates": [-73.99744, 40.63085, 0], "smartPhoneRequired": false, "interior": "GOOD", "exterior": "GOOD", "address": "1264 57th St, Brooklyn, NY 11219, USA", "fuel": 63, "engineType": "CE"}, {"name": "GTP 8887", "vin": "WMEEJ3BA8FK796215", "coordinates": [-73.96751, 40.6963, 0], "smartPhoneRequired": false, "interior": "GOOD", "exterior": "GOOD", "address": "82 Washington Ave, Brooklyn, NY 11205, USA", "fuel": 51, "engineType": "CE"}, {"name": "GUM  8171", "vin": "WMEEJ3BA4FK800163", "coordinates": [-73.97413, 40.6756, 0], "smartPhoneRequired": false, "interior": "GOOD", "exterior": "GOOD", "address": "185 Lincoln Pl, Brooklyn, NY 11217, USA", "fuel": 75, "engineType": "CE"}, {"name": "GTP 8960", "vin": "WMEEJ3BA6FK796987", "coordinates": [-74.01985, 40.64902, 0], "smartPhoneRequired": false, "interior": "GOOD", "exterior": "GOOD", "address": "100-138 52nd St, Brooklyn, NY 11232, USA", "fuel": 27, "engineType": "CE"}, {"name": "GTS3764", "vin": "WMEEJ3BA3FK798261", "coordinates": [-74.00084, 40.65675, 0], "smartPhoneRequired": false, "interior": "GOOD", "exterior": "GOOD", "address": "181 31st St, Brooklyn, NY 11232, USA", "fuel": 18, "engineType": "CE"}, {"name": "HAR 7902", "vin": "WMEEJ3BA9EK756353", "coordinates": [-73.95759, 40.68275, 0], "smartPhoneRequired": false, "interior": "GOOD", "exterior": "GOOD", "address": "10-18 Claver Pl, Brooklyn, NY 11238, USA", "fuel": 100, "engineType": "CE"}, {"name": "GTP 8885", "vin": "WMEEJ3BA7FK796948", "coordinates": [-73.95955, 40.69106, 0], "smartPhoneRequired": false, "interior": "GOOD", "exterior": "GOOD", "address": "232 Taaffe Pl, Brooklyn, NY 11205, USA", "fuel": 81, "engineType": "CE"}, {"name": "GTR 8244", "vin": "WMEEJ3BA6FK797413", "coordinates": [-73.99012, 40.66302, 0], "smartPhoneRequired": false, "interior": "GOOD", "exterior": "GOOD", "address": "271 17th St, Brooklyn, NY 11215, USA", "fuel": 36, "engineType": "CE"}, {"name": "GSW 7782", "vin": "WMEEJ3BAXFK795163", "coordinates": [-74.00013, 40.57813, 0], "smartPhoneRequired": false, "interior": "GOOD", "exterior": "GOOD", "address": "2771 W 33rd St, Brooklyn, NY 11224, USA", "fuel": 57, "engineType": "CE"}, {"name": "GTR 8220", "vin": "WMEEJ3BA7FK797047", "coordinates": [-73.96813, 40.68993, 0], "smartPhoneRequired": false, "interior": "GOOD", "exterior": "GOOD", "address": "269 Clinton Ave, Brooklyn, NY 11205, USA", "fuel": 90, "engineType": "CE"}, {"name": "GSW 7774", "vin": "WMEEJ3BA4FK796065", "coordinates": [-73.9998, 40.6852, 0], "smartPhoneRequired": false, "interior": "GOOD", "exterior": "GOOD", "address": "64 Cheever Pl, Brooklyn, NY 11231, USA", "fuel": 36, "engineType": "CE"}, {"name": "GSW 7855", "vin": "WMEEJ3BA5FK796060", "coordinates": [-73.97715, 40.64891, 0], "smartPhoneRequired": false, "interior": "GOOD", "exterior": "GOOD", "address": "2816 Fort Hamilton Pkwy, Brooklyn, NY 11218, USA", "fuel": 45, "engineType": "CE"}, {"name": "GUM  8133", "vin": "WMEEJ3BA3FK800025", "coordinates": [-73.97761, 40.6753, 0], "smartPhoneRequired": false, "interior": "GOOD", "exterior": "GOOD", "address": "795-799 Union St, Brooklyn, NY 11215, USA", "fuel": 48, "engineType": "CE"}, {"name": "GTS3642", "vin": "WMEEJ3BA1FK798937", "coordinates": [-73.95287, 40.71138, 0], "smartPhoneRequired": false, "interior": "GOOD", "exterior": "GOOD", "address": "445-449 Grand St, Brooklyn, NY 11211, USA", "fuel": 48, "engineType": "CE"}, {"name": "GSW 7823", "vin": "WMEEJ3BA2FK795920", "coordinates": [-73.9561, 40.67115, 0], "smartPhoneRequired": false, "interior": "GOOD", "exterior": "GOOD", "address": "616 Lincoln Pl, Brooklyn, NY 11216, USA", "fuel": 60, "engineType": "CE"}, {"name": "HAR 7965", "vin": "WMEEJ3BA0EK771338", "coordinates": [-73.95654, 40.74284, 0], "smartPhoneRequired": false, "interior": "GOOD", "exterior": "GOOD", "address": "50-9-50-11 5th St, Long Island City, NY 11101, USA", "fuel": 100, "engineType": "CE"}, {"name": "GTR 8273", "vin": "WMEEJ3BA8FK797574", "coordinates": [-73.97326, 40.64935, 0], "smartPhoneRequired": false, "interior": "GOOD", "exterior": "GOOD", "address": "45 E 8th St, Brooklyn, NY 11218, USA", "fuel": 75, "engineType": "CE"}, {"name": "GSW 7840", "vin": "WMEEJ3BA5FK797161", "coordinates": [-73.94601, 40.72585, 0], "smartPhoneRequired": false, "interior": "GOOD", "exterior": "GOOD", "address": "12 Jewel St, Brooklyn, NY 11222, USA", "fuel": 78, "engineType": "CE"}, {"name": "GTS3757", "vin": "WMEEJ3BA4FK798835", "coordinates": [-74.01943, 40.6427, 0], "smartPhoneRequired": false, "interior": "GOOD", "exterior": "GOOD", "address": "5801-5899 3rd Ave, Brooklyn, NY 11220, USA", "fuel": 81, "engineType": "CE"}, {"name": "GSW 7793", "vin": "WMEEJ3BA1FK795018", "coordinates": [-73.99178, 40.66038, 0], "smartPhoneRequired": false, "interior": "GOOD", "exterior": "GOOD", "address": "289 21st St, Brooklyn, NY 11215, USA", "fuel": 100, "engineType": "CE"}, {"name": "GSW 7854", "vin": "WMEEJ3BA4FK796308", "coordinates": [-73.94539, 40.72151, 0], "smartPhoneRequired": false, "interior": "GOOD", "exterior": "GOOD", "address": "158 Newton St, Brooklyn, NY 11222, USA", "fuel": 87, "engineType": "CE"}, {"name": "GTP 9034", "vin": "WMEEJ3BA0FK797035", "coordinates": [-73.96288, 40.70709, 0], "smartPhoneRequired": false, "interior": "GOOD", "exterior": "GOOD", "address": "171-173 Clymer St, Brooklyn, NY 11211, USA", "fuel": 100, "engineType": "CE"}, {"name": "HAR 7927", "vin": "WMEEJ3BA7EK769960", "coordinates": [-73.96234, 40.69436, 0], "smartPhoneRequired": false, "interior": "GOOD", "exterior": "GOOD", "address": "106-108 Emerson Pl, Brooklyn, NY 11205, USA", "fuel": 93, "engineType": "CE"}, {"name": "GTR 8204", "vin": "WMEEJ3BA9FK797101", "coordinates": [-73.92638, 40.69949, 0], "smartPhoneRequired": false, "interior": "GOOD", "exterior": "GOOD", "address": "163 Suydam St, Brooklyn, NY 11221, USA", "fuel": 54, "engineType": "CE"}, {"name": "HAR 7988", "vin": "WMEEJ3BA3EK764898", "coordinates": [-73.91373, 40.76687, 0], "smartPhoneRequired": false, "interior": "GOOD", "exterior": "GOOD", "address": "30-60 38th St, Astoria, NY 11103, USA", "fuel": 100, "engineType": "CE"}]}