[{"virtual_rental_type_id": 2, "car_plate": "EZ231GW", "virtual_rental_id": 307539, "car_category_id": 8, "car_category_type_id": 1, "lon": 7.6596313, "carModelData": [100], "car_name": "Fiat 500", "onClick_disabled": false, "address": "Via Bernardino Luini, 105, 10149 Torino", "lat": 45.098465, "fuel_level": 88}, {"virtual_rental_type_id": 2, "car_plate": "EZ157TY", "virtual_rental_id": 307536, "car_category_id": 8, "car_category_type_id": 1, "lon": 7.69331, "carModelData": [], "car_name": "Fiat 500", "onClick_disabled": false, "address": "Largo Palermo, 68-72, 10152 Torino", "lat": 45.08493, "fuel_level": 3}, {"virtual_rental_type_id": 2, "car_plate": "EZ164SE", "virtual_rental_id": 303680, "car_category_id": 8, "car_category_type_id": 1, "lon": 7.6340256, "carModelData": [], "car_name": "Fiat 500", "onClick_disabled": false, "address": "Corso Siracusa, 248, 10137 Torino", "lat": 45.040882, "fuel_level": 77}, {"virtual_rental_type_id": 2, "car_plate": "EZ010TY", "virtual_rental_id": 303739, "car_category_id": 8, "car_category_type_id": 1, "lon": 7.686554, "carModelData": [], "car_name": "Fiat 500", "onClick_disabled": false, "address": "Via Clemente Damiano Priocca, 12, 10152 Torino", "lat": 45.077675, "fuel_level": 31}, {"virtual_rental_type_id": 2, "car_plate": "EZ177TY", "virtual_rental_id": 321472, "car_category_id": 8, "car_category_type_id": 1, "lon": 7.664851, "carModelData": [], "car_name": "Fiat 500", "onClick_disabled": false, "address": "Via Ventimiglia, 228, 10127 Torino", "lat": 45.017105, "fuel_level": 100}, {"virtual_rental_type_id": 2, "car_plate": "EZ803DF", "virtual_rental_id": 318611, "car_category_id": 8, "car_category_type_id": 1, "lon": 7.7134156, "carModelData": [100], "car_name": "Fiat 500", "onClick_disabled": false, "address": "Corso Casale, 107, 10132 Torino", "lat": 45.068188, "fuel_level": 96}, {"virtual_rental_type_id": 2, "car_plate": "EZ046TY", "virtual_rental_id": 319230, "car_category_id": 8, "car_category_type_id": 1, "lon": 7.649168, "carModelData": [], "car_name": "Fiat 500", "onClick_disabled": false, "address": "Via Revello, 7-13, 10139 Torino", "lat": 45.07029, "fuel_level": 51}, {"virtual_rental_type_id": 2, "car_plate": "EZ033TY", "virtual_rental_id": 309786, "car_category_id": 8, "car_category_type_id": 1, "lon": 7.710314, "carModelData": [], "car_name": "Fiat 500", "onClick_disabled": false, "address": "Piazzale Croce Rossa Italiana, 183, 10154 Torino", "lat": 45.089375, "fuel_level": 24}, {"virtual_rental_type_id": 2, "car_plate": "EZ910DF", "virtual_rental_id": 318903, "car_category_id": 8, "car_category_type_id": 1, "lon": 7.6900444, "carModelData": [100], "car_name": "Fiat 500", "onClick_disabled": false, "address": "Corso Giulio Cesare, 59B, 10152 Torino", "lat": 45.086662, "fuel_level": 62}, {"virtual_rental_type_id": 2, "car_plate": "EZ012TY", "virtual_rental_id": 324839, "car_category_id": 8, "car_category_type_id": 1, "lon": 7.655947, "carModelData": [], "car_name": "Fiat 500", "onClick_disabled": false, "address": "Via Paolo Braccini, 1, 10141 Torino", "lat": 45.059494, "fuel_level": 32}, {"virtual_rental_type_id": 2, "car_plate": "EZ151TY", "virtual_rental_id": 316125, "car_category_id": 8, "car_category_type_id": 1, "lon": 7.6460853, "carModelData": [], "car_name": "Fiat 500", "onClick_disabled": false, "address": "Via Perrero, 33, 10139 Torino", "lat": 45.066696, "fuel_level": 14}, {"virtual_rental_type_id": 2, "car_plate": "EZ226TY", "virtual_rental_id": 316100, "car_category_id": 8, "car_category_type_id": 1, "lon": 7.6450477, "carModelData": [], "car_name": "Fiat 500", "onClick_disabled": false, "address": "Corso Benedetto Croce, 19, 10135 Torino", "lat": 45.020374, "fuel_level": 60}, {"virtual_rental_type_id": 2, "car_plate": "EZ168TY", "virtual_rental_id": 323479, "car_category_id": 8, "car_category_type_id": 1, "lon": 7.673586, "carModelData": [], "car_name": "Fiat 500", "onClick_disabled": false, "address": "Via S. Secondo, 27, 10128 Torino", "lat": 45.05956, "fuel_level": 60}, {"virtual_rental_type_id": 2, "car_plate": "EZ253GW", "virtual_rental_id": 329765, "car_category_id": 8, "car_category_type_id": 1, "lon": 7.6408906, "carModelData": [100], "car_name": "Fiat 500", "onClick_disabled": false, "address": "Corso Giovanni Agnelli, 161, 10135 Torino", "lat": 45.031235, "fuel_level": 77}, {"virtual_rental_type_id": 2, "car_plate": "EZ779DD", "virtual_rental_id": 313737, "car_category_id": 8, "car_category_type_id": 1, "lon": 7.700274, "carModelData": [100], "car_name": "Fiat 500", "onClick_disabled": false, "address": "Via Giovanni Pacini, 31-33, 10154 Torino", "lat": 45.085564, "fuel_level": 54}, {"virtual_rental_type_id": 2, "car_plate": "EZ087TY", "virtual_rental_id": 328816, "car_category_id": 8, "car_category_type_id": 1, "lon": 7.636945, "carModelData": [], "car_name": "Fiat 500", "onClick_disabled": false, "address": "Str. delle Cacce, 132, 10135 Torino", "lat": 45.012302, "fuel_level": 64}, {"virtual_rental_type_id": 2, "car_plate": "EZ789DD", "virtual_rental_id": 322970, "car_category_id": 8, "car_category_type_id": 1, "lon": 7.654646, "carModelData": [100], "car_name": "Fiat 500", "onClick_disabled": false, "address": "Via Sette Comuni, 40-46, 10127 Torino", "lat": 45.020744, "fuel_level": 67}, {"virtual_rental_type_id": 2, "car_plate": "EZ155TY", "virtual_rental_id": 324872, "car_category_id": 8, "car_category_type_id": 1, "lon": 7.615709, "carModelData": [], "car_name": "Fiat 500", "onClick_disabled": false, "address": "Via Gioacchino Quarello, 19C, 10135 Torino", "lat": 45.017796, "fuel_level": 32}, {"virtual_rental_type_id": 2, "car_plate": "EZ836DD", "virtual_rental_id": 318661, "car_category_id": 8, "car_category_type_id": 1, "lon": 7.6075435, "carModelData": [100], "car_name": "Fiat 500", "onClick_disabled": false, "address": "Str. del Drosso, 184F, 10135 Torino", "lat": 45.01786, "fuel_level": 81}, {"virtual_rental_type_id": 2, "car_plate": "EZ262GW", "virtual_rental_id": 336548, "car_category_id": 8, "car_category_type_id": 1, "lon": 7.6616607, "carModelData": [100], "car_name": "Fiat 500", "onClick_disabled": false, "address": "Via Pininfarina, 10024 Moncalieri TO", "lat": 45.014935, "fuel_level": 44}, {"virtual_rental_type_id": 2, "car_plate": "EZ810DD", "virtual_rental_id": 333517, "car_category_id": 8, "car_category_type_id": 1, "lon": 7.690717, "carModelData": [100], "car_name": "Fiat 500", "onClick_disabled": false, "address": "Via Parma, 12, 10152 Torino", "lat": 45.080833, "fuel_level": 11}, {"virtual_rental_type_id": 2, "car_plate": "EZ148TY", "virtual_rental_id": 334133, "car_category_id": 8, "car_category_type_id": 1, "lon": 7.641736, "carModelData": [], "car_name": "Fiat 500", "onClick_disabled": false, "address": "Via Fr\u00e9jus, 104-106, 10139 Torino", "lat": 45.07023, "fuel_level": 43}, {"virtual_rental_type_id": 2, "car_plate": "EZ198TY", "virtual_rental_id": 334773, "car_category_id": 8, "car_category_type_id": 1, "lon": 7.638111, "carModelData": [], "car_name": "Fiat 500", "onClick_disabled": false, "address": "Via Giovanni Servais, 11, 10146 Torino", "lat": 45.083454, "fuel_level": 67}, {"virtual_rental_type_id": 2, "car_plate": "EZ191TY", "virtual_rental_id": 315813, "car_category_id": 8, "car_category_type_id": 1, "lon": 7.6999464, "carModelData": [], "car_name": "Fiat 500", "onClick_disabled": false, "address": "Corso Novara, 113, 10154 Torino", "lat": 45.08065, "fuel_level": 33}, {"virtual_rental_type_id": 2, "car_plate": "EZ989DD", "virtual_rental_id": 334181, "car_category_id": 8, "car_category_type_id": 1, "lon": 7.666024, "carModelData": [100], "car_name": "Fiat 500", "onClick_disabled": false, "address": "Corso Piero Maroncelli, 9, 10127 Torino", "lat": 45.01793, "fuel_level": 98}, {"virtual_rental_type_id": 2, "car_plate": "EZ101TY", "virtual_rental_id": 331596, "car_category_id": 8, "car_category_type_id": 1, "lon": 7.682938, "carModelData": [], "car_name": "Fiat 500", "onClick_disabled": false, "address": "Corso Venezia, 51, 10147 Torino", "lat": 45.095978, "fuel_level": 58}, {"virtual_rental_type_id": 2, "car_plate": "EZ204GW", "virtual_rental_id": 365282, "car_category_id": 8, "car_category_type_id": 1, "lon": 7.690829, "carModelData": [100], "car_name": "Fiat 500", "onClick_disabled": false, "address": "Via Gioachino Rossini, 7-11, 10124 Torino", "lat": 45.069763, "fuel_level": 80}, {"virtual_rental_type_id": 2, "car_plate": "EZ059TY", "virtual_rental_id": 330379, "car_category_id": 8, "car_category_type_id": 1, "lon": 7.649817, "carModelData": [], "car_name": "Fiat 500", "onClick_disabled": false, "address": "Via Emanuele Artom, 10127 Torino", "lat": 45.01003, "fuel_level": 100}, {"virtual_rental_type_id": 2, "car_plate": "EZ041TY", "virtual_rental_id": 318151, "car_category_id": 8, "car_category_type_id": 1, "lon": 7.659003, "carModelData": [], "car_name": "Fiat 500", "onClick_disabled": false, "address": "Via Carlo Bossi, 10, 10144 Torino", "lat": 45.081367, "fuel_level": 90}, {"virtual_rental_type_id": 2, "car_plate": "EZ782DD", "virtual_rental_id": 335681, "car_category_id": 8, "car_category_type_id": 1, "lon": 7.6825986, "carModelData": [100], "car_name": "Fiat 500", "onClick_disabled": false, "address": "Via Francesco Cigna, 74-82, 10152 Torino", "lat": 45.087833, "fuel_level": 48}, {"virtual_rental_type_id": 2, "car_plate": "EZ263SE", "virtual_rental_id": 365542, "car_category_id": 8, "car_category_type_id": 1, "lon": 7.636673, "carModelData": [], "car_name": "Fiat 500", "onClick_disabled": false, "address": "Via Isler Ignazio, 2-4, 10135 Torino", "lat": 45.01783, "fuel_level": 34}, {"virtual_rental_type_id": 2, "car_plate": "EZ054TY", "virtual_rental_id": 334063, "car_category_id": 8, "car_category_type_id": 1, "lon": 7.6525106, "carModelData": [], "car_name": "Fiat 500", "onClick_disabled": false, "address": "Via Luigi Palma di Cesnola, 87, 10127 Torino", "lat": 45.020813, "fuel_level": 33}, {"virtual_rental_type_id": 2, "car_plate": "EZ529DD", "virtual_rental_id": 320201, "car_category_id": 8, "car_category_type_id": 1, "lon": 7.6973352, "carModelData": [100], "car_name": "Fiat 500", "onClick_disabled": false, "address": "Corso Moncalieri, 1-17, 10131 Torino", "lat": 45.06174, "fuel_level": 46}, {"virtual_rental_type_id": 2, "car_plate": "EZ786DD", "virtual_rental_id": 343000, "car_category_id": 8, "car_category_type_id": 1, "lon": 7.6818123, "carModelData": [100], "car_name": "Fiat 500", "onClick_disabled": false, "address": "Via Francesco Cigna, 64, 10152 Torino", "lat": 45.0866, "fuel_level": 53}, {"virtual_rental_type_id": 2, "car_plate": "EZ764DD", "virtual_rental_id": 326738, "car_category_id": 8, "car_category_type_id": 1, "lon": 7.713365, "carModelData": [100], "car_name": "Fiat 500", "onClick_disabled": false, "address": "Corso Casale, 107, 10132 Torino", "lat": 45.06816, "fuel_level": 72}, {"virtual_rental_type_id": 2, "car_plate": "EZ753DD", "virtual_rental_id": 331689, "car_category_id": 8, "car_category_type_id": 1, "lon": 7.634777, "carModelData": [100], "car_name": "Fiat 500", "onClick_disabled": false, "address": "Corso Orbassano, 244, 10137 Torino", "lat": 45.040665, "fuel_level": 80}, {"virtual_rental_type_id": 2, "car_plate": "EZ786DF", "virtual_rental_id": 325782, "car_category_id": 8, "car_category_type_id": 1, "lon": 7.6312532, "carModelData": [100], "car_name": "Fiat 500", "onClick_disabled": false, "address": "Corso Orbassano, 264, 10137 Torino", "lat": 45.03893, "fuel_level": 56}, {"virtual_rental_type_id": 2, "car_plate": "EZ198GW", "virtual_rental_id": 336489, "car_category_id": 8, "car_category_type_id": 1, "lon": 7.619488, "carModelData": [100], "car_name": "Fiat 500", "onClick_disabled": false, "address": "Corso Luigi Settembrini, 164, 10135 Torino", "lat": 45.029144, "fuel_level": 64}, {"virtual_rental_type_id": 2, "car_plate": "EZ118GW", "virtual_rental_id": 332377, "car_category_id": 8, "car_category_type_id": 1, "lon": 7.6715, "carModelData": [100], "car_name": "Fiat 500", "onClick_disabled": false, "address": "Via Santa Chiara, 45, 10122 Torino", "lat": 45.078495, "fuel_level": 46}, {"virtual_rental_type_id": 2, "car_plate": "EZ218GW", "virtual_rental_id": 360493, "car_category_id": 8, "car_category_type_id": 1, "lon": 7.695571, "carModelData": [100], "car_name": "Fiat 500", "onClick_disabled": false, "address": "Via Gottardo, 87, 10155 Torino", "lat": 45.09836, "fuel_level": 63}, {"virtual_rental_type_id": 2, "car_plate": "EZ103TY", "virtual_rental_id": 356984, "car_category_id": 8, "car_category_type_id": 1, "lon": 7.6521297, "carModelData": [], "car_name": "Fiat 500", "onClick_disabled": false, "address": "Via Pio VII, 83, 10127 Torino", "lat": 45.023952, "fuel_level": 52}, {"virtual_rental_type_id": 2, "car_plate": "EZ208GW", "virtual_rental_id": 338557, "car_category_id": 8, "car_category_type_id": 1, "lon": 7.679846, "carModelData": [100], "car_name": "Fiat 500", "onClick_disabled": false, "address": "Via Antonio Cecchi, 60, 10152 Torino", "lat": 45.088463, "fuel_level": 97}, {"virtual_rental_type_id": 2, "car_plate": "EZ138TY", "virtual_rental_id": 339281, "car_category_id": 8, "car_category_type_id": 1, "lon": 7.6361685, "carModelData": [], "car_name": "Fiat 500", "onClick_disabled": false, "address": "Via Timoteo Riboli, 10, 10135 Torino", "lat": 45.01548, "fuel_level": 81}, {"virtual_rental_type_id": 2, "car_plate": "EZ135GW", "virtual_rental_id": 362291, "car_category_id": 8, "car_category_type_id": 1, "lon": 7.6440873, "carModelData": [100], "car_name": "Fiat 500", "onClick_disabled": false, "address": "Via Paolo Sarpi, 106-108, 10135 Torino", "lat": 45.033478, "fuel_level": 56}, {"virtual_rental_type_id": 2, "car_plate": "EZ110TY", "virtual_rental_id": 362349, "car_category_id": 8, "car_category_type_id": 1, "lon": 7.6667523, "carModelData": [], "car_name": "Fiat 500", "onClick_disabled": false, "address": "Corso Filippo Turati, 43, 10128 Torino", "lat": 45.05073, "fuel_level": 66}, {"virtual_rental_type_id": 2, "car_plate": "EZ084TY", "virtual_rental_id": 341896, "car_category_id": 8, "car_category_type_id": 1, "lon": 7.7242217, "carModelData": [], "car_name": "Fiat 500", "onClick_disabled": false, "address": "Via Asigliano Vercellese, 10, 10153 Torino", "lat": 45.075573, "fuel_level": 47}, {"virtual_rental_type_id": 2, "car_plate": "EZ053TY", "virtual_rental_id": 355059, "car_category_id": 8, "car_category_type_id": 1, "lon": 7.629798, "carModelData": [], "car_name": "Fiat 500", "onClick_disabled": false, "address": "Corso Bernardino Telesio, 98, 10146 Torino", "lat": 45.083496, "fuel_level": 82}, {"virtual_rental_type_id": 2, "car_plate": "EZ754DD", "virtual_rental_id": 352877, "car_category_id": 8, "car_category_type_id": 1, "lon": 7.605082, "carModelData": [100], "car_name": "Fiat 500", "onClick_disabled": false, "address": "Via Giovanni Roveda, 45/8, 10135 Torino", "lat": 45.020004, "fuel_level": 65}, {"virtual_rental_type_id": 2, "car_plate": "EZ986DD", "virtual_rental_id": 351252, "car_category_id": 8, "car_category_type_id": 1, "lon": 7.7265677, "carModelData": [100], "car_name": "Fiat 500", "onClick_disabled": false, "address": "Via S. Sebastiano Po, 7, 10132 Torino", "lat": 45.07043, "fuel_level": 93}, {"virtual_rental_type_id": 2, "car_plate": "EZ207GW", "virtual_rental_id": 358197, "car_category_id": 8, "car_category_type_id": 1, "lon": 7.6750307, "carModelData": [100], "car_name": "Fiat 500", "onClick_disabled": false, "address": "Via Errico Giachino, 37-45, 10149 Torino", "lat": 45.092133, "fuel_level": 46}, {"virtual_rental_type_id": 2, "car_plate": "EZ128GW", "virtual_rental_id": 355580, "car_category_id": 8, "car_category_type_id": 1, "lon": 7.663089, "carModelData": [100], "car_name": "Fiat 500", "onClick_disabled": false, "address": "Via Claudio Beaumont, 53, 10138 Torino", "lat": 45.07161, "fuel_level": 55}, {"virtual_rental_type_id": 2, "car_plate": "EZ131GW", "virtual_rental_id": 346109, "car_category_id": 8, "car_category_type_id": 1, "lon": 7.648066, "carModelData": [100], "car_name": "Fiat 500", "onClick_disabled": false, "address": "Via Monginevro, 45, 10141 Torino", "lat": 45.064655, "fuel_level": 83}, {"virtual_rental_type_id": 2, "car_plate": "EZ028TY", "virtual_rental_id": 335751, "car_category_id": 8, "car_category_type_id": 1, "lon": 7.6551213, "carModelData": [], "car_name": "Fiat 500", "onClick_disabled": false, "address": "Corso Caio Plinio, 4, 10127 Torino", "lat": 45.02672, "fuel_level": 93}, {"virtual_rental_type_id": 2, "car_plate": "EZ829DD", "virtual_rental_id": 358494, "car_category_id": 8, "car_category_type_id": 1, "lon": 7.667396, "carModelData": [100], "car_name": "Fiat 500", "onClick_disabled": false, "address": "Corso Galileo Ferraris, 50, 10121 Torino", "lat": 45.06061, "fuel_level": 98}, {"virtual_rental_type_id": 2, "car_plate": "EZ228GW", "virtual_rental_id": 352990, "car_category_id": 8, "car_category_type_id": 1, "lon": 7.643114, "carModelData": [100], "car_name": "Fiat 500", "onClick_disabled": false, "address": "Via Fr\u00e9jus, 98, 10139 Torino", "lat": 45.070404, "fuel_level": 43}, {"virtual_rental_type_id": 2, "car_plate": "EZ266GW", "virtual_rental_id": 363441, "car_category_id": 8, "car_category_type_id": 1, "lon": 7.6543846, "carModelData": [100], "car_name": "Fiat 500", "onClick_disabled": false, "address": "Via Dante Di Nanni, 4, 10139 Torino", "lat": 45.070206, "fuel_level": 96}, {"virtual_rental_type_id": 2, "car_plate": "EZ995DD", "virtual_rental_id": 361363, "car_category_id": 8, "car_category_type_id": 1, "lon": 7.6561365, "carModelData": [100], "car_name": "Fiat 500", "onClick_disabled": false, "address": "Via Natale Palli, 15, 10024 Moncalieri TO", "lat": 45.00896, "fuel_level": 80}, {"virtual_rental_type_id": 2, "car_plate": "EZ555DD", "virtual_rental_id": 357939, "car_category_id": 8, "car_category_type_id": 1, "lon": 7.7008557, "carModelData": [100], "car_name": "Fiat 500", "onClick_disabled": false, "address": "Corso Casale, 26, 10131 Torino", "lat": 45.06412, "fuel_level": 52}, {"virtual_rental_type_id": 2, "car_plate": "EZ102GW", "virtual_rental_id": 357971, "car_category_id": 8, "car_category_type_id": 1, "lon": 7.615562, "carModelData": [100], "car_name": "Fiat 500", "onClick_disabled": false, "address": "Via Plava, 113, 10135 Torino", "lat": 45.020218, "fuel_level": 29}, {"virtual_rental_type_id": 2, "car_plate": "EZ134GW", "virtual_rental_id": 355723, "car_category_id": 8, "car_category_type_id": 1, "lon": 7.6840506, "carModelData": [100], "car_name": "Fiat 500", "onClick_disabled": false, "address": "Corso Vittorio Emanuele II, 36, 10123 Torino", "lat": 45.060986, "fuel_level": 28}, {"virtual_rental_type_id": 2, "car_plate": "EZ202GW", "virtual_rental_id": 350705, "car_category_id": 8, "car_category_type_id": 1, "lon": 7.719166, "carModelData": [100], "car_name": "Fiat 500", "onClick_disabled": false, "address": "Corso Brianza, 11, 10153 Torino", "lat": 45.07469, "fuel_level": 20}, {"virtual_rental_type_id": 2, "car_plate": "EZ035TY", "virtual_rental_id": 354899, "car_category_id": 8, "car_category_type_id": 1, "lon": 7.624951, "carModelData": [], "car_name": "Fiat 500", "onClick_disabled": false, "address": "Via Ludovico Geymonat, 1, 10135 Torino", "lat": 45.015926, "fuel_level": 56}, {"virtual_rental_type_id": 2, "car_plate": "EZ092TY", "virtual_rental_id": 361712, "car_category_id": 8, "car_category_type_id": 1, "lon": 7.701611, "carModelData": [], "car_name": "Fiat 500", "onClick_disabled": false, "address": "Via Tollegno, 41-47, 10154 Torino", "lat": 45.086563, "fuel_level": 7}, {"virtual_rental_type_id": 2, "car_plate": "EZ787DD", "virtual_rental_id": 386184, "car_category_id": 8, "car_category_type_id": 1, "lon": 7.7222323, "carModelData": [100], "car_name": "Fiat 500", "onClick_disabled": false, "address": "Via Grazia Deledda, 3-5, 10153 Torino", "lat": 45.076015, "fuel_level": 72}, {"virtual_rental_type_id": 2, "car_plate": "EZ279GW", "virtual_rental_id": 369781, "car_category_id": 8, "car_category_type_id": 1, "lon": 7.706117, "carModelData": [100], "car_name": "Fiat 500", "onClick_disabled": false, "address": "Via Mongrando, 53, 10153 Torino", "lat": 45.07411, "fuel_level": 98}, {"virtual_rental_type_id": 2, "car_plate": "EZ232GW", "virtual_rental_id": 377380, "car_category_id": 8, "car_category_type_id": 1, "lon": 7.666101, "carModelData": [100], "car_name": "Fiat 500", "onClick_disabled": false, "address": "Via Valenza, 46, 10127 Torino", "lat": 45.024754, "fuel_level": 54}, {"virtual_rental_type_id": 2, "car_plate": "EZ091TY", "virtual_rental_id": 374190, "car_category_id": 8, "car_category_type_id": 1, "lon": 7.6573505, "carModelData": [], "car_name": "Fiat 500", "onClick_disabled": false, "address": "Via S. Donato, 86, 10144 Torino", "lat": 45.083454, "fuel_level": 61}, {"virtual_rental_type_id": 2, "car_plate": "EZ108GW", "virtual_rental_id": 382886, "car_category_id": 8, "car_category_type_id": 1, "lon": 7.616827, "carModelData": [100], "car_name": "Fiat 500", "onClick_disabled": false, "address": "Via Gioacchino Quarello, 1, 10135 Torino", "lat": 45.01705, "fuel_level": 77}, {"virtual_rental_type_id": 2, "car_plate": "EZ762DD", "virtual_rental_id": 381805, "car_category_id": 8, "car_category_type_id": 1, "lon": 7.6630454, "carModelData": [100], "car_name": "Fiat 500", "onClick_disabled": false, "address": "Corso Filippo Turati, 10134 Torino", "lat": 45.047478, "fuel_level": 76}, {"virtual_rental_type_id": 2, "car_plate": "EZ102TY", "virtual_rental_id": 381927, "car_category_id": 8, "car_category_type_id": 1, "lon": 7.658593, "carModelData": [], "car_name": "Fiat 500", "onClick_disabled": false, "address": "Via Verolengo, 131, Torino, TO, Italia", "lat": 45.09511, "fuel_level": 37}, {"virtual_rental_type_id": 2, "car_plate": "EZ161TY", "virtual_rental_id": 373228, "car_category_id": 8, "car_category_type_id": 1, "lon": 7.630939, "carModelData": [], "car_name": "Fiat 500", "onClick_disabled": false, "address": "Corso Monte Cucco, 108-114, 10141 Torino", "lat": 45.065784, "fuel_level": 68}, {"virtual_rental_type_id": 2, "car_plate": "EZ798DD", "virtual_rental_id": 369958, "car_category_id": 8, "car_category_type_id": 1, "lon": 7.658172, "carModelData": [100], "car_name": "Fiat 500", "onClick_disabled": false, "address": "Corso Svizzera, 160, 10144 Torino", "lat": 45.088196, "fuel_level": 60}, {"virtual_rental_type_id": 2, "car_plate": "EZ212GW", "virtual_rental_id": 374185, "car_category_id": 8, "car_category_type_id": 1, "lon": 7.635408, "carModelData": [100], "car_name": "Fiat 500", "onClick_disabled": false, "address": "Corso Orbassano, 255, 10137 Torino", "lat": 45.0403, "fuel_level": 74}, {"virtual_rental_type_id": 2, "car_plate": "EZ272GW", "virtual_rental_id": 388089, "car_category_id": 8, "car_category_type_id": 1, "lon": 7.6375313, "carModelData": [100], "car_name": "Fiat 500", "onClick_disabled": false, "address": "Via Isonzo, 129, 10141 Torino", "lat": 45.05932, "fuel_level": 98}, {"virtual_rental_type_id": 2, "car_plate": "EZ113GW", "virtual_rental_id": 398403, "car_category_id": 8, "car_category_type_id": 1, "lon": 7.6204414, "carModelData": [100], "car_name": "Fiat 500", "onClick_disabled": false, "address": "Corso Luigi Settembrini, 117-159, 10135 Torino", "lat": 45.028328, "fuel_level": 43}, {"virtual_rental_type_id": 2, "car_plate": "EZ788DD", "virtual_rental_id": 408367, "car_category_id": 8, "car_category_type_id": 1, "lon": 7.6322174, "carModelData": [100], "car_name": "Fiat 500", "onClick_disabled": false, "address": "Corso Unione Sovietica, 2-20, 10135 Torino", "lat": 45.01867, "fuel_level": 68}, {"virtual_rental_type_id": 2, "car_plate": "EZ869DF", "virtual_rental_id": 397761, "car_category_id": 8, "car_category_type_id": 1, "lon": 7.6884937, "carModelData": [100], "car_name": "Fiat 500", "onClick_disabled": false, "address": "Via Verr\u00e8s, 42, 10155 Torino", "lat": 45.095512, "fuel_level": 12}, {"virtual_rental_type_id": 2, "car_plate": "EZ834DD", "virtual_rental_id": 393673, "car_category_id": 8, "car_category_type_id": 1, "lon": 7.655569, "carModelData": [100], "car_name": "Fiat 500", "onClick_disabled": false, "address": "Corso Caio Plinio, 4, 10127 Torino", "lat": 45.026787, "fuel_level": 56}, {"virtual_rental_type_id": 2, "car_plate": "EZ268GW", "virtual_rental_id": 386908, "car_category_id": 8, "car_category_type_id": 1, "lon": 7.664835, "carModelData": [100], "car_name": "Fiat 500", "onClick_disabled": false, "address": "Corso Inghilterra, 11, 10138 Torino", "lat": 45.07063, "fuel_level": 37}, {"virtual_rental_type_id": 2, "car_plate": "EZ192TY", "virtual_rental_id": 404765, "car_category_id": 8, "car_category_type_id": 1, "lon": 7.654457, "carModelData": [], "car_name": "Fiat 500", "onClick_disabled": false, "address": "Piazza Adriano, 5, 10139 Torino", "lat": 45.07076, "fuel_level": 74}, {"virtual_rental_type_id": 2, "car_plate": "EZ530DD", "virtual_rental_id": 391630, "car_category_id": 8, "car_category_type_id": 1, "lon": 7.6089077, "carModelData": [100], "car_name": "Fiat 500", "onClick_disabled": false, "address": "Via Rieti, 10, 10095 Grugliasco TO", "lat": 45.065483, "fuel_level": 32}, {"virtual_rental_type_id": 2, "car_plate": "EZ755DD", "virtual_rental_id": 400656, "car_category_id": 8, "car_category_type_id": 1, "lon": 7.696334, "carModelData": [100], "car_name": "Fiat 500", "onClick_disabled": false, "address": "Via Gottardo, 95, 10155 Torino", "lat": 45.09833, "fuel_level": 27}, {"virtual_rental_type_id": 2, "car_plate": "EZ245GW", "virtual_rental_id": 405204, "car_category_id": 8, "car_category_type_id": 1, "lon": 7.716725, "carModelData": [100], "car_name": "Fiat 500", "onClick_disabled": false, "address": "Lungo Dora Voghera, 74, 10153 Torino", "lat": 45.07463, "fuel_level": 67}, {"virtual_rental_type_id": 2, "car_plate": "EZ258GW", "virtual_rental_id": 403344, "car_category_id": 8, "car_category_type_id": 1, "lon": 7.6334043, "carModelData": [100], "car_name": "Fiat 500", "onClick_disabled": false, "address": "Corso Unione Sovietica, 459, 10135 Torino", "lat": 45.020535, "fuel_level": 31}, {"virtual_rental_type_id": 2, "car_plate": "EZ798DF", "virtual_rental_id": 406448, "car_category_id": 8, "car_category_type_id": 1, "lon": 7.6380076, "carModelData": [100], "car_name": "Fiat 500", "onClick_disabled": false, "address": "Via Nichelino, 6, 10135 Torino", "lat": 45.02354, "fuel_level": 81}, {"virtual_rental_type_id": 2, "car_plate": "EZ086TY", "virtual_rental_id": 406392, "car_category_id": 8, "car_category_type_id": 1, "lon": 7.6386924, "carModelData": [], "car_name": "Fiat 500", "onClick_disabled": false, "address": "Via Cercenasco, 1, 10135 Torino", "lat": 45.024914, "fuel_level": 98}, {"virtual_rental_type_id": 2, "car_plate": "EZ071TY", "virtual_rental_id": 406437, "car_category_id": 8, "car_category_type_id": 1, "lon": 7.6342673, "carModelData": [], "car_name": "Fiat 500", "onClick_disabled": false, "address": "Corso Siracusa, 157, 10137 Torino", "lat": 45.041683, "fuel_level": 14}, {"virtual_rental_type_id": 2, "car_plate": "EZ260GW", "virtual_rental_id": 405755, "car_category_id": 8, "car_category_type_id": 1, "lon": 7.6824083, "carModelData": [100], "car_name": "Fiat 500", "onClick_disabled": false, "address": "Viale Dogali, 12, 10133 Torino", "lat": 45.042442, "fuel_level": 63}, {"virtual_rental_type_id": 2, "car_plate": "EZ072TY", "virtual_rental_id": 390912, "car_category_id": 8, "car_category_type_id": 1, "lon": 7.668803, "carModelData": [], "car_name": "Fiat 500", "onClick_disabled": false, "address": "Via Stresa, 31, 10149 Torino", "lat": 45.097755, "fuel_level": 16}, {"virtual_rental_type_id": 2, "car_plate": "EZ040TY", "virtual_rental_id": 399346, "car_category_id": 8, "car_category_type_id": 1, "lon": 7.7087455, "carModelData": [], "car_name": "Fiat 500", "onClick_disabled": false, "address": "Via Moncrivello, 1, 10154 Torino", "lat": 45.088768, "fuel_level": 23}, {"virtual_rental_type_id": 2, "car_plate": "EZ184TY", "virtual_rental_id": 406746, "car_category_id": 8, "car_category_type_id": 1, "lon": 7.6375866, "carModelData": [], "car_name": "Fiat 500", "onClick_disabled": false, "address": "Corso Unione Sovietica, 385, 10135 Torino", "lat": 45.024723, "fuel_level": 66}, {"virtual_rental_type_id": 2, "car_plate": "EZ524DD", "virtual_rental_id": 402269, "car_category_id": 8, "car_category_type_id": 1, "lon": 7.7003374, "carModelData": [100], "car_name": "Fiat 500", "onClick_disabled": false, "address": "Corso Casale, 20, 10131 Torino", "lat": 45.064144, "fuel_level": 25}, {"virtual_rental_type_id": 2, "car_plate": "EZ267GW", "virtual_rental_id": 409036, "car_category_id": 8, "car_category_type_id": 1, "lon": 7.6587186, "carModelData": [100], "car_name": "Fiat 500", "onClick_disabled": false, "address": "Corso Svizzera, 160, 10144 Torino", "lat": 45.088627, "fuel_level": 78}, {"virtual_rental_type_id": 2, "car_plate": "EZ203GW", "virtual_rental_id": 408414, "car_category_id": 8, "car_category_type_id": 1, "lon": 7.6648197, "carModelData": [100], "car_name": "Fiat 500", "onClick_disabled": false, "address": "Corso Bolzano, 25, 10121 Torino", "lat": 45.069305, "fuel_level": 90}, {"virtual_rental_type_id": 2, "car_plate": "EZ742DD", "virtual_rental_id": 416700, "car_category_id": 8, "car_category_type_id": 1, "lon": 7.6757493, "carModelData": [100], "car_name": "Fiat 500", "onClick_disabled": false, "address": "Corso Moncalieri 346, 10133 Torino", "lat": 45.028946, "fuel_level": 50}, {"virtual_rental_type_id": 2, "car_plate": "EZ800DD", "virtual_rental_id": 412990, "car_category_id": 8, "car_category_type_id": 1, "lon": 7.702168, "carModelData": [100], "car_name": "Fiat 500", "onClick_disabled": false, "address": "Via Amilcare Ponchielli, 29-37, 10154 Torino", "lat": 45.08702, "fuel_level": 90}, {"virtual_rental_type_id": 2, "car_plate": "EZ039TY", "virtual_rental_id": 426125, "car_category_id": 8, "car_category_type_id": 1, "lon": 7.660567, "carModelData": [], "car_name": "Fiat 500", "onClick_disabled": false, "address": "Via Sebastiano Caboto, 29, 10129 Torino", "lat": 45.05558, "fuel_level": 94}, {"virtual_rental_type_id": 2, "car_plate": "EZ833DD", "virtual_rental_id": 417512, "car_category_id": 8, "car_category_type_id": 1, "lon": 7.6958585, "carModelData": [100], "car_name": "Fiat 500", "onClick_disabled": false, "address": "Via Cagliari, 9A, 10153 Torino", "lat": 45.07479, "fuel_level": 56}, {"virtual_rental_type_id": 2, "car_plate": "EZ984DD", "virtual_rental_id": 425273, "car_category_id": 8, "car_category_type_id": 1, "lon": 7.7068896, "carModelData": [100], "car_name": "Fiat 500", "onClick_disabled": false, "address": "Via Strambino, 9, 10156 Torino", "lat": 45.11487, "fuel_level": 97}, {"virtual_rental_type_id": 2, "car_plate": "EZ802DD", "virtual_rental_id": 424493, "car_category_id": 8, "car_category_type_id": 1, "lon": 7.653286, "carModelData": [100], "car_name": "Fiat 500", "onClick_disabled": false, "address": "Via Carlo Bossoli, 83, 10135 Torino", "lat": 45.02788, "fuel_level": 84}, {"virtual_rental_type_id": 2, "car_plate": "EZ500DD", "virtual_rental_id": 412718, "car_category_id": 8, "car_category_type_id": 1, "lon": 7.7024837, "carModelData": [100], "car_name": "Fiat 500", "onClick_disabled": false, "address": "Corso Regina Margherita, 3, 10153 Torino", "lat": 45.070473, "fuel_level": 61}, {"virtual_rental_type_id": 2, "car_plate": "EZ063TY", "virtual_rental_id": 429689, "car_category_id": 8, "car_category_type_id": 1, "lon": 7.6885705, "carModelData": [], "car_name": "Fiat 500", "onClick_disabled": false, "address": "Via Sempione, 10155 Torino", "lat": 45.100113, "fuel_level": 62}, {"virtual_rental_type_id": 2, "car_plate": "EZ131TY", "virtual_rental_id": 412720, "car_category_id": 8, "car_category_type_id": 1, "lon": 7.723914, "carModelData": [], "car_name": "Fiat 500", "onClick_disabled": false, "address": "Pista ciclabile di Lungo Dora Voghera, 10153 Torino", "lat": 45.0775, "fuel_level": 26}, {"virtual_rental_type_id": 2, "car_plate": "EZ014TY", "virtual_rental_id": 414404, "car_category_id": 8, "car_category_type_id": 1, "lon": 7.7031813, "carModelData": [], "car_name": "Fiat 500", "onClick_disabled": false, "address": "Via Daniele Manin, 1, 10153 Torino", "lat": 45.071568, "fuel_level": 80}, {"virtual_rental_type_id": 2, "car_plate": "EZ125TY", "virtual_rental_id": 414444, "car_category_id": 8, "car_category_type_id": 1, "lon": 7.6281295, "carModelData": [], "car_name": "Fiat 500", "onClick_disabled": false, "address": "Via Luigi Ferdinando Marsigli, 22, 10141 Torino", "lat": 45.071056, "fuel_level": 22}, {"virtual_rental_type_id": 2, "car_plate": "EZ987DD", "virtual_rental_id": 419488, "car_category_id": 8, "car_category_type_id": 1, "lon": 7.663158, "carModelData": [100], "car_name": "Fiat 500", "onClick_disabled": false, "address": "Via Susa, 12, 10138 Torino", "lat": 45.07255, "fuel_level": 60}, {"virtual_rental_type_id": 2, "car_plate": "EZ178TY", "virtual_rental_id": 414177, "car_category_id": 8, "car_category_type_id": 1, "lon": 7.709723, "carModelData": [], "car_name": "Fiat 500", "onClick_disabled": false, "address": "Via Gottardo, 247-255, 10154 Torino", "lat": 45.092484, "fuel_level": 8}, {"virtual_rental_type_id": 2, "car_plate": "EZ283GW", "virtual_rental_id": 421782, "car_category_id": 8, "car_category_type_id": 1, "lon": 7.633813, "carModelData": [100], "car_name": "Fiat 500", "onClick_disabled": false, "address": "Piazza Pitagora, 12, 10137 Torino", "lat": 45.03905, "fuel_level": 73}, {"virtual_rental_type_id": 2, "car_plate": "EZ015TY", "virtual_rental_id": 422845, "car_category_id": 8, "car_category_type_id": 1, "lon": 7.707316, "carModelData": [], "car_name": "Fiat 500", "onClick_disabled": false, "address": "Via Gattinara, 1, 10153 Torino", "lat": 45.073837, "fuel_level": 81}, {"virtual_rental_type_id": 2, "car_plate": "EZ075TY", "virtual_rental_id": 410442, "car_category_id": 8, "car_category_type_id": 1, "lon": 7.683354, "carModelData": [], "car_name": "Fiat 500", "onClick_disabled": false, "address": "Via Madama Cristina, 12, 10125 Torino", "lat": 45.05856, "fuel_level": 53}, {"virtual_rental_type_id": 2, "car_plate": "EZ234GW", "virtual_rental_id": 421620, "car_category_id": 8, "car_category_type_id": 1, "lon": 7.638057, "carModelData": [100], "car_name": "Fiat 500", "onClick_disabled": false, "address": "Via Giovanni Servais, 11, 10146 Torino", "lat": 45.083424, "fuel_level": 96}, {"virtual_rental_type_id": 2, "car_plate": "EZ270GW", "virtual_rental_id": 421868, "car_category_id": 8, "car_category_type_id": 1, "lon": 7.669511, "carModelData": [100], "car_name": "Fiat 500", "onClick_disabled": false, "address": "Via Ventimiglia, 119-125, 10127 Torino", "lat": 45.025307, "fuel_level": 63}, {"virtual_rental_type_id": 2, "car_plate": "EZ050TY", "virtual_rental_id": 414303, "car_category_id": 8, "car_category_type_id": 1, "lon": 7.6420527, "carModelData": [], "car_name": "Fiat 500", "onClick_disabled": false, "address": "Via Ada Negri, 17, 10136 Torino", "lat": 45.051815, "fuel_level": 60}, {"virtual_rental_type_id": 2, "car_plate": "EZ784DD", "virtual_rental_id": 414602, "car_category_id": 8, "car_category_type_id": 1, "lon": 7.654957, "carModelData": [100], "car_name": "Fiat 500", "onClick_disabled": false, "address": "Via Giovanni Flecchia, 5, 10127 Torino", "lat": 45.023155, "fuel_level": 29}, {"virtual_rental_type_id": 2, "car_plate": "EZ179TY", "virtual_rental_id": 420719, "car_category_id": 8, "car_category_type_id": 1, "lon": 7.6260815, "carModelData": [], "car_name": "Fiat 500", "onClick_disabled": false, "address": "Via Giovanni Servais, 112/F, 10146 Torino", "lat": 45.083923, "fuel_level": 17}, {"virtual_rental_type_id": 2, "car_plate": "EZ112GW", "virtual_rental_id": 423394, "car_category_id": 8, "car_category_type_id": 1, "lon": 7.681725, "carModelData": [100], "car_name": "Fiat 500", "onClick_disabled": false, "address": "Via Francesco Baracca, 14, 10147 Torino", "lat": 45.09816, "fuel_level": 37}, {"virtual_rental_type_id": 2, "car_plate": "EZ196TY", "virtual_rental_id": 423103, "car_category_id": 8, "car_category_type_id": 1, "lon": 7.6116567, "carModelData": [], "car_name": "Fiat 500", "onClick_disabled": false, "address": "Via Plava, 80-84, 10135 Torino", "lat": 45.021835, "fuel_level": 53}, {"virtual_rental_type_id": 2, "car_plate": "EZ817DD", "virtual_rental_id": 414174, "car_category_id": 8, "car_category_type_id": 1, "lon": 7.6555367, "carModelData": [100], "car_name": "Fiat 500", "onClick_disabled": false, "address": "Corso Caio Plinio, 14, 10127 Torino", "lat": 45.02559, "fuel_level": 49}, {"virtual_rental_type_id": 2, "car_plate": "EZ793DD", "virtual_rental_id": 416426, "car_category_id": 8, "car_category_type_id": 1, "lon": 7.6594057, "carModelData": [100], "car_name": "Fiat 500", "onClick_disabled": false, "address": "Via Giacinto Collegno, 51, 10138 Torino", "lat": 45.0737, "fuel_level": 66}, {"virtual_rental_type_id": 2, "car_plate": "EZ026TY", "virtual_rental_id": 418584, "car_category_id": 8, "car_category_type_id": 1, "lon": 7.6335006, "carModelData": [], "car_name": "Fiat 500", "onClick_disabled": false, "address": "Via Guido Boggiani, 4a, 10141 Torino", "lat": 45.061947, "fuel_level": 66}, {"virtual_rental_type_id": 2, "car_plate": "EZ181TY", "virtual_rental_id": 418406, "car_category_id": 8, "car_category_type_id": 1, "lon": 7.6412153, "carModelData": [], "car_name": "Fiat 500", "onClick_disabled": false, "address": "Via Rodolfo Renier, 57, 10141 Torino", "lat": 45.058937, "fuel_level": 60}, {"virtual_rental_type_id": 2, "car_plate": "EZ519DD", "virtual_rental_id": 416747, "car_category_id": 8, "car_category_type_id": 1, "lon": 7.6506767, "carModelData": [100], "car_name": "Fiat 500", "onClick_disabled": false, "address": "Via Barge, 12, 10139 Torino", "lat": 45.06818, "fuel_level": 92}, {"virtual_rental_type_id": 2, "car_plate": "EZ008TY", "virtual_rental_id": 418808, "car_category_id": 8, "car_category_type_id": 1, "lon": 7.655322, "carModelData": [], "car_name": "Fiat 500", "onClick_disabled": false, "address": "Corso Francesco Ferrucci, 95, 10138 Torino", "lat": 45.066463, "fuel_level": 47}, {"virtual_rental_type_id": 2, "car_plate": "EZ831DD", "virtual_rental_id": 422118, "car_category_id": 8, "car_category_type_id": 1, "lon": 7.641547, "carModelData": [100], "car_name": "Fiat 500", "onClick_disabled": false, "address": "Via Montezemolo, 37, 10136 Torino", "lat": 45.046978, "fuel_level": 12}, {"virtual_rental_type_id": 2, "car_plate": "EZ057TY", "virtual_rental_id": 417478, "car_category_id": 8, "car_category_type_id": 1, "lon": 7.673574, "carModelData": [], "car_name": "Fiat 500", "onClick_disabled": false, "address": "Via S. Secondo, 27-29, 10128 Torino", "lat": 45.059395, "fuel_level": 61}, {"virtual_rental_type_id": 2, "car_plate": "EZ772DD", "virtual_rental_id": 421882, "car_category_id": 8, "car_category_type_id": 1, "lon": 7.690297, "carModelData": [100], "car_name": "Fiat 500", "onClick_disabled": false, "address": "Corso Regina Margherita, 7014, 10153 Torino", "lat": 45.07431, "fuel_level": 15}, {"virtual_rental_type_id": 2, "car_plate": "EZ170TY", "virtual_rental_id": 431551, "car_category_id": 8, "car_category_type_id": 1, "lon": 7.7032266, "carModelData": [], "car_name": "Fiat 500", "onClick_disabled": false, "address": "Via Tollegno, 63, 10154 Torino", "lat": 45.087082, "fuel_level": 82}, {"virtual_rental_type_id": 2, "car_plate": "EZ137GW", "virtual_rental_id": 431157, "car_category_id": 8, "car_category_type_id": 1, "lon": 7.6555943, "carModelData": [100], "car_name": "Fiat 500", "onClick_disabled": false, "address": "Via Carlo Bossoli, 103, 10127 Torino", "lat": 45.026985, "fuel_level": 48}, {"virtual_rental_type_id": 2, "car_plate": "EZ837DD", "virtual_rental_id": 431556, "car_category_id": 8, "car_category_type_id": 1, "lon": 7.6358004, "carModelData": [100], "car_name": "Fiat 500", "onClick_disabled": false, "address": "Via Giovanni Verga, 2a, 10135 Torino", "lat": 45.012283, "fuel_level": 100}, {"virtual_rental_type_id": 2, "car_plate": "EZ108TY", "virtual_rental_id": 431099, "car_category_id": 8, "car_category_type_id": 1, "lon": 7.6558547, "carModelData": [], "car_name": "Fiat 500", "onClick_disabled": false, "address": "Via Carlo Bossoli, 103, 10127 Torino", "lat": 45.026855, "fuel_level": 98}, {"virtual_rental_type_id": 2, "car_plate": "EZ828DD", "virtual_rental_id": 435072, "car_category_id": 8, "car_category_type_id": 1, "lon": 7.6306224, "carModelData": [100], "car_name": "Fiat 500", "onClick_disabled": false, "address": "Via Monfalcone, 177, 10136 Torino", "lat": 45.05385, "fuel_level": 88}, {"virtual_rental_type_id": 2, "car_plate": "EZ074TY", "virtual_rental_id": 431010, "car_category_id": 8, "car_category_type_id": 1, "lon": 7.7004886, "carModelData": [], "car_name": "Fiat 500", "onClick_disabled": false, "address": "Corso Regina Margherita, 48, 10153 Torino", "lat": 45.07122, "fuel_level": 34}, {"virtual_rental_type_id": 2, "car_plate": "EZ173TY", "virtual_rental_id": 438540, "car_category_id": 8, "car_category_type_id": 1, "lon": 7.608602, "carModelData": [], "car_name": "Fiat 500", "onClick_disabled": false, "address": "Via Giovanni Roveda, 16, 10135 Torino", "lat": 45.020775, "fuel_level": 80}, {"virtual_rental_type_id": 2, "car_plate": "EZ002TY", "virtual_rental_id": 432919, "car_category_id": 8, "car_category_type_id": 1, "lon": 7.6961904, "carModelData": [], "car_name": "Fiat 500", "onClick_disabled": false, "address": "Corso Verona, 20, 10152 Torino", "lat": 45.078636, "fuel_level": 31}, {"virtual_rental_type_id": 2, "car_plate": "EZ076TY", "virtual_rental_id": 436484, "car_category_id": 8, "car_category_type_id": 1, "lon": 7.6379275, "carModelData": [], "car_name": "Fiat 500", "onClick_disabled": false, "address": "Via Amalia Guglielmetti 10, 109, 10136 Torino", "lat": 45.05425, "fuel_level": 62}]