[{"virtual_rental_type_id": 2, "car_plate": "EZ116GW", "virtual_rental_id": 371776, "car_category_id": 8, "car_category_type_id": 1, "lon": 9.052437, "carModelData": [100], "car_name": "Fiat 500", "onClick_disabled": false, "address": "Via della Libert\u00e0, 36, 20019 Settimo Milanese MI", "lat": 45.484, "fuel_level": 66}, {"virtual_rental_type_id": 2, "car_plate": "EX520VG", "virtual_rental_id": 389726, "car_category_id": 8, "car_category_type_id": 1, "lon": 9.241359, "carModelData": [14, 100], "car_name": "Fiat 500", "onClick_disabled": false, "address": "Via Giuseppe Mazzini, 22, 20099 Sesto San Giovanni MI", "lat": 45.53919, "fuel_level": 54}, {"virtual_rental_type_id": 1, "car_plate": "ED04657", "virtual_rental_id": 371741, "car_category_id": 7, "car_category_type_id": 2, "lon": 9.236448, "carModelData": [100], "car_name": "Piaggio MP3", "onClick_disabled": false, "address": "Via Palmanova, 56, 20132 Milano", "lat": 45.496403, "fuel_level": 56}, {"virtual_rental_type_id": 2, "car_plate": "ET264CY", "virtual_rental_id": 379030, "car_category_id": 8, "car_category_type_id": 1, "lon": 9.174895, "carModelData": [100], "car_name": "Fiat 500", "onClick_disabled": false, "address": "Via Enrico Acerbi, 28, 20161 Milano", "lat": 45.528465, "fuel_level": 72}, {"virtual_rental_type_id": 1, "car_plate": "ED04621", "virtual_rental_id": 346778, "car_category_id": 7, "car_category_type_id": 2, "lon": 9.235162, "carModelData": [100], "car_name": "Piaggio MP3", "onClick_disabled": false, "address": "Via Luigi de Andreis, 7, 20137 Milano", "lat": 45.461254, "fuel_level": 85}, {"virtual_rental_type_id": 2, "car_plate": "ET304XF", "virtual_rental_id": 339927, "car_category_id": 8, "car_category_type_id": 1, "lon": 9.200626, "carModelData": [100], "car_name": "Fiat 500", "onClick_disabled": false, "address": "Via Giuseppe Ripamonti, 131-133, 20141 Milano", "lat": 45.4381, "fuel_level": 63}, {"virtual_rental_type_id": 2, "car_plate": "ET023XL", "virtual_rental_id": 376322, "car_category_id": 8, "car_category_type_id": 1, "lon": 9.059335, "carModelData": [100], "car_name": "Fiat 500", "onClick_disabled": false, "address": "Via Don Luigi Sturzo, 13, 20019 Settimo Milanese MI", "lat": 45.479935, "fuel_level": 98}, {"virtual_rental_type_id": 2, "car_plate": "ET317XF", "virtual_rental_id": 365791, "car_category_id": 8, "car_category_type_id": 1, "lon": 9.15464, "carModelData": [100], "car_name": "Fiat 500", "onClick_disabled": false, "address": "Via Voltri, 10, 20142 Milano", "lat": 45.434578, "fuel_level": 64}, {"virtual_rental_type_id": 2, "car_plate": "ET341XF", "virtual_rental_id": 326931, "car_category_id": 8, "car_category_type_id": 1, "lon": 9.122172, "carModelData": [100], "car_name": "Fiat 500", "onClick_disabled": false, "address": "Via Giuseppe Gabetti, 22, 20147 Milano", "lat": 45.468098, "fuel_level": 6}, {"virtual_rental_type_id": 2, "car_plate": "EX988VG", "virtual_rental_id": 350937, "car_category_id": 8, "car_category_type_id": 1, "lon": 9.097408, "carModelData": [100], "car_name": "Fiat 500", "onClick_disabled": false, "address": "Via Appennini, 205, 20151 Milano", "lat": 45.505188, "fuel_level": 64}, {"virtual_rental_type_id": 2, "car_plate": "ET266CY", "virtual_rental_id": 412329, "car_category_id": 8, "car_category_type_id": 1, "lon": 9.124662, "carModelData": [100], "car_name": "Fiat 500", "onClick_disabled": false, "address": "Via Giuseppe Garibaldi, 15B4, 20090 Buccinasco MI", "lat": 45.430786, "fuel_level": 70}, {"virtual_rental_type_id": 1, "car_plate": "ED57411", "virtual_rental_id": 306309, "car_category_id": 7, "car_category_type_id": 2, "lon": 9.089194, "carModelData": [100], "car_name": "Piaggio MP3", "onClick_disabled": false, "address": "Via Benedetto Diotti, 13, 20153 Milano", "lat": 45.469273, "fuel_level": 21}, {"virtual_rental_type_id": 1, "car_plate": "ED04656", "virtual_rental_id": 379739, "car_category_id": 7, "car_category_type_id": 2, "lon": 9.111528, "carModelData": [100], "car_name": "Piaggio MP3", "onClick_disabled": false, "address": "Via Antonio Vivaldi, 22, 20090 Buccinasco MI", "lat": 45.415596, "fuel_level": 70}, {"virtual_rental_type_id": 2, "car_plate": "FA512YY", "virtual_rental_id": 371242, "car_category_id": 8, "car_category_type_id": 1, "lon": 9.169901, "carModelData": [], "car_name": "Fiat 500", "onClick_disabled": false, "address": "Via Teresa Noce, 4, 20142 Milano", "lat": 45.416786, "fuel_level": 68}, {"virtual_rental_type_id": 1, "car_plate": "ED57152", "virtual_rental_id": 299122, "car_category_id": 7, "car_category_type_id": 2, "lon": 9.147495, "carModelData": [100], "car_name": "Piaggio MP3", "onClick_disabled": false, "address": "Via Carlo Amoretti, 92, 20157 Milano", "lat": 45.52075, "fuel_level": 37}, {"virtual_rental_type_id": 2, "car_plate": "FA469YY", "virtual_rental_id": 377572, "car_category_id": 8, "car_category_type_id": 1, "lon": 9.105357, "carModelData": [], "car_name": "Fiat 500", "onClick_disabled": false, "address": "Via dei Platani, 3, 20090 Buccinasco MI", "lat": 45.425762, "fuel_level": 6}, {"virtual_rental_type_id": 2, "car_plate": "FA408YY", "virtual_rental_id": 396045, "car_category_id": 8, "car_category_type_id": 1, "lon": 9.211265, "carModelData": [14], "car_name": "Fiat 500", "onClick_disabled": false, "address": "Via Galvano Fiamma, 13, 20129 Milano", "lat": 45.46404, "fuel_level": 100}, {"virtual_rental_type_id": 2, "car_plate": "ET678XJ", "virtual_rental_id": 392957, "car_category_id": 8, "car_category_type_id": 1, "lon": 9.198666, "carModelData": [100], "car_name": "Fiat 500", "onClick_disabled": false, "address": "Via Rutilia, 6, 20141 Milano", "lat": 45.44017, "fuel_level": 98}, {"virtual_rental_type_id": 1, "car_plate": "ED57074", "virtual_rental_id": 285366, "car_category_id": 7, "car_category_type_id": 2, "lon": 9.108533, "carModelData": [100], "car_name": "Piaggio MP3", "onClick_disabled": false, "address": "Via Vittorio Emanuele II, 1, 20090 Buccinasco MI", "lat": 45.42221, "fuel_level": 50}, {"virtual_rental_type_id": 2, "car_plate": "ET939DD", "virtual_rental_id": 407656, "car_category_id": 8, "car_category_type_id": 1, "lon": 9.195521, "carModelData": [], "car_name": "Fiat 500", "onClick_disabled": false, "address": "Via Palanzone, 12, 20162 Milano", "lat": 45.518974, "fuel_level": 60}, {"virtual_rental_type_id": 2, "car_plate": "EZ364GW", "virtual_rental_id": 327998, "car_category_id": 8, "car_category_type_id": 1, "lon": 9.198024, "carModelData": [], "car_name": "Fiat 500", "onClick_disabled": false, "address": "Via Arbe, 37-45, 20125 Milano", "lat": 45.498337, "fuel_level": 27}, {"virtual_rental_type_id": 2, "car_plate": "FA797WD", "virtual_rental_id": 329198, "car_category_id": 8, "car_category_type_id": 1, "lon": 9.227919, "carModelData": [], "car_name": "Fiat 500", "onClick_disabled": false, "address": "Via Accademia, 15, 20131 Milano", "lat": 45.4853, "fuel_level": 16}, {"virtual_rental_type_id": 2, "car_plate": "ET357XF", "virtual_rental_id": 322572, "car_category_id": 8, "car_category_type_id": 1, "lon": 9.169625, "carModelData": [100], "car_name": "Fiat 500", "onClick_disabled": false, "address": "Via Ennio Morlotti, 12-16, 20161 Milano", "lat": 45.52947, "fuel_level": 100}, {"virtual_rental_type_id": 2, "car_plate": "ET301XF", "virtual_rental_id": 408182, "car_category_id": 8, "car_category_type_id": 1, "lon": 9.241807, "carModelData": [100], "car_name": "Fiat 500", "onClick_disabled": false, "address": "Via Tommaso Pini, 4, 20134 Milano", "lat": 45.48531, "fuel_level": 80}, {"virtual_rental_type_id": 2, "car_plate": "FA835WD", "virtual_rental_id": 382854, "car_category_id": 8, "car_category_type_id": 1, "lon": 9.108598, "carModelData": [], "car_name": "Fiat 500", "onClick_disabled": false, "address": "Via Riccardo Bacchelli, 20151 Milano", "lat": 45.49729, "fuel_level": 34}, {"virtual_rental_type_id": 2, "car_plate": "ET285XF", "virtual_rental_id": 325483, "car_category_id": 8, "car_category_type_id": 1, "lon": 9.215733, "carModelData": [100], "car_name": "Fiat 500", "onClick_disabled": false, "address": "Via Tertulliano, 11-19, 20137 Milano", "lat": 45.450024, "fuel_level": 100}, {"virtual_rental_type_id": 2, "car_plate": "FA432YY", "virtual_rental_id": 342508, "car_category_id": 8, "car_category_type_id": 1, "lon": 9.211067, "carModelData": [], "car_name": "Fiat 500", "onClick_disabled": false, "address": "Via Raffaello Giolli, 25, 20162 Milano", "lat": 45.526806, "fuel_level": 71}, {"virtual_rental_type_id": 2, "car_plate": "ET372XF", "virtual_rental_id": 382616, "car_category_id": 8, "car_category_type_id": 1, "lon": 9.155588, "carModelData": [100], "car_name": "Fiat 500", "onClick_disabled": false, "address": "Via Agostino Depretis, 97-123, 20142 Milano", "lat": 45.42964, "fuel_level": 98}, {"virtual_rental_type_id": 1, "car_plate": "ED57392", "virtual_rental_id": 274652, "car_category_id": 7, "car_category_type_id": 2, "lon": 9.051652, "carModelData": [100], "car_name": "Piaggio MP3", "onClick_disabled": false, "address": "Via della Libert\u00e0, 72, 20019 Settimo Milanese MI", "lat": 45.48755, "fuel_level": 31}, {"virtual_rental_type_id": 1, "car_plate": "ED57142", "virtual_rental_id": 283924, "car_category_id": 7, "car_category_type_id": 2, "lon": 9.236194, "carModelData": [100], "car_name": "Piaggio MP3", "onClick_disabled": false, "address": "Via Asiago, 113, 20128 Milano", "lat": 45.507362, "fuel_level": 68}, {"virtual_rental_type_id": 2, "car_plate": "EZ254GW", "virtual_rental_id": 346131, "car_category_id": 8, "car_category_type_id": 1, "lon": 9.095896, "carModelData": [100], "car_name": "Fiat 500", "onClick_disabled": false, "address": "Via Eugenio Curiel, 3, 20090 Cesano Boscone MI", "lat": 45.44102, "fuel_level": 56}, {"virtual_rental_type_id": 2, "car_plate": "ET667XJ", "virtual_rental_id": 376044, "car_category_id": 8, "car_category_type_id": 1, "lon": 9.128226, "carModelData": [100], "car_name": "Fiat 500", "onClick_disabled": false, "address": "Via Antonio Gramsci, 4, 20090 Buccinasco MI", "lat": 45.419437, "fuel_level": 36}, {"virtual_rental_type_id": 2, "car_plate": "FA484YY", "virtual_rental_id": 440506, "car_category_id": 8, "car_category_type_id": 1, "lon": 9.105395, "carModelData": [], "car_name": "Fiat 500", "onClick_disabled": false, "address": "Via Matilde Viscontini, 1-7, 20151 Milano", "lat": 45.492134, "fuel_level": 74}, {"virtual_rental_type_id": 2, "car_plate": "FE804SS", "virtual_rental_id": 326308, "car_category_id": 8, "car_category_type_id": 1, "lon": 9.27039, "carModelData": [], "car_name": "Fiat 500", "onClick_disabled": false, "address": "Via Agadir, 38, 20097 San Donato Milanese MI", "lat": 45.422054, "fuel_level": 100}, {"virtual_rental_type_id": 2, "car_plate": "EZ183GW", "virtual_rental_id": 352258, "car_category_id": 8, "car_category_type_id": 1, "lon": 9.2439375, "carModelData": [], "car_name": "Fiat 500", "onClick_disabled": false, "address": "Via Vittorio Bottego, 7, 20132 Milano", "lat": 45.503773, "fuel_level": 91}, {"virtual_rental_type_id": 2, "car_plate": "ET996DD", "virtual_rental_id": 328572, "car_category_id": 8, "car_category_type_id": 1, "lon": 9.132061, "carModelData": [100], "car_name": "Fiat 500", "onClick_disabled": false, "address": "Via Ernesto Besenzanica, 9, 20147 Milano", "lat": 45.464424, "fuel_level": 98}, {"virtual_rental_type_id": 2, "car_plate": "FA422YY", "virtual_rental_id": 361693, "car_category_id": 8, "car_category_type_id": 1, "lon": 9.156492, "carModelData": [], "car_name": "Fiat 500", "onClick_disabled": false, "address": "Via Agostino Depretis, 97-123, 20142 Milano", "lat": 45.429333, "fuel_level": 69}, {"virtual_rental_type_id": 2, "car_plate": "EZ211TY", "virtual_rental_id": 345888, "car_category_id": 8, "car_category_type_id": 1, "lon": 9.123437, "carModelData": [], "car_name": "Fiat 500", "onClick_disabled": false, "address": "Via Giuseppe Garibaldi, 13, 20090 Buccinasco MI", "lat": 45.430294, "fuel_level": 73}, {"virtual_rental_type_id": 2, "car_plate": "EZ358GW", "virtual_rental_id": 340533, "car_category_id": 8, "car_category_type_id": 1, "lon": 9.16428, "carModelData": [14], "car_name": "Fiat 500", "onClick_disabled": false, "address": "Via Alessandro Litta Modignani, 12, 20161 Milano", "lat": 45.523663, "fuel_level": 69}, {"virtual_rental_type_id": 1, "car_plate": "ED57395", "virtual_rental_id": 274833, "car_category_id": 7, "car_category_type_id": 2, "lon": 9.119817, "carModelData": [100], "car_name": "Piaggio MP3", "onClick_disabled": false, "address": "Via Francesco Pastonchi, 2, 20153 Milano", "lat": 45.47051, "fuel_level": 70}, {"virtual_rental_type_id": 1, "car_plate": "ED57394", "virtual_rental_id": 274726, "car_category_id": 7, "car_category_type_id": 2, "lon": 9.129213, "carModelData": [100], "car_name": "Piaggio MP3", "onClick_disabled": false, "address": "Via Guido Rossa, 30, 20090 Buccinasco MI", "lat": 45.417053, "fuel_level": 51}, {"virtual_rental_type_id": 2, "car_plate": "ET013XL", "virtual_rental_id": 416885, "car_category_id": 8, "car_category_type_id": 1, "lon": 9.132007, "carModelData": [100], "car_name": "Fiat 500", "onClick_disabled": false, "address": "Via Antonio Pianella, 10, 20148 Milano", "lat": 45.471, "fuel_level": 49}, {"virtual_rental_type_id": 2, "car_plate": "EZ331GW", "virtual_rental_id": 329898, "car_category_id": 8, "car_category_type_id": 1, "lon": 9.209391, "carModelData": [], "car_name": "Fiat 500", "onClick_disabled": false, "address": "Via Sciesa Amatore, 9, 20135 Milano", "lat": 45.460964, "fuel_level": 100}, {"virtual_rental_type_id": 2, "car_plate": "EZ765NF", "virtual_rental_id": 322408, "car_category_id": 8, "car_category_type_id": 1, "lon": 9.23105, "carModelData": [], "car_name": "Fiat 500", "onClick_disabled": false, "address": "Via Fratelli Picardi, 168, 20099 Sesto San Giovanni MI", "lat": 45.544464, "fuel_level": 80}, {"virtual_rental_type_id": 1, "car_plate": "ED57147", "virtual_rental_id": 333072, "car_category_id": 7, "car_category_type_id": 2, "lon": 9.124896, "carModelData": [100], "car_name": "Piaggio MP3", "onClick_disabled": false, "address": "Via Privata Gadames, 93, 20151 Milano", "lat": 45.50085, "fuel_level": 89}, {"virtual_rental_type_id": 1, "car_plate": "ED04642", "virtual_rental_id": 275111, "car_category_id": 7, "car_category_type_id": 2, "lon": 9.108592, "carModelData": [100], "car_name": "Piaggio MP3", "onClick_disabled": false, "address": "Via Romagna, 26, 20090 Buccinasco MI", "lat": 45.41579, "fuel_level": 63}, {"virtual_rental_type_id": 2, "car_plate": "ET029XL", "virtual_rental_id": 353333, "car_category_id": 8, "car_category_type_id": 1, "lon": 9.173638, "carModelData": [100], "car_name": "Fiat 500", "onClick_disabled": false, "address": "Via Antonio Carnevali, 22, 20158 Milano", "lat": 45.503914, "fuel_level": 76}, {"virtual_rental_type_id": 2, "car_plate": "EZ342GW", "virtual_rental_id": 332940, "car_category_id": 8, "car_category_type_id": 1, "lon": 9.232325, "carModelData": [], "car_name": "Fiat 500", "onClick_disabled": false, "address": "Via Carlo Forlanini, 6-18, 20133 Milano", "lat": 45.4718, "fuel_level": 44}, {"virtual_rental_type_id": 2, "car_plate": "FA426YY", "virtual_rental_id": 418860, "car_category_id": 8, "car_category_type_id": 1, "lon": 9.100282, "carModelData": [], "car_name": "Fiat 500", "onClick_disabled": false, "address": "Via Valsesia, 26, 20152 Milano", "lat": 45.455135, "fuel_level": 45}, {"virtual_rental_type_id": 2, "car_plate": "ET971XK", "virtual_rental_id": 409536, "car_category_id": 8, "car_category_type_id": 1, "lon": 9.244194, "carModelData": [100], "car_name": "Fiat 500", "onClick_disabled": false, "address": "Via Mecenate, 32, 20138 Milano", "lat": 45.45531, "fuel_level": 100}, {"virtual_rental_type_id": 2, "car_plate": "ET303XF", "virtual_rental_id": 360721, "car_category_id": 8, "car_category_type_id": 1, "lon": 9.247451, "carModelData": [100], "car_name": "Fiat 500", "onClick_disabled": false, "address": "Via Monte Piana, 12-14, 20138 Milano", "lat": 45.430912, "fuel_level": 87}, {"virtual_rental_type_id": 2, "car_plate": "ET952XK", "virtual_rental_id": 358932, "car_category_id": 8, "car_category_type_id": 1, "lon": 9.128504, "carModelData": [100], "car_name": "Fiat 500", "onClick_disabled": false, "address": "Via Alfonso Capecelatro, 54, 20148 Milano", "lat": 45.472233, "fuel_level": 75}, {"virtual_rental_type_id": 2, "car_plate": "EZ027TY", "virtual_rental_id": 357036, "car_category_id": 8, "car_category_type_id": 1, "lon": 9.210589, "carModelData": [], "car_name": "Fiat 500", "onClick_disabled": false, "address": "Via Raffaello Giolli, 19, 20162 Milano", "lat": 45.52583, "fuel_level": 46}, {"virtual_rental_type_id": 2, "car_plate": "ET609XJ", "virtual_rental_id": 394995, "car_category_id": 8, "car_category_type_id": 1, "lon": 9.244651, "carModelData": [100], "car_name": "Fiat 500", "onClick_disabled": false, "address": "Via Lombardia, 35, 20099 Sesto San Giovanni MI", "lat": 45.520473, "fuel_level": 77}, {"virtual_rental_type_id": 2, "car_plate": "ET681XJ", "virtual_rental_id": 377709, "car_category_id": 8, "car_category_type_id": 1, "lon": 9.185935, "carModelData": [100], "car_name": "Fiat 500", "onClick_disabled": false, "address": "Via Privata Lusitania, 20141 Milano", "lat": 45.434677, "fuel_level": 37}, {"virtual_rental_type_id": 1, "car_plate": "ED57373", "virtual_rental_id": 312205, "car_category_id": 7, "car_category_type_id": 2, "lon": 9.215767, "carModelData": [99, 100], "car_name": "Piaggio MP3", "onClick_disabled": false, "address": "Via Lattanzio, 37, 20137 Milano", "lat": 45.45144, "fuel_level": 100}, {"virtual_rental_type_id": 2, "car_plate": "ET962XK", "virtual_rental_id": 373289, "car_category_id": 8, "car_category_type_id": 1, "lon": 9.283527, "carModelData": [100], "car_name": "Fiat 500", "onClick_disabled": false, "address": "Via Felice Maritano, 24, 20097 San Donato Milanese MI", "lat": 45.420097, "fuel_level": 67}, {"virtual_rental_type_id": 2, "car_plate": "ET983CW", "virtual_rental_id": 336908, "car_category_id": 8, "car_category_type_id": 1, "lon": 9.170095, "carModelData": [14], "car_name": "Fiat 500", "onClick_disabled": false, "address": "Via Calabria, 5-9, 20158 Milano", "lat": 45.495373, "fuel_level": 75}, {"virtual_rental_type_id": 2, "car_plate": "EZ766NF", "virtual_rental_id": 329073, "car_category_id": 8, "car_category_type_id": 1, "lon": 9.105996, "carModelData": [], "car_name": "Fiat 500", "onClick_disabled": false, "address": "Via Mignone Milly Carla, 11, 20153 Milano", "lat": 45.47363, "fuel_level": 98}, {"virtual_rental_type_id": 2, "car_plate": "ET271CY", "virtual_rental_id": 357270, "car_category_id": 8, "car_category_type_id": 1, "lon": 9.234448, "carModelData": [100], "car_name": "Fiat 500", "onClick_disabled": false, "address": "Via Ferdinando Marescalchi, 6, 20133 Milano", "lat": 45.468845, "fuel_level": 80}, {"virtual_rental_type_id": 2, "car_plate": "ET954DD", "virtual_rental_id": 352744, "car_category_id": 8, "car_category_type_id": 1, "lon": 9.150118, "carModelData": [100], "car_name": "Fiat 500", "onClick_disabled": false, "address": "Via Enrico Sertoli, 2-10, 20157 Milano", "lat": 45.516968, "fuel_level": 27}, {"virtual_rental_type_id": 2, "car_plate": "FA450YY", "virtual_rental_id": 433158, "car_category_id": 8, "car_category_type_id": 1, "lon": 9.061157, "carModelData": [], "car_name": "Fiat 500", "onClick_disabled": false, "address": "Via Leonardo da Vinci, 56, 20019 Settimo Milanese MI", "lat": 45.469772, "fuel_level": 80}, {"virtual_rental_type_id": 2, "car_plate": "FA498YY", "virtual_rental_id": 358047, "car_category_id": 8, "car_category_type_id": 1, "lon": 9.128221, "carModelData": [14], "car_name": "Fiat 500", "onClick_disabled": false, "address": "Via Antonio Gramsci, 4, 20090 Buccinasco MI", "lat": 45.419422, "fuel_level": 65}, {"virtual_rental_type_id": 2, "car_plate": "EZ037TY", "virtual_rental_id": 349862, "car_category_id": 8, "car_category_type_id": 1, "lon": 9.071543, "carModelData": [], "car_name": "Fiat 500", "onClick_disabled": false, "address": "Via Melegnano, 22, 20019 Settimo Milanese MI", "lat": 45.465378, "fuel_level": 78}, {"virtual_rental_type_id": 2, "car_plate": "ET869DD", "virtual_rental_id": 382699, "car_category_id": 8, "car_category_type_id": 1, "lon": 9.24555, "carModelData": [100], "car_name": "Fiat 500", "onClick_disabled": false, "address": "Via Ugo la Malfa, 12, 20128 Milano", "lat": 45.51755, "fuel_level": 98}, {"virtual_rental_type_id": 2, "car_plate": "ET652XJ", "virtual_rental_id": 382534, "car_category_id": 8, "car_category_type_id": 1, "lon": 9.244664, "carModelData": [100], "car_name": "Fiat 500", "onClick_disabled": false, "address": "Via Rogoredo, 49, 20138 Milano", "lat": 45.43063, "fuel_level": 58}, {"virtual_rental_type_id": 1, "car_plate": "DR81188", "virtual_rental_id": 373853, "car_category_id": 7, "car_category_type_id": 2, "lon": 9.110529, "carModelData": [100], "car_name": "Piaggio MP3", "onClick_disabled": false, "address": "Via Marsala, 20090 Buccinasco MI", "lat": 45.425076, "fuel_level": 44}, {"virtual_rental_type_id": 2, "car_plate": "ET967XK", "virtual_rental_id": 377049, "car_category_id": 8, "car_category_type_id": 1, "lon": 9.244658, "carModelData": [100], "car_name": "Fiat 500", "onClick_disabled": false, "address": "Via S. Mirocle, 11, 20138 Milano", "lat": 45.433887, "fuel_level": 83}, {"virtual_rental_type_id": 1, "car_plate": "ED57065", "virtual_rental_id": 361416, "car_category_id": 7, "car_category_type_id": 2, "lon": 9.236947, "carModelData": [100], "car_name": "Piaggio MP3", "onClick_disabled": false, "address": "Via Ponte Nuovo, 40, 20128 Milano", "lat": 45.507553, "fuel_level": 57}, {"virtual_rental_type_id": 2, "car_plate": "ET994DD", "virtual_rental_id": 372564, "car_category_id": 8, "car_category_type_id": 1, "lon": 9.185239, "carModelData": [14, 100], "car_name": "Fiat 500", "onClick_disabled": false, "address": "Piazza Caduti del Lavoro, 5, 20141 Milano", "lat": 45.443428, "fuel_level": 88}, {"virtual_rental_type_id": 2, "car_plate": "EZ885DF", "virtual_rental_id": 361858, "car_category_id": 8, "car_category_type_id": 1, "lon": 9.173483, "carModelData": [100], "car_name": "Fiat 500", "onClick_disabled": false, "address": "Via Eugenio Curiel, 2, 20142 Milano MI", "lat": 45.40086, "fuel_level": 43}, {"virtual_rental_type_id": 2, "car_plate": "ET354XF", "virtual_rental_id": 342754, "car_category_id": 8, "car_category_type_id": 1, "lon": 9.124201, "carModelData": [100], "car_name": "Fiat 500", "onClick_disabled": false, "address": "Via Passo di Fargorida, 12, 20148 Milano", "lat": 45.4708, "fuel_level": 67}, {"virtual_rental_type_id": 2, "car_plate": "EZ282GW", "virtual_rental_id": 365540, "car_category_id": 8, "car_category_type_id": 1, "lon": 9.156587, "carModelData": [100], "car_name": "Fiat 500", "onClick_disabled": false, "address": "Via Umberto Ceva, 29, 20157 Milano", "lat": 45.51501, "fuel_level": 100}, {"virtual_rental_type_id": 1, "car_plate": "ED04647", "virtual_rental_id": 274703, "car_category_id": 7, "car_category_type_id": 2, "lon": 9.105773, "carModelData": [100], "car_name": "Piaggio MP3", "onClick_disabled": false, "address": "Via Remigio Paone, 4, 20153 Milano", "lat": 45.470787, "fuel_level": 100}, {"virtual_rental_type_id": 2, "car_plate": "ET989CW", "virtual_rental_id": 322430, "car_category_id": 8, "car_category_type_id": 1, "lon": 9.145403, "carModelData": [100], "car_name": "Fiat 500", "onClick_disabled": false, "address": "Via Carlo Amoretti, 78, 20157 Milano", "lat": 45.519638, "fuel_level": 70}, {"virtual_rental_type_id": 2, "car_plate": "EZ375GW", "virtual_rental_id": 403630, "car_category_id": 8, "car_category_type_id": 1, "lon": 9.252374, "carModelData": [], "car_name": "Fiat 500", "onClick_disabled": false, "address": "Via Caduti in Missione di Pace, 20134 Milano", "lat": 45.478024, "fuel_level": 41}, {"virtual_rental_type_id": 2, "car_plate": "ET275CY", "virtual_rental_id": 333341, "car_category_id": 8, "car_category_type_id": 1, "lon": 9.134074, "carModelData": [100], "car_name": "Fiat 500", "onClick_disabled": false, "address": "Via Matteo Civitali, 25, 20148 Milano", "lat": 45.471046, "fuel_level": 78}, {"virtual_rental_type_id": 1, "car_plate": "ED04634", "virtual_rental_id": 368071, "car_category_id": 7, "car_category_type_id": 2, "lon": 9.197752, "carModelData": [100], "car_name": "Piaggio MP3", "onClick_disabled": false, "address": "Piazza Enrico Chiaradia, 14-16, 20141 Milano", "lat": 45.436768, "fuel_level": 85}, {"virtual_rental_type_id": 2, "car_plate": "ET579XJ", "virtual_rental_id": 344796, "car_category_id": 8, "car_category_type_id": 1, "lon": 9.096433, "carModelData": [100], "car_name": "Fiat 500", "onClick_disabled": false, "address": "Via Francesco Cilea, 128, 20151 Milano", "lat": 45.500134, "fuel_level": 44}, {"virtual_rental_type_id": 1, "car_plate": "ED57154", "virtual_rental_id": 300709, "car_category_id": 7, "car_category_type_id": 2, "lon": 9.216437, "carModelData": [99, 100], "car_name": "Piaggio MP3", "onClick_disabled": false, "address": "Via Alberto Einstein, 3, 20137 Milano", "lat": 45.450577, "fuel_level": 62}, {"virtual_rental_type_id": 2, "car_plate": "EZ250GW", "virtual_rental_id": 389517, "car_category_id": 8, "car_category_type_id": 1, "lon": 9.254366, "carModelData": [100], "car_name": "Fiat 500", "onClick_disabled": false, "address": "Piazza Caduti e Dispersi in Russia, 1, 20134 Milano", "lat": 45.490417, "fuel_level": 18}, {"virtual_rental_type_id": 1, "car_plate": "ED04628", "virtual_rental_id": 284207, "car_category_id": 7, "car_category_type_id": 2, "lon": 9.216617, "carModelData": [99, 100], "car_name": "Piaggio MP3", "onClick_disabled": false, "address": "Via Alberto Einstein, 3, 20137 Milano", "lat": 45.45054, "fuel_level": 100}, {"virtual_rental_type_id": 2, "car_plate": "ET977DD", "virtual_rental_id": 386509, "car_category_id": 8, "car_category_type_id": 1, "lon": 9.124984, "carModelData": [100], "car_name": "Fiat 500", "onClick_disabled": false, "address": "Via Lomellina, 35, 20090 Buccinasco MI", "lat": 45.41506, "fuel_level": 26}, {"virtual_rental_type_id": 2, "car_plate": "ET981XK", "virtual_rental_id": 397688, "car_category_id": 8, "car_category_type_id": 1, "lon": 9.228884, "carModelData": [100], "car_name": "Fiat 500", "onClick_disabled": false, "address": "Via Varsavia, 15, 20137 Milano", "lat": 45.448948, "fuel_level": 89}, {"virtual_rental_type_id": 2, "car_plate": "ET346XF", "virtual_rental_id": 350912, "car_category_id": 8, "car_category_type_id": 1, "lon": 9.190218, "carModelData": [100], "car_name": "Fiat 500", "onClick_disabled": false, "address": "Via Privata Leone da Perego, 21, 20162 Milano", "lat": 45.52437, "fuel_level": 80}, {"virtual_rental_type_id": 2, "car_plate": "ET850DD", "virtual_rental_id": 322397, "car_category_id": 8, "car_category_type_id": 1, "lon": 9.209882, "carModelData": [100], "car_name": "Fiat 500", "onClick_disabled": false, "address": "Piazzale Libia, 15, 20135 Milano", "lat": 45.455433, "fuel_level": 95}, {"virtual_rental_type_id": 2, "car_plate": "EZ038TY", "virtual_rental_id": 341180, "car_category_id": 8, "car_category_type_id": 1, "lon": 9.249758, "carModelData": [], "car_name": "Fiat 500", "onClick_disabled": false, "address": "Via Carlo Feltrinelli, 12, 20138 Milano", "lat": 45.432495, "fuel_level": 97}, {"virtual_rental_type_id": 2, "car_plate": "EZ170GW", "virtual_rental_id": 348762, "car_category_id": 8, "car_category_type_id": 1, "lon": 9.228491, "carModelData": [], "car_name": "Fiat 500", "onClick_disabled": false, "address": "Via Fabio Massimo, 154, 20139 Milano", "lat": 45.434887, "fuel_level": 65}, {"virtual_rental_type_id": 2, "car_plate": "ET614XJ", "virtual_rental_id": 371323, "car_category_id": 8, "car_category_type_id": 1, "lon": 9.181698, "carModelData": [14, 100], "car_name": "Fiat 500", "onClick_disabled": false, "address": "Via Balilla, 12, 20136 Milano", "lat": 45.448055, "fuel_level": 93}, {"virtual_rental_type_id": 1, "car_plate": "ED57396", "virtual_rental_id": 275123, "car_category_id": 7, "car_category_type_id": 2, "lon": 9.13155, "carModelData": [100], "car_name": "Piaggio MP3", "onClick_disabled": false, "address": "Via Rembrandt, 74, 20148 Milano", "lat": 45.46799, "fuel_level": 35}, {"virtual_rental_type_id": 2, "car_plate": "FA457YY", "virtual_rental_id": 423343, "car_category_id": 8, "car_category_type_id": 1, "lon": 9.088931, "carModelData": [], "car_name": "Fiat 500", "onClick_disabled": false, "address": "Via Privata S. Romanello, 20153 Milano", "lat": 45.482765, "fuel_level": 84}, {"virtual_rental_type_id": 2, "car_plate": "ET592XJ", "virtual_rental_id": 325913, "car_category_id": 8, "car_category_type_id": 1, "lon": 9.11886, "carModelData": [100], "car_name": "Fiat 500", "onClick_disabled": false, "address": "Via Emanuele Kant, 2-6, 20151 Milano", "lat": 45.4969, "fuel_level": 47}, {"virtual_rental_type_id": 1, "car_plate": "ED57419", "virtual_rental_id": 274863, "car_category_id": 7, "car_category_type_id": 2, "lon": 9.216067, "carModelData": [99, 100], "car_name": "Piaggio MP3", "onClick_disabled": false, "address": "Via Lattanzio, 38, 20137 Milano", "lat": 45.45146, "fuel_level": 100}, {"virtual_rental_type_id": 1, "car_plate": "ED04639", "virtual_rental_id": 282494, "car_category_id": 7, "car_category_type_id": 2, "lon": 9.15418, "carModelData": [100], "car_name": "Piaggio MP3", "onClick_disabled": false, "address": "Via Marcantonio Colonna, 14, 20149 Milano", "lat": 45.48585, "fuel_level": 71}, {"virtual_rental_type_id": 2, "car_plate": "ET331XF", "virtual_rental_id": 370287, "car_category_id": 8, "car_category_type_id": 1, "lon": 9.113032, "carModelData": [100], "car_name": "Fiat 500", "onClick_disabled": false, "address": "Via F.R.Lamennais, 19, 20153 Milano", "lat": 45.47434, "fuel_level": 85}, {"virtual_rental_type_id": 2, "car_plate": "ET251CY", "virtual_rental_id": 369004, "car_category_id": 8, "car_category_type_id": 1, "lon": 9.153791, "carModelData": [100], "car_name": "Fiat 500", "onClick_disabled": false, "address": "Generale Mac Mahon, 111, 20155 Milano", "lat": 45.496986, "fuel_level": 62}, {"virtual_rental_type_id": 2, "car_plate": "ET841DD", "virtual_rental_id": 346614, "car_category_id": 8, "car_category_type_id": 1, "lon": 9.20947, "carModelData": [100], "car_name": "Fiat 500", "onClick_disabled": false, "address": "Via Emilio de Marchi, 32, 20125 Milano", "lat": 45.50065, "fuel_level": 82}, {"virtual_rental_type_id": 1, "car_plate": "ED04640", "virtual_rental_id": 274865, "car_category_id": 7, "car_category_type_id": 2, "lon": 9.239863, "carModelData": [100], "car_name": "Piaggio MP3", "onClick_disabled": false, "address": "Via Privata Giovanni Battista Prandina, 31, 20128 Milano", "lat": 45.506996, "fuel_level": 100}, {"virtual_rental_type_id": 1, "car_plate": "ED57402", "virtual_rental_id": 283916, "car_category_id": 7, "car_category_type_id": 2, "lon": 9.143548, "carModelData": [100], "car_name": "Piaggio MP3", "onClick_disabled": false, "address": "Piazza Carlo Stuparich, 12-20, 20148 Milano", "lat": 45.483646, "fuel_level": 24}, {"virtual_rental_type_id": 2, "car_plate": "ET659XJ", "virtual_rental_id": 345686, "car_category_id": 8, "car_category_type_id": 1, "lon": 9.228577, "carModelData": [100], "car_name": "Fiat 500", "onClick_disabled": false, "address": "Via Stamira D'Ancona, 28, 20127 Milano", "lat": 45.501118, "fuel_level": 12}, {"virtual_rental_type_id": 2, "car_plate": "FA828WD", "virtual_rental_id": 325167, "car_category_id": 8, "car_category_type_id": 1, "lon": 9.236392, "carModelData": [], "car_name": "Fiat 500", "onClick_disabled": false, "address": "Via Cesare da Sesto, 102, 20099 Sesto San Giovanni MI", "lat": 45.53472, "fuel_level": 40}, {"virtual_rental_type_id": 1, "car_plate": "ED04663", "virtual_rental_id": 274840, "car_category_id": 7, "car_category_type_id": 2, "lon": 9.223472, "carModelData": [100], "car_name": "Piaggio MP3", "onClick_disabled": false, "address": "Via dei Cinquecento, 2-6, 20139 Milano", "lat": 45.4371, "fuel_level": 57}, {"virtual_rental_type_id": 2, "car_plate": "FA818WD", "virtual_rental_id": 374162, "car_category_id": 8, "car_category_type_id": 1, "lon": 9.139999, "carModelData": [], "car_name": "Fiat 500", "onClick_disabled": false, "address": "Via Camillo Giussani, 27-29, 20143 Milano", "lat": 45.44106, "fuel_level": 44}, {"virtual_rental_type_id": 2, "car_plate": "FA497YY", "virtual_rental_id": 433050, "car_category_id": 8, "car_category_type_id": 1, "lon": 9.09683, "carModelData": [], "car_name": "Fiat 500", "onClick_disabled": false, "address": "Via Gaetano Fichera, 20151 Milano", "lat": 45.499966, "fuel_level": 55}, {"virtual_rental_type_id": 1, "car_plate": "ED04650", "virtual_rental_id": 274837, "car_category_id": 7, "car_category_type_id": 2, "lon": 9.215723, "carModelData": [99, 100], "car_name": "Piaggio MP3", "onClick_disabled": false, "address": "Via Lattanzio, 24-38, 20137 Milano", "lat": 45.45131, "fuel_level": 83}, {"virtual_rental_type_id": 2, "car_plate": "EZ382GW", "virtual_rental_id": 433451, "car_category_id": 8, "car_category_type_id": 1, "lon": 9.156446, "carModelData": [], "car_name": "Fiat 500", "onClick_disabled": false, "address": "Via Giuseppe La Masa, 22, 20156 Milano", "lat": 45.501045, "fuel_level": 71}, {"virtual_rental_type_id": 2, "car_plate": "EZ201TY", "virtual_rental_id": 344430, "car_category_id": 8, "car_category_type_id": 1, "lon": 9.165625, "carModelData": [], "car_name": "Fiat 500", "onClick_disabled": false, "address": "Via Gianluigi Banfi, 10h, 20142 Milano MI", "lat": 45.414692, "fuel_level": 96}, {"virtual_rental_type_id": 1, "car_plate": "ED57071", "virtual_rental_id": 282513, "car_category_id": 7, "car_category_type_id": 2, "lon": 9.193577, "carModelData": [100], "car_name": "Piaggio MP3", "onClick_disabled": false, "address": "Via Riccardo Bauer, 16, 20162 Milano", "lat": 45.51578, "fuel_level": 75}, {"virtual_rental_type_id": 2, "car_plate": "FA831WD", "virtual_rental_id": 342282, "car_category_id": 8, "car_category_type_id": 1, "lon": 9.175466, "carModelData": [14], "car_name": "Fiat 500", "onClick_disabled": false, "address": "Via Vincenzo da Seregno, 42, 20161 Milano", "lat": 45.523304, "fuel_level": 48}, {"virtual_rental_type_id": 2, "car_plate": "ET016XL", "virtual_rental_id": 353852, "car_category_id": 8, "car_category_type_id": 1, "lon": 9.2107, "carModelData": [100], "car_name": "Fiat 500", "onClick_disabled": false, "address": "Via Paolo Mezzanotte, 4310, 20141 Milano", "lat": 45.42535, "fuel_level": 52}, {"virtual_rental_type_id": 2, "car_plate": "ET985CW", "virtual_rental_id": 390221, "car_category_id": 8, "car_category_type_id": 1, "lon": 9.222761, "carModelData": [100], "car_name": "Fiat 500", "onClick_disabled": false, "address": "Piazza Edoardo Ferravilla, 2, 20133 Milano", "lat": 45.47085, "fuel_level": 29}, {"virtual_rental_type_id": 2, "car_plate": "ET854DD", "virtual_rental_id": 328938, "car_category_id": 8, "car_category_type_id": 1, "lon": 9.145534, "carModelData": [100], "car_name": "Fiat 500", "onClick_disabled": false, "address": "Via Michele Pericle Negrotto, 31, 20157 Milano", "lat": 45.504486, "fuel_level": 54}, {"virtual_rental_type_id": 2, "car_plate": "ET274CY", "virtual_rental_id": 355569, "car_category_id": 8, "car_category_type_id": 1, "lon": 9.24419, "carModelData": [100], "car_name": "Fiat 500", "onClick_disabled": false, "address": "Via Privata Cascia, 2-8, 20128 Milano", "lat": 45.511395, "fuel_level": 43}, {"virtual_rental_type_id": 2, "car_plate": "EX989VG", "virtual_rental_id": 352996, "car_category_id": 8, "car_category_type_id": 1, "lon": 9.215599, "carModelData": [100], "car_name": "Fiat 500", "onClick_disabled": false, "address": "Corso Lodi, 67, 20139 Milano", "lat": 45.444283, "fuel_level": 92}, {"virtual_rental_type_id": 2, "car_plate": "EZ217TY", "virtual_rental_id": 332277, "car_category_id": 8, "car_category_type_id": 1, "lon": 9.2579975, "carModelData": [], "car_name": "Fiat 500", "onClick_disabled": false, "address": "Via Gaudenzio Fantoli, 30-32, 20138 Milano", "lat": 45.454384, "fuel_level": 88}, {"virtual_rental_type_id": 2, "car_plate": "ET669XJ", "virtual_rental_id": 322426, "car_category_id": 8, "car_category_type_id": 1, "lon": 9.118221, "carModelData": [100], "car_name": "Fiat 500", "onClick_disabled": false, "address": "Via Privata Venezia Giulia, 2, 20157 Milano", "lat": 45.514767, "fuel_level": 27}, {"virtual_rental_type_id": 2, "car_plate": "ET990DD", "virtual_rental_id": 367239, "car_category_id": 8, "car_category_type_id": 1, "lon": 9.252941, "carModelData": [100], "car_name": "Fiat 500", "onClick_disabled": false, "address": "Via Canelli, 27, 20134 Milano", "lat": 45.490982, "fuel_level": 77}, {"virtual_rental_type_id": 2, "car_plate": "EZ360GW", "virtual_rental_id": 435828, "car_category_id": 8, "car_category_type_id": 1, "lon": 9.225199, "carModelData": [], "car_name": "Fiat 500", "onClick_disabled": false, "address": "Via Tertulliano, 90-100, 20137 Milano", "lat": 45.447487, "fuel_level": 94}, {"virtual_rental_type_id": 2, "car_plate": "ET953DD", "virtual_rental_id": 362074, "car_category_id": 8, "car_category_type_id": 1, "lon": 9.103241, "carModelData": [100], "car_name": "Fiat 500", "onClick_disabled": false, "address": "Via Asiago, 6, 20090 Buccinasco MI", "lat": 45.426, "fuel_level": 98}, {"virtual_rental_type_id": 2, "car_plate": "EZ767NF", "virtual_rental_id": 327735, "car_category_id": 8, "car_category_type_id": 1, "lon": 9.103297, "carModelData": [], "car_name": "Fiat 500", "onClick_disabled": false, "address": "Via Piave, 4, 20094 Corsico MI", "lat": 45.427235, "fuel_level": 90}, {"virtual_rental_type_id": 2, "car_plate": "ET853DD", "virtual_rental_id": 359322, "car_category_id": 8, "car_category_type_id": 1, "lon": 9.139522, "carModelData": [14, 100], "car_name": "Fiat 500", "onClick_disabled": false, "address": "Via Sebastiano Satta, 57, 20157 Milano", "lat": 45.517292, "fuel_level": 93}, {"virtual_rental_type_id": 2, "car_plate": "ET956DD", "virtual_rental_id": 400758, "car_category_id": 8, "car_category_type_id": 1, "lon": 9.052472, "carModelData": [100], "car_name": "Fiat 500", "onClick_disabled": false, "address": "Via della Libert\u00e0, 36, 20019 Settimo Milanese MI", "lat": 45.484028, "fuel_level": 35}, {"virtual_rental_type_id": 1, "car_plate": "ED57386", "virtual_rental_id": 301178, "car_category_id": 7, "car_category_type_id": 2, "lon": 9.05164, "carModelData": [100], "car_name": "Piaggio MP3", "onClick_disabled": false, "address": "Via della Libert\u00e0, 72, 20019 Settimo Milanese MI", "lat": 45.487537, "fuel_level": 66}, {"virtual_rental_type_id": 2, "car_plate": "EZ273GW", "virtual_rental_id": 402936, "car_category_id": 8, "car_category_type_id": 1, "lon": 9.221371, "carModelData": [100], "car_name": "Fiat 500", "onClick_disabled": false, "address": "Piazza Insubria, 1, 20137 Milano", "lat": 45.453648, "fuel_level": 77}, {"virtual_rental_type_id": 2, "car_plate": "EX119TY", "virtual_rental_id": 399430, "car_category_id": 8, "car_category_type_id": 1, "lon": 9.099617, "carModelData": [100], "car_name": "Fiat 500", "onClick_disabled": false, "address": "Via Luigi Cadorna, 6A, 20090 Buccinasco MI", "lat": 45.417408, "fuel_level": 62}, {"virtual_rental_type_id": 1, "car_plate": "ED04635", "virtual_rental_id": 284566, "car_category_id": 7, "car_category_type_id": 2, "lon": 9.141334, "carModelData": [100], "car_name": "Piaggio MP3", "onClick_disabled": false, "address": "Via Gallarate, 15, 20151 Milano", "lat": 45.493835, "fuel_level": 0}, {"virtual_rental_type_id": 2, "car_plate": "ET263CY", "virtual_rental_id": 397137, "car_category_id": 8, "car_category_type_id": 1, "lon": 9.059439, "carModelData": [100], "car_name": "Fiat 500", "onClick_disabled": false, "address": "Via Don Luigi Sturzo, 13, 20019 Settimo Milanese MI", "lat": 45.480183, "fuel_level": 98}, {"virtual_rental_type_id": 2, "car_plate": "FB324SM", "virtual_rental_id": 439492, "car_category_id": 8, "car_category_type_id": 1, "lon": 9.10008, "carModelData": [], "car_name": "Fiat 500", "onClick_disabled": false, "address": "Via Roma, 22, 20090 Cesano Boscone MI", "lat": 45.438026, "fuel_level": 98}, {"virtual_rental_type_id": 2, "car_plate": "FA506YY", "virtual_rental_id": 348195, "car_category_id": 8, "car_category_type_id": 1, "lon": 9.097563, "carModelData": [14], "car_name": "Fiat 500", "onClick_disabled": false, "address": "Via Patellani, 22, 20090 Cesano Boscone MI", "lat": 45.442818, "fuel_level": 56}, {"virtual_rental_type_id": 2, "car_plate": "FA503YY", "virtual_rental_id": 318509, "car_category_id": 8, "car_category_type_id": 1, "lon": 9.094289, "carModelData": [], "car_name": "Fiat 500", "onClick_disabled": false, "address": "Piazza Sant Apollinare, 6, 20152 Milano", "lat": 45.459816, "fuel_level": 21}, {"virtual_rental_type_id": 2, "car_plate": "ET863DD", "virtual_rental_id": 393668, "car_category_id": 8, "car_category_type_id": 1, "lon": 9.221036, "carModelData": [], "car_name": "Fiat 500", "onClick_disabled": false, "address": "Piazzale Ferdinando Martini, 15, 20137 Milano", "lat": 45.455837, "fuel_level": 94}, {"virtual_rental_type_id": 1, "car_plate": "ED57139", "virtual_rental_id": 274814, "car_category_id": 7, "car_category_type_id": 2, "lon": 9.073672, "carModelData": [100], "car_name": "Piaggio MP3", "onClick_disabled": false, "address": "Via Meriggia, 34, 20019 Settimo Milanese MI", "lat": 45.468204, "fuel_level": 68}, {"virtual_rental_type_id": 2, "car_plate": "ET075XL", "virtual_rental_id": 337426, "car_category_id": 8, "car_category_type_id": 1, "lon": 9.052843, "carModelData": [100], "car_name": "Fiat 500", "onClick_disabled": false, "address": "Via Pietro Mascagni, 2-4, 20019 Settimo Milanese MI", "lat": 45.49097, "fuel_level": 32}, {"virtual_rental_type_id": 1, "car_plate": "ED57404", "virtual_rental_id": 301250, "car_category_id": 7, "car_category_type_id": 2, "lon": 9.087719, "carModelData": [100], "car_name": "Piaggio MP3", "onClick_disabled": false, "address": "Via Gustavo Bontadini, 20152 Milano", "lat": 45.457363, "fuel_level": 42}, {"virtual_rental_type_id": 2, "car_plate": "FA502YY", "virtual_rental_id": 422862, "car_category_id": 8, "car_category_type_id": 1, "lon": 9.2298765, "carModelData": [], "car_name": "Fiat 500", "onClick_disabled": false, "address": "Via Teodosio, 69-71, 20131 Milano", "lat": 45.487804, "fuel_level": 2}, {"virtual_rental_type_id": 2, "car_plate": "EZ209TY", "virtual_rental_id": 353467, "car_category_id": 8, "car_category_type_id": 1, "lon": 9.235036, "carModelData": [], "car_name": "Fiat 500", "onClick_disabled": false, "address": "Via Privata Tanaro, 18, Milano, MI, Italia", "lat": 45.50509, "fuel_level": 55}, {"virtual_rental_type_id": 2, "car_plate": "FA514YY", "virtual_rental_id": 327471, "car_category_id": 8, "car_category_type_id": 1, "lon": 9.226315, "carModelData": [], "car_name": "Fiat 500", "onClick_disabled": false, "address": "Via Andrea Maria Amp\u00e8re, 115, 20131 Milano", "lat": 45.488167, "fuel_level": 51}, {"virtual_rental_type_id": 1, "car_plate": "ED04632", "virtual_rental_id": 301123, "car_category_id": 7, "car_category_type_id": 2, "lon": 9.132041, "carModelData": [100], "car_name": "Piaggio MP3", "onClick_disabled": false, "address": "Via Enrico Terzaghi, 20148 Milano", "lat": 45.487823, "fuel_level": 38}, {"virtual_rental_type_id": 2, "car_plate": "EZ998DF", "virtual_rental_id": 378441, "car_category_id": 8, "car_category_type_id": 1, "lon": 9.127975, "carModelData": [100], "car_name": "Fiat 500", "onClick_disabled": false, "address": "Via Domenico Millelire, 20, 20147 Milano", "lat": 45.46598, "fuel_level": 98}, {"virtual_rental_type_id": 2, "car_plate": "ET643XJ", "virtual_rental_id": 320676, "car_category_id": 8, "car_category_type_id": 1, "lon": 9.241022, "carModelData": [100], "car_name": "Fiat 500", "onClick_disabled": false, "address": "Via Padre Placido Riccardi, 27, 20132 Milano", "lat": 45.502934, "fuel_level": 45}, {"virtual_rental_type_id": 2, "car_plate": "ET941DD", "virtual_rental_id": 361328, "car_category_id": 8, "car_category_type_id": 1, "lon": 9.090206, "carModelData": [100], "car_name": "Fiat 500", "onClick_disabled": false, "address": "Via Privata Alessandro Scanini, 75, 20153 Milano", "lat": 45.469616, "fuel_level": 66}, {"virtual_rental_type_id": 2, "car_plate": "EZ750NF", "virtual_rental_id": 413742, "car_category_id": 8, "car_category_type_id": 1, "lon": 9.108728, "carModelData": [], "car_name": "Fiat 500", "onClick_disabled": false, "address": "Passeggiatata Gioacchino Rossini, 2, 20090 Buccinasco MI", "lat": 45.415592, "fuel_level": 10}, {"virtual_rental_type_id": 2, "car_plate": "FA495YY", "virtual_rental_id": 334688, "car_category_id": 8, "car_category_type_id": 1, "lon": 9.071576, "carModelData": [], "car_name": "Fiat 500", "onClick_disabled": false, "address": "Via Luigi Galvani, 20019 Milano", "lat": 45.472748, "fuel_level": 61}, {"virtual_rental_type_id": 2, "car_plate": "EZ156GW", "virtual_rental_id": 414209, "car_category_id": 8, "car_category_type_id": 1, "lon": 9.222117, "carModelData": [], "car_name": "Fiat 500", "onClick_disabled": false, "address": "Via Bernardo Rucellai, 12, 20126 Milano", "lat": 45.512543, "fuel_level": 62}, {"virtual_rental_type_id": 2, "car_plate": "ET959DD", "virtual_rental_id": 404131, "car_category_id": 8, "car_category_type_id": 1, "lon": 9.214249, "carModelData": [], "car_name": "Fiat 500", "onClick_disabled": false, "address": "Via Rho, 13, 20125 Milano", "lat": 45.500023, "fuel_level": 86}, {"virtual_rental_type_id": 2, "car_plate": "ET831DD", "virtual_rental_id": 405726, "car_category_id": 8, "car_category_type_id": 1, "lon": 9.115467, "carModelData": [100], "car_name": "Fiat 500", "onClick_disabled": false, "address": "Via Adolfo Omodeo, 29, 20151 Milano", "lat": 45.490593, "fuel_level": 80}, {"virtual_rental_type_id": 2, "car_plate": "EZ207TY", "virtual_rental_id": 322486, "car_category_id": 8, "car_category_type_id": 1, "lon": 9.197446, "carModelData": [], "car_name": "Fiat 500", "onClick_disabled": false, "address": "Viale Nazario Sauro, 3, 20124 Milano", "lat": 45.491234, "fuel_level": 80}, {"virtual_rental_type_id": 2, "car_plate": "ET363XF", "virtual_rental_id": 341300, "car_category_id": 8, "car_category_type_id": 1, "lon": 9.162186, "carModelData": [100], "car_name": "Fiat 500", "onClick_disabled": false, "address": "Via Privata della Garancetta, 1-3, 20154 Milano", "lat": 45.48552, "fuel_level": 60}, {"virtual_rental_type_id": 1, "car_plate": "ED04622", "virtual_rental_id": 380743, "car_category_id": 7, "car_category_type_id": 2, "lon": 9.244088, "carModelData": [100], "car_name": "Piaggio MP3", "onClick_disabled": false, "address": "Via Tucidide, 10, 20134 Milano", "lat": 45.469578, "fuel_level": 20}, {"virtual_rental_type_id": 2, "car_plate": "ET695XJ", "virtual_rental_id": 418310, "car_category_id": 8, "car_category_type_id": 1, "lon": 9.181048, "carModelData": [100], "car_name": "Fiat 500", "onClick_disabled": false, "address": "Via Nicola Romeo, 14, 20142 Milano", "lat": 45.41763, "fuel_level": 100}, {"virtual_rental_type_id": 2, "car_plate": "EX656VB", "virtual_rental_id": 344197, "car_category_id": 8, "car_category_type_id": 1, "lon": 9.169903, "carModelData": [14, 100], "car_name": "Fiat 500", "onClick_disabled": false, "address": "Alzaia Naviglio Pavese, 254, 20142 Milano", "lat": 45.42715, "fuel_level": 98}, {"virtual_rental_type_id": 2, "car_plate": "ET967DD", "virtual_rental_id": 423980, "car_category_id": 8, "car_category_type_id": 1, "lon": 9.126172, "carModelData": [100], "car_name": "Fiat 500", "onClick_disabled": false, "address": "Via Aldo Moro, 17, 20090 Buccinasco MI", "lat": 45.418865, "fuel_level": 63}, {"virtual_rental_type_id": 2, "car_plate": "EZ182GW", "virtual_rental_id": 411239, "car_category_id": 8, "car_category_type_id": 1, "lon": 9.233912, "carModelData": [], "car_name": "Fiat 500", "onClick_disabled": false, "address": "Via Isonzo, 14, 20099 Sesto San Giovanni MI", "lat": 45.526566, "fuel_level": 34}, {"virtual_rental_type_id": 1, "car_plate": "ED57161", "virtual_rental_id": 274831, "car_category_id": 7, "car_category_type_id": 2, "lon": 9.105279, "carModelData": [100], "car_name": "Piaggio MP3", "onClick_disabled": false, "address": "Via Privata Luigi Zoja, 29, 20153 Milano", "lat": 45.476036, "fuel_level": 86}, {"virtual_rental_type_id": 2, "car_plate": "ET315XF", "virtual_rental_id": 414515, "car_category_id": 8, "car_category_type_id": 1, "lon": 9.172038, "carModelData": [100], "car_name": "Fiat 500", "onClick_disabled": false, "address": "Via Costantino Baroni, 240, 20142 Milano", "lat": 45.404522, "fuel_level": 72}, {"virtual_rental_type_id": 2, "car_plate": "FA490YY", "virtual_rental_id": 337708, "car_category_id": 8, "car_category_type_id": 1, "lon": 9.12125, "carModelData": [], "car_name": "Fiat 500", "onClick_disabled": false, "address": "Via Concordia, 9, 20090 Assago MI", "lat": 45.40845, "fuel_level": 90}, {"virtual_rental_type_id": 2, "car_plate": "FA513YY", "virtual_rental_id": 363846, "car_category_id": 8, "car_category_type_id": 1, "lon": 9.283527, "carModelData": [], "car_name": "Fiat 500", "onClick_disabled": false, "address": "Via Felice Maritano, 24, 20097 San Donato Milanese MI", "lat": 45.420322, "fuel_level": 67}, {"virtual_rental_type_id": 2, "car_plate": "EZ152TY", "virtual_rental_id": 351482, "car_category_id": 8, "car_category_type_id": 1, "lon": 9.179096, "carModelData": [], "car_name": "Fiat 500", "onClick_disabled": false, "address": "Via Neera, 25/3, 20141 Milano", "lat": 45.433094, "fuel_level": 60}, {"virtual_rental_type_id": 2, "car_plate": "ET058XL", "virtual_rental_id": 396723, "car_category_id": 8, "car_category_type_id": 1, "lon": 9.1117325, "carModelData": [100], "car_name": "Fiat 500", "onClick_disabled": false, "address": "Via Domenico Cimarosa, 2, 20090 Buccinasco MI", "lat": 45.41456, "fuel_level": 98}, {"virtual_rental_type_id": 2, "car_plate": "ET995XK", "virtual_rental_id": 387297, "car_category_id": 8, "car_category_type_id": 1, "lon": 9.159347, "carModelData": [100], "car_name": "Fiat 500", "onClick_disabled": false, "address": "Via del Mare, 185, 20142 Cantalupa MI", "lat": 45.418606, "fuel_level": 96}, {"virtual_rental_type_id": 1, "car_plate": "ED04664", "virtual_rental_id": 369724, "car_category_id": 7, "car_category_type_id": 2, "lon": 9.134108, "carModelData": [100], "car_name": "Piaggio MP3", "onClick_disabled": false, "address": "Via Guido Coppin, 3, 20142 Milano", "lat": 45.440247, "fuel_level": 23}, {"virtual_rental_type_id": 2, "car_plate": "EZ208TY", "virtual_rental_id": 346942, "car_category_id": 8, "car_category_type_id": 1, "lon": 9.146192, "carModelData": [], "car_name": "Fiat 500", "onClick_disabled": false, "address": "Via Demetrio Cretese, 6, 20156 Milano", "lat": 45.501804, "fuel_level": 33}, {"virtual_rental_type_id": 2, "car_plate": "EZ220TY", "virtual_rental_id": 340013, "car_category_id": 8, "car_category_type_id": 1, "lon": 9.253259, "carModelData": [], "car_name": "Fiat 500", "onClick_disabled": false, "address": "Via Piero Portaluppi, 9, 20138 Milano", "lat": 45.455196, "fuel_level": 100}, {"virtual_rental_type_id": 2, "car_plate": "EZ036TY", "virtual_rental_id": 352666, "car_category_id": 8, "car_category_type_id": 1, "lon": 9.1145115, "carModelData": [], "car_name": "Fiat 500", "onClick_disabled": false, "address": "Via Pinerolo, 66, 20151 Milano", "lat": 45.482952, "fuel_level": 73}, {"virtual_rental_type_id": 2, "car_plate": "FA842WD", "virtual_rental_id": 432481, "car_category_id": 8, "car_category_type_id": 1, "lon": 9.178426, "carModelData": [], "car_name": "Fiat 500", "onClick_disabled": false, "address": "Via Legnone, 97, 20158 Milano", "lat": 45.505024, "fuel_level": 58}, {"virtual_rental_type_id": 1, "car_plate": "ED57143", "virtual_rental_id": 275131, "car_category_id": 7, "car_category_type_id": 2, "lon": 9.216025, "carModelData": [99, 100], "car_name": "Piaggio MP3", "onClick_disabled": false, "address": "Via Lattanzio, 38, 20137 Milano", "lat": 45.45141, "fuel_level": 93}, {"virtual_rental_type_id": 2, "car_plate": "ET060XL", "virtual_rental_id": 344220, "car_category_id": 8, "car_category_type_id": 1, "lon": 9.0914955, "carModelData": [100], "car_name": "Fiat 500", "onClick_disabled": false, "address": "Via Novara, 363, 20153 Milano", "lat": 45.48255, "fuel_level": 55}, {"virtual_rental_type_id": 2, "car_plate": "FA447YY", "virtual_rental_id": 378756, "car_category_id": 8, "car_category_type_id": 1, "lon": 9.0888405, "carModelData": [], "car_name": "Fiat 500", "onClick_disabled": false, "address": "Via Caio Mario, 56, 20153 Milano", "lat": 45.482643, "fuel_level": 70}, {"virtual_rental_type_id": 2, "car_plate": "EX995VG", "virtual_rental_id": 338517, "car_category_id": 8, "car_category_type_id": 1, "lon": 9.108405, "carModelData": [100], "car_name": "Fiat 500", "onClick_disabled": false, "address": "Via Romagna, 8, 20090 Buccinasco MI", "lat": 45.417572, "fuel_level": 70}, {"virtual_rental_type_id": 2, "car_plate": "ET611XJ", "virtual_rental_id": 436229, "car_category_id": 8, "car_category_type_id": 1, "lon": 9.2258415, "carModelData": [100], "car_name": "Fiat 500", "onClick_disabled": false, "address": "Via Augusto Osimo, 2-8, 20139 Milano", "lat": 45.435417, "fuel_level": 92}, {"virtual_rental_type_id": 2, "car_plate": "FA442YY", "virtual_rental_id": 318527, "car_category_id": 8, "car_category_type_id": 1, "lon": 9.103593, "carModelData": [], "car_name": "Fiat 500", "onClick_disabled": false, "address": "Via delle Forze Armate, 276-280, 20152 Milano", "lat": 45.45947, "fuel_level": 56}, {"virtual_rental_type_id": 2, "car_plate": "ET960DD", "virtual_rental_id": 326444, "car_category_id": 8, "car_category_type_id": 1, "lon": 9.169355, "carModelData": [100], "car_name": "Fiat 500", "onClick_disabled": false, "address": "Via Privata Pienza, 11, 20142 Milano", "lat": 45.420235, "fuel_level": 76}, {"virtual_rental_type_id": 2, "car_plate": "EZ165TY", "virtual_rental_id": 427624, "car_category_id": 8, "car_category_type_id": 1, "lon": 9.217621, "carModelData": [], "car_name": "Fiat 500", "onClick_disabled": false, "address": "Via Macedonio Melloni, 50, 20129 Milano", "lat": 45.466618, "fuel_level": 49}, {"virtual_rental_type_id": 2, "car_plate": "FA452YY", "virtual_rental_id": 336183, "car_category_id": 8, "car_category_type_id": 1, "lon": 9.246472, "carModelData": [], "car_name": "Fiat 500", "onClick_disabled": false, "address": "Via Adriano, 22-38, 20128 Milano", "lat": 45.512234, "fuel_level": 97}, {"virtual_rental_type_id": 2, "car_plate": "EZ354GW", "virtual_rental_id": 374615, "car_category_id": 8, "car_category_type_id": 1, "lon": 9.24603, "carModelData": [], "car_name": "Fiat 500", "onClick_disabled": false, "address": "Via del Futurismo, 29, 20138 Milano", "lat": 45.43651, "fuel_level": 52}, {"virtual_rental_type_id": 2, "car_plate": "ET340XF", "virtual_rental_id": 332086, "car_category_id": 8, "car_category_type_id": 1, "lon": 9.223507, "carModelData": [100], "car_name": "Fiat 500", "onClick_disabled": false, "address": "Viale Lombardia, 65-89, 20131 Milano", "lat": 45.487953, "fuel_level": 53}, {"virtual_rental_type_id": 2, "car_plate": "ET324XF", "virtual_rental_id": 322322, "car_category_id": 8, "car_category_type_id": 1, "lon": 9.229412, "carModelData": [100], "car_name": "Fiat 500", "onClick_disabled": false, "address": "Via Giovanni Pacini, 31, 20131 Milano", "lat": 45.482517, "fuel_level": 29}, {"virtual_rental_type_id": 2, "car_plate": "EZ337GW", "virtual_rental_id": 388233, "car_category_id": 8, "car_category_type_id": 1, "lon": 9.060235, "carModelData": [], "car_name": "Fiat 500", "onClick_disabled": false, "address": "Via Giuseppe di Vittorio, 52, 20019 Settimo Milanese MI", "lat": 45.47927, "fuel_level": 57}, {"virtual_rental_type_id": 2, "car_plate": "FA820WD", "virtual_rental_id": 347088, "car_category_id": 8, "car_category_type_id": 1, "lon": 9.226178, "carModelData": [14], "car_name": "Fiat 500", "onClick_disabled": false, "address": "Via Sardegna, 80, 20099 Sesto San Giovanni MI", "lat": 45.540768, "fuel_level": 45}, {"virtual_rental_type_id": 2, "car_plate": "ET595XJ", "virtual_rental_id": 396189, "car_category_id": 8, "car_category_type_id": 1, "lon": 9.149016, "carModelData": [100], "car_name": "Fiat 500", "onClick_disabled": false, "address": "Via Barona, 75, 20142 Milano", "lat": 45.432228, "fuel_level": 38}, {"virtual_rental_type_id": 2, "car_plate": "EZ174TY", "virtual_rental_id": 343470, "car_category_id": 8, "car_category_type_id": 1, "lon": 9.222504, "carModelData": [], "car_name": "Fiat 500", "onClick_disabled": false, "address": "Via Ravenna, 19-25, 20139 Milano", "lat": 45.433033, "fuel_level": 90}, {"virtual_rental_type_id": 2, "car_plate": "EZ265GW", "virtual_rental_id": 367344, "car_category_id": 8, "car_category_type_id": 1, "lon": 9.191282, "carModelData": [100], "car_name": "Fiat 500", "onClick_disabled": false, "address": "Via Luigi Ornato, 7102, 20162 Milano", "lat": 45.525192, "fuel_level": 55}, {"virtual_rental_type_id": 2, "car_plate": "ET059XL", "virtual_rental_id": 359294, "car_category_id": 8, "car_category_type_id": 1, "lon": 9.241287, "carModelData": [100], "car_name": "Fiat 500", "onClick_disabled": false, "address": "Via Privata Antonio Meucci, 54a, 20128 Milano", "lat": 45.508545, "fuel_level": 75}, {"virtual_rental_type_id": 2, "car_plate": "ET961XK", "virtual_rental_id": 367999, "car_category_id": 8, "car_category_type_id": 1, "lon": 9.232288, "carModelData": [100], "car_name": "Fiat 500", "onClick_disabled": false, "address": "Via Emilio Olivari, 5, 20131 Milano", "lat": 45.48979, "fuel_level": 42}, {"virtual_rental_type_id": 2, "car_plate": "ET880DD", "virtual_rental_id": 395475, "car_category_id": 8, "car_category_type_id": 1, "lon": 9.147053, "carModelData": [100], "car_name": "Fiat 500", "onClick_disabled": false, "address": "Via Michele Pericle Negrotto, 42-44, 20157 Milano", "lat": 45.504433, "fuel_level": 50}, {"virtual_rental_type_id": 2, "car_plate": "EX525VG", "virtual_rental_id": 346830, "car_category_id": 8, "car_category_type_id": 1, "lon": 9.254031, "carModelData": [100], "car_name": "Fiat 500", "onClick_disabled": false, "address": "Via Piero Portaluppi, 9, 20138 Milano", "lat": 45.454376, "fuel_level": 98}, {"virtual_rental_type_id": 2, "car_plate": "FA795WD", "virtual_rental_id": 328619, "car_category_id": 8, "car_category_type_id": 1, "lon": 9.050685, "carModelData": [], "car_name": "Fiat 500", "onClick_disabled": false, "address": "Via Cavalletti, 7, 20019 Settimo Milanese MI", "lat": 45.48855, "fuel_level": 73}, {"virtual_rental_type_id": 2, "car_plate": "EZ263GW", "virtual_rental_id": 423753, "car_category_id": 8, "car_category_type_id": 1, "lon": 9.191129, "carModelData": [100], "car_name": "Fiat 500", "onClick_disabled": false, "address": "Via Cufra, 26-38, 20159 Milano", "lat": 45.501118, "fuel_level": 46}, {"virtual_rental_type_id": 2, "car_plate": "FA481YY", "virtual_rental_id": 337743, "car_category_id": 8, "car_category_type_id": 1, "lon": 9.072499, "carModelData": [], "car_name": "Fiat 500", "onClick_disabled": false, "address": "Via Luigi Galvani, 20019 Settimo Milanese MI", "lat": 45.472004, "fuel_level": 30}, {"virtual_rental_type_id": 2, "car_plate": "ET649XJ", "virtual_rental_id": 378570, "car_category_id": 8, "car_category_type_id": 1, "lon": 9.192962, "carModelData": [100], "car_name": "Fiat 500", "onClick_disabled": false, "address": "Via Padre Luigi Monti, 18, 20162 Milano", "lat": 45.505676, "fuel_level": 34}, {"virtual_rental_type_id": 2, "car_plate": "EY169WC", "virtual_rental_id": 431416, "car_category_id": 8, "car_category_type_id": 1, "lon": 9.162913, "carModelData": [100], "car_name": "Fiat 500", "onClick_disabled": false, "address": "Via Melchiorre Delfico, 12, 20158 Milano", "lat": 45.495354, "fuel_level": 97}, {"virtual_rental_type_id": 2, "car_plate": "ET590XJ", "virtual_rental_id": 343211, "car_category_id": 8, "car_category_type_id": 1, "lon": 9.142037, "carModelData": [100], "car_name": "Fiat 500", "onClick_disabled": false, "address": "Via Vodice, 5, 20148 Milano", "lat": 45.47498, "fuel_level": 97}, {"virtual_rental_type_id": 1, "car_plate": "ED57145", "virtual_rental_id": 368122, "car_category_id": 7, "car_category_type_id": 2, "lon": 9.185653, "carModelData": [100], "car_name": "Piaggio MP3", "onClick_disabled": false, "address": "Via Monticelli, 12, 20159 Milano", "lat": 45.49485, "fuel_level": 45}, {"virtual_rental_type_id": 2, "car_plate": "ET618XJ", "virtual_rental_id": 391085, "car_category_id": 8, "car_category_type_id": 1, "lon": 9.24758, "carModelData": [100], "car_name": "Fiat 500", "onClick_disabled": false, "address": "Via Caduti di Marcinelle, 4, 20134 Milano", "lat": 45.479797, "fuel_level": 48}, {"virtual_rental_type_id": 2, "car_plate": "ET335XF", "virtual_rental_id": 349197, "car_category_id": 8, "car_category_type_id": 1, "lon": 9.106281, "carModelData": [100], "car_name": "Fiat 500", "onClick_disabled": false, "address": "Via Antonio Stradivari, 30, 20090 Buccinasco MI", "lat": 45.414795, "fuel_level": 75}, {"virtual_rental_type_id": 1, "car_plate": "ED04638", "virtual_rental_id": 300627, "car_category_id": 7, "car_category_type_id": 2, "lon": 9.103281, "carModelData": [100], "car_name": "Piaggio MP3", "onClick_disabled": false, "address": "Via Piave, 4, 20094 Corsico MI", "lat": 45.42721, "fuel_level": 100}, {"virtual_rental_type_id": 2, "car_plate": "ET360XF", "virtual_rental_id": 410911, "car_category_id": 8, "car_category_type_id": 1, "lon": 9.107312, "carModelData": [100], "car_name": "Fiat 500", "onClick_disabled": false, "address": "Via Romagna, 32, 20090 Buccinasco MI", "lat": 45.41445, "fuel_level": 80}, {"virtual_rental_type_id": 1, "car_plate": "EG83016", "virtual_rental_id": 440752, "car_category_id": 7, "car_category_type_id": 2, "lon": 9.21652, "carModelData": [99, 100], "car_name": "Piaggio MP3", "onClick_disabled": false, "address": "Via Einstein Alberto, 6, 20137 Milano", "lat": 45.450607, "fuel_level": 93}, {"virtual_rental_type_id": 2, "car_plate": "FA485YY", "virtual_rental_id": 322524, "car_category_id": 8, "car_category_type_id": 1, "lon": 9.128282, "carModelData": [], "car_name": "Fiat 500", "onClick_disabled": false, "address": "Via Arsia, 2, 20157 Milano", "lat": 45.514755, "fuel_level": 35}, {"virtual_rental_type_id": 2, "car_plate": "ET968XK", "virtual_rental_id": 377915, "car_category_id": 8, "car_category_type_id": 1, "lon": 9.257301, "carModelData": [100], "car_name": "Fiat 500", "onClick_disabled": false, "address": "Via Gaudenzio Fantoli, 30-32, 20138 Milano", "lat": 45.454327, "fuel_level": 35}, {"virtual_rental_type_id": 2, "car_plate": "ET833DD", "virtual_rental_id": 357131, "car_category_id": 8, "car_category_type_id": 1, "lon": 9.19065, "carModelData": [100], "car_name": "Fiat 500", "onClick_disabled": false, "address": "Via Antonino Giuffr\u00e8, 20159 Milano", "lat": 45.497158, "fuel_level": 45}, {"virtual_rental_type_id": 2, "car_plate": "FA837WD", "virtual_rental_id": 348999, "car_category_id": 8, "car_category_type_id": 1, "lon": 9.236488, "carModelData": [], "car_name": "Fiat 500", "onClick_disabled": false, "address": "Via Vittorio Gassman, 11, 20128 Milano", "lat": 45.513016, "fuel_level": 80}, {"virtual_rental_type_id": 2, "car_plate": "ET964XK", "virtual_rental_id": 347604, "car_category_id": 8, "car_category_type_id": 1, "lon": 9.229235, "carModelData": [100], "car_name": "Fiat 500", "onClick_disabled": false, "address": "Via Fabio Massimo, 11-15, 20139 Milano", "lat": 45.43626, "fuel_level": 89}, {"virtual_rental_type_id": 2, "car_plate": "EX548VG", "virtual_rental_id": 406396, "car_category_id": 8, "car_category_type_id": 1, "lon": 9.090202, "carModelData": [14, 100], "car_name": "Fiat 500", "onClick_disabled": false, "address": "Via Privata Alessandro Scanini, 75-81, 20153 Milano", "lat": 45.469707, "fuel_level": 54}, {"virtual_rental_type_id": 2, "car_plate": "ET990XK", "virtual_rental_id": 415017, "car_category_id": 8, "car_category_type_id": 1, "lon": 9.207456, "carModelData": [100], "car_name": "Fiat 500", "onClick_disabled": false, "address": "Via Balduccio da Pisa, 7-15, 20139 Milano", "lat": 45.44189, "fuel_level": 46}, {"virtual_rental_type_id": 2, "car_plate": "EZ387GW", "virtual_rental_id": 359592, "car_category_id": 8, "car_category_type_id": 1, "lon": 9.210553, "carModelData": [14], "car_name": "Fiat 500", "onClick_disabled": false, "address": "Via Marco D'Agrate, 32, 20139 Milano", "lat": 45.436966, "fuel_level": 49}, {"virtual_rental_type_id": 1, "car_plate": "ED57401", "virtual_rental_id": 414705, "car_category_id": 7, "car_category_type_id": 2, "lon": 9.254564, "carModelData": [100], "car_name": "Piaggio MP3", "onClick_disabled": false, "address": "Via Piero Portaluppi, 9, 20138 Milano", "lat": 45.453766, "fuel_level": 100}, {"virtual_rental_type_id": 2, "car_plate": "ET972DD", "virtual_rental_id": 324967, "car_category_id": 8, "car_category_type_id": 1, "lon": 9.178009, "carModelData": [100], "car_name": "Fiat 500", "onClick_disabled": false, "address": "Via Livigno, 21, 20158 Milano", "lat": 45.501534, "fuel_level": 38}, {"virtual_rental_type_id": 1, "car_plate": "ED04626", "virtual_rental_id": 274850, "car_category_id": 7, "car_category_type_id": 2, "lon": 9.223955, "carModelData": [100], "car_name": "Piaggio MP3", "onClick_disabled": false, "address": "Via Padova, 55, 20127 Milano", "lat": 45.491764, "fuel_level": 0}, {"virtual_rental_type_id": 2, "car_plate": "FA836WD", "virtual_rental_id": 348460, "car_category_id": 8, "car_category_type_id": 1, "lon": 9.2578745, "carModelData": [], "car_name": "Fiat 500", "onClick_disabled": false, "address": "SPexSS11, 20132 Milano", "lat": 45.512104, "fuel_level": 61}, {"virtual_rental_type_id": 1, "car_plate": "ED04625", "virtual_rental_id": 284330, "car_category_id": 7, "car_category_type_id": 2, "lon": 9.224219, "carModelData": [100], "car_name": "Piaggio MP3", "onClick_disabled": false, "address": "Viale Lucania, 6, 20139 Milano", "lat": 45.440388, "fuel_level": 25}, {"virtual_rental_type_id": 2, "car_plate": "ET996CW", "virtual_rental_id": 387506, "car_category_id": 8, "car_category_type_id": 1, "lon": 9.205107, "carModelData": [100], "car_name": "Fiat 500", "onClick_disabled": false, "address": "Via Privata Luigi Barzini, 2, 20125 Milano", "lat": 45.50062, "fuel_level": 73}, {"virtual_rental_type_id": 2, "car_plate": "FA789WD", "virtual_rental_id": 320876, "car_category_id": 8, "car_category_type_id": 1, "lon": 9.283662, "carModelData": [], "car_name": "Fiat 500", "onClick_disabled": false, "address": "Via Felice Maritano, 24, 20097 San Donato Milanese MI", "lat": 45.420006, "fuel_level": 57}, {"virtual_rental_type_id": 2, "car_plate": "EZ139GW", "virtual_rental_id": 385357, "car_category_id": 8, "car_category_type_id": 1, "lon": 9.246466, "carModelData": [], "car_name": "Fiat 500", "onClick_disabled": false, "address": "Via Romualdo Bonfadini, 101, 20138 Milano", "lat": 45.444794, "fuel_level": 73}, {"virtual_rental_type_id": 2, "car_plate": "ET613XJ", "virtual_rental_id": 365831, "car_category_id": 8, "car_category_type_id": 1, "lon": 9.2272835, "carModelData": [100], "car_name": "Fiat 500", "onClick_disabled": false, "address": "Via Gorizia, 37, 20099 Sesto San Giovanni MI", "lat": 45.52683, "fuel_level": 88}, {"virtual_rental_type_id": 2, "car_plate": "EZ212TY", "virtual_rental_id": 369278, "car_category_id": 8, "car_category_type_id": 1, "lon": 9.087984, "carModelData": [], "car_name": "Fiat 500", "onClick_disabled": false, "address": "Via Cantello, 10, 20152 Milano", "lat": 45.457474, "fuel_level": 82}, {"virtual_rental_type_id": 2, "car_plate": "ET677XJ", "virtual_rental_id": 338494, "car_category_id": 8, "car_category_type_id": 1, "lon": 9.26438, "carModelData": [100], "car_name": "Fiat 500", "onClick_disabled": false, "address": "Via Ambrosoli, 20097 San Donato Milanese MI", "lat": 45.41723, "fuel_level": 98}, {"virtual_rental_type_id": 2, "car_plate": "ET051XL", "virtual_rental_id": 415708, "car_category_id": 8, "car_category_type_id": 1, "lon": 9.168972, "carModelData": [14, 100], "car_name": "Fiat 500", "onClick_disabled": false, "address": "Via Gerolamo Forni, 4, 20161 Milano", "lat": 45.524376, "fuel_level": 90}, {"virtual_rental_type_id": 2, "car_plate": "FA402YY", "virtual_rental_id": 410854, "car_category_id": 8, "car_category_type_id": 1, "lon": 9.091138, "carModelData": [], "car_name": "Fiat 500", "onClick_disabled": false, "address": "Via Novara, 369, 20153 Milano", "lat": 45.482548, "fuel_level": 93}, {"virtual_rental_type_id": 2, "car_plate": "ET985XK", "virtual_rental_id": 361058, "car_category_id": 8, "car_category_type_id": 1, "lon": 9.115325, "carModelData": [100], "car_name": "Fiat 500", "onClick_disabled": false, "address": "Via Pio II, 3, 20153 Milano", "lat": 45.47029, "fuel_level": 51}, {"virtual_rental_type_id": 2, "car_plate": "FA463YY", "virtual_rental_id": 335735, "car_category_id": 8, "car_category_type_id": 1, "lon": 9.186749, "carModelData": [], "car_name": "Fiat 500", "onClick_disabled": false, "address": "Via Antonio Maffi, 14, 20162 Milano", "lat": 45.51844, "fuel_level": 72}, {"virtual_rental_type_id": 2, "car_plate": "EZ149TY", "virtual_rental_id": 337637, "car_category_id": 8, "car_category_type_id": 1, "lon": 9.127833, "carModelData": [], "car_name": "Fiat 500", "onClick_disabled": false, "address": "Via Maria Drago, 20157 Milano", "lat": 45.513103, "fuel_level": 91}, {"virtual_rental_type_id": 2, "car_plate": "ET846DD", "virtual_rental_id": 330451, "car_category_id": 8, "car_category_type_id": 1, "lon": 9.239406, "carModelData": [100], "car_name": "Fiat 500", "onClick_disabled": false, "address": "Via Giacomo Manz\u00fa, 4, 20138 Milano", "lat": 45.43732, "fuel_level": 93}, {"virtual_rental_type_id": 2, "car_plate": "ET310XF", "virtual_rental_id": 368694, "car_category_id": 8, "car_category_type_id": 1, "lon": 9.208317, "carModelData": [100], "car_name": "Fiat 500", "onClick_disabled": false, "address": "Via Cortina D'Ampezzo, 19, 20139 Milano", "lat": 45.43538, "fuel_level": 42}, {"virtual_rental_type_id": 2, "car_plate": "ET355XF", "virtual_rental_id": 420489, "car_category_id": 8, "car_category_type_id": 1, "lon": 9.153471, "carModelData": [100], "car_name": "Fiat 500", "onClick_disabled": false, "address": "Via Giacomo Watt, 7-9, 20143 Milano", "lat": 45.444187, "fuel_level": 89}, {"virtual_rental_type_id": 1, "car_plate": "ED57140", "virtual_rental_id": 274725, "car_category_id": 7, "car_category_type_id": 2, "lon": 9.221402, "carModelData": [100], "car_name": "Piaggio MP3", "onClick_disabled": false, "address": "Corso Lodi, 110, 20139 Milano", "lat": 45.441277, "fuel_level": 0}, {"virtual_rental_type_id": 2, "car_plate": "EZ150GW", "virtual_rental_id": 326432, "car_category_id": 8, "car_category_type_id": 1, "lon": 9.250319, "carModelData": [], "car_name": "Fiat 500", "onClick_disabled": false, "address": "Via S. Mamete, 32, 20128 Milano", "lat": 45.511223, "fuel_level": 36}, {"virtual_rental_type_id": 2, "car_plate": "FA845WD", "virtual_rental_id": 354193, "car_category_id": 8, "car_category_type_id": 1, "lon": 9.276367, "carModelData": [], "car_name": "Fiat 500", "onClick_disabled": false, "address": "Via Felice Maritano, 10A, 20097 San Donato Milanese MI", "lat": 45.413097, "fuel_level": 74}, {"virtual_rental_type_id": 2, "car_plate": "FA451YY", "virtual_rental_id": 398356, "car_category_id": 8, "car_category_type_id": 1, "lon": 9.063677, "carModelData": [], "car_name": "Fiat 500", "onClick_disabled": false, "address": "Via Archimede, 20019 Settimo Milanese MI", "lat": 45.468407, "fuel_level": 66}, {"virtual_rental_type_id": 2, "car_plate": "EZ213TY", "virtual_rental_id": 334217, "car_category_id": 8, "car_category_type_id": 1, "lon": 9.180732, "carModelData": [], "car_name": "Fiat 500", "onClick_disabled": false, "address": "Via Selvanesco, 70-74, 20142 Milano", "lat": 45.415054, "fuel_level": 100}, {"virtual_rental_type_id": 2, "car_plate": "ET352XF", "virtual_rental_id": 339028, "car_category_id": 8, "car_category_type_id": 1, "lon": 9.155445, "carModelData": [], "car_name": "Fiat 500", "onClick_disabled": false, "address": "Via El Alamein, 17, 20157 Milano", "lat": 45.51718, "fuel_level": 67}, {"virtual_rental_type_id": 2, "car_plate": "FA446YY", "virtual_rental_id": 352121, "car_category_id": 8, "car_category_type_id": 1, "lon": 9.165518, "carModelData": [14], "car_name": "Fiat 500", "onClick_disabled": false, "address": "Via Gianluigi Banfi, 7, 20142 Milano", "lat": 45.414482, "fuel_level": 95}, {"virtual_rental_type_id": 2, "car_plate": "ET621XJ", "virtual_rental_id": 408217, "car_category_id": 8, "car_category_type_id": 1, "lon": 9.231484, "carModelData": [100], "car_name": "Fiat 500", "onClick_disabled": false, "address": "Via Carlo Boncompagni, 44-58, 20139 Milano", "lat": 45.438076, "fuel_level": 97}, {"virtual_rental_type_id": 2, "car_plate": "EZ352GW", "virtual_rental_id": 322316, "car_category_id": 8, "car_category_type_id": 1, "lon": 9.207545, "carModelData": [], "car_name": "Fiat 500", "onClick_disabled": false, "address": "Via Piero Bottoni, 5-7, 20141 Milano", "lat": 45.42989, "fuel_level": 24}, {"virtual_rental_type_id": 2, "car_plate": "ET844DD", "virtual_rental_id": 348230, "car_category_id": 8, "car_category_type_id": 1, "lon": 9.089756, "carModelData": [100], "car_name": "Fiat 500", "onClick_disabled": false, "address": "Via Bartolomeo Cabella, 56, 20152 Milano", "lat": 45.457977, "fuel_level": 26}, {"virtual_rental_type_id": 2, "car_plate": "ET057XL", "virtual_rental_id": 376297, "car_category_id": 8, "car_category_type_id": 1, "lon": 9.117713, "carModelData": [100], "car_name": "Fiat 500", "onClick_disabled": false, "address": "Via Novara, 102, 20153 Milano", "lat": 45.473816, "fuel_level": 31}, {"virtual_rental_type_id": 2, "car_plate": "ET009DE", "virtual_rental_id": 395978, "car_category_id": 8, "car_category_type_id": 1, "lon": 9.049917, "carModelData": [100], "car_name": "Fiat 500", "onClick_disabled": false, "address": "Via della Libert\u00e0, 80, 20019 Settimo Milanese MI", "lat": 45.48869, "fuel_level": 100}, {"virtual_rental_type_id": 2, "car_plate": "EZ341GW", "virtual_rental_id": 333915, "car_category_id": 8, "car_category_type_id": 1, "lon": 9.243301, "carModelData": [], "car_name": "Fiat 500", "onClick_disabled": false, "address": "Via Leonardo Bistolfi, 55, 20134 Milano", "lat": 45.47733, "fuel_level": 36}, {"virtual_rental_type_id": 2, "car_plate": "ET647XJ", "virtual_rental_id": 335969, "car_category_id": 8, "car_category_type_id": 1, "lon": 9.088724, "carModelData": [], "car_name": "Fiat 500", "onClick_disabled": false, "address": "Via Caio Mario, 56, 20153 Milano", "lat": 45.48267, "fuel_level": 96}, {"virtual_rental_type_id": 2, "car_plate": "ET934DD", "virtual_rental_id": 363360, "car_category_id": 8, "car_category_type_id": 1, "lon": 9.1984625, "carModelData": [14, 100], "car_name": "Fiat 500", "onClick_disabled": false, "address": "Via Andrea Palladio, 1-15, 20135 Milano", "lat": 45.448364, "fuel_level": 87}, {"virtual_rental_type_id": 2, "car_plate": "ET661XJ", "virtual_rental_id": 425843, "car_category_id": 8, "car_category_type_id": 1, "lon": 9.093061, "carModelData": [100], "car_name": "Fiat 500", "onClick_disabled": false, "address": "Via Sergio Tofano, 3, 20153 Milano", "lat": 45.47736, "fuel_level": 88}, {"virtual_rental_type_id": 2, "car_plate": "FA453YY", "virtual_rental_id": 417331, "car_category_id": 8, "car_category_type_id": 1, "lon": 9.1641035, "carModelData": [], "car_name": "Fiat 500", "onClick_disabled": false, "address": "Via Privata Giacomo Filippo Besta, 2-3, 20161 Milano", "lat": 45.519142, "fuel_level": 53}, {"virtual_rental_type_id": 2, "car_plate": "ET578XJ", "virtual_rental_id": 354553, "car_category_id": 8, "car_category_type_id": 1, "lon": 9.230994, "carModelData": [100], "car_name": "Fiat 500", "onClick_disabled": false, "address": "Viale Italia, 36, 20099 Sesto San Giovanni MI", "lat": 45.52559, "fuel_level": 81}, {"virtual_rental_type_id": 1, "car_plate": "ED04655", "virtual_rental_id": 398212, "car_category_id": 7, "car_category_type_id": 2, "lon": 9.216588, "carModelData": [100], "car_name": "Piaggio MP3", "onClick_disabled": false, "address": "Via Einstein Alberto, 6, 20137 Milano", "lat": 45.450657, "fuel_level": 100}, {"virtual_rental_type_id": 2, "car_plate": "EY174WC", "virtual_rental_id": 334601, "car_category_id": 8, "car_category_type_id": 1, "lon": 9.092321, "carModelData": [100], "car_name": "Fiat 500", "onClick_disabled": false, "address": "Via Enzo Ferrieri, 10, 20153 Milano", "lat": 45.476933, "fuel_level": 64}, {"virtual_rental_type_id": 2, "car_plate": "ET325XF", "virtual_rental_id": 366649, "car_category_id": 8, "car_category_type_id": 1, "lon": 9.228555, "carModelData": [14, 100], "car_name": "Fiat 500", "onClick_disabled": false, "address": "Via B. Buozzi, 40, 20099 Sesto San Giovanni MI", "lat": 45.53005, "fuel_level": 35}, {"virtual_rental_type_id": 2, "car_plate": "FA489YY", "virtual_rental_id": 322388, "car_category_id": 8, "car_category_type_id": 1, "lon": 9.204366, "carModelData": [], "car_name": "Fiat 500", "onClick_disabled": false, "address": "Via Gaetano Baldacci, 20162 Milano", "lat": 45.516273, "fuel_level": 50}, {"virtual_rental_type_id": 2, "car_plate": "ET371XF", "virtual_rental_id": 330702, "car_category_id": 8, "car_category_type_id": 1, "lon": 9.158632, "carModelData": [], "car_name": "Fiat 500", "onClick_disabled": false, "address": "Via Agostino Depretis, 100, 20142 Milano", "lat": 45.429615, "fuel_level": 98}, {"virtual_rental_type_id": 2, "car_plate": "ET903DD", "virtual_rental_id": 426298, "car_category_id": 8, "car_category_type_id": 1, "lon": 9.129493, "carModelData": [100], "car_name": "Fiat 500", "onClick_disabled": false, "address": "Via Privata Gadames, 50, 20151 Milano", "lat": 45.499012, "fuel_level": 54}, {"virtual_rental_type_id": 2, "car_plate": "ET026XL", "virtual_rental_id": 330197, "car_category_id": 8, "car_category_type_id": 1, "lon": 9.257572, "carModelData": [100], "car_name": "Fiat 500", "onClick_disabled": false, "address": "Via Padova, 370, 20132 Milano", "lat": 45.511856, "fuel_level": 64}, {"virtual_rental_type_id": 2, "car_plate": "ET922CW", "virtual_rental_id": 414591, "car_category_id": 8, "car_category_type_id": 1, "lon": 9.126053, "carModelData": [14, 100], "car_name": "Fiat 500", "onClick_disabled": false, "address": "Via Cormons, 8, Milano, MI, Italia", "lat": 45.500866, "fuel_level": 96}, {"virtual_rental_type_id": 2, "car_plate": "EX993VG", "virtual_rental_id": 367627, "car_category_id": 8, "car_category_type_id": 1, "lon": 9.150395, "carModelData": [100], "car_name": "Fiat 500", "onClick_disabled": false, "address": "Via Cerkovo, 49, 20157 Milano", "lat": 45.51523, "fuel_level": 27}, {"virtual_rental_type_id": 2, "car_plate": "ET349XF", "virtual_rental_id": 379140, "car_category_id": 8, "car_category_type_id": 1, "lon": 9.249833, "carModelData": [100], "car_name": "Fiat 500", "onClick_disabled": false, "address": "Via Carlo Feltrinelli, 16, 20138 Milano", "lat": 45.433453, "fuel_level": 43}, {"virtual_rental_type_id": 1, "car_plate": "ED57408", "virtual_rental_id": 374443, "car_category_id": 7, "car_category_type_id": 2, "lon": 9.175691, "carModelData": [100], "car_name": "Piaggio MP3", "onClick_disabled": false, "address": "Via Chianciano, 20161 Milano", "lat": 45.516117, "fuel_level": 0}, {"virtual_rental_type_id": 2, "car_plate": "ET674XJ", "virtual_rental_id": 325392, "car_category_id": 8, "car_category_type_id": 1, "lon": 9.24632, "carModelData": [100], "car_name": "Fiat 500", "onClick_disabled": false, "address": "Via Adriano, 21-45, 20128 Milano", "lat": 45.512432, "fuel_level": 67}, {"virtual_rental_type_id": 2, "car_plate": "ET362XF", "virtual_rental_id": 355884, "car_category_id": 8, "car_category_type_id": 1, "lon": 9.124635, "carModelData": [100], "car_name": "Fiat 500", "onClick_disabled": false, "address": "Via Achille, 4, 20151 Milano", "lat": 45.479797, "fuel_level": 33}, {"virtual_rental_type_id": 2, "car_plate": "ET663XJ", "virtual_rental_id": 345244, "car_category_id": 8, "car_category_type_id": 1, "lon": 9.189793, "carModelData": [100], "car_name": "Fiat 500", "onClick_disabled": false, "address": "Via Goito, 8, 20121 Milano", "lat": 45.474075, "fuel_level": 74}, {"virtual_rental_type_id": 2, "car_plate": "ET830DD", "virtual_rental_id": 405912, "car_category_id": 8, "car_category_type_id": 1, "lon": 9.11905, "carModelData": [100], "car_name": "Fiat 500", "onClick_disabled": false, "address": "Via Vigevanese, 5, 20090 Buccinasco MI", "lat": 45.436707, "fuel_level": 53}, {"virtual_rental_type_id": 1, "car_plate": "ED04661", "virtual_rental_id": 274839, "car_category_id": 7, "car_category_type_id": 2, "lon": 9.236929, "carModelData": [100], "car_name": "Piaggio MP3", "onClick_disabled": false, "address": "Via Carnia, 12, 20132 Milano", "lat": 45.49142, "fuel_level": 70}, {"virtual_rental_type_id": 2, "car_plate": "EZ159GW", "virtual_rental_id": 386776, "car_category_id": 8, "car_category_type_id": 1, "lon": 9.085476, "carModelData": [14], "car_name": "Fiat 500", "onClick_disabled": false, "address": "Via Castrovillari, 3, 20152 Milano", "lat": 45.457954, "fuel_level": 64}, {"virtual_rental_type_id": 2, "car_plate": "FA475YY", "virtual_rental_id": 385031, "car_category_id": 8, "car_category_type_id": 1, "lon": 9.08396, "carModelData": [], "car_name": "Fiat 500", "onClick_disabled": false, "address": "Via Ugo Frigerio, 43, 20153 Milano", "lat": 45.466, "fuel_level": 98}, {"virtual_rental_type_id": 2, "car_plate": "ET911DD", "virtual_rental_id": 346701, "car_category_id": 8, "car_category_type_id": 1, "lon": 9.210712, "carModelData": [100], "car_name": "Fiat 500", "onClick_disabled": false, "address": "Via S. Rafael delle Ande, 6, 20125 Milano", "lat": 45.5, "fuel_level": 53}, {"virtual_rental_type_id": 2, "car_plate": "ET872DD", "virtual_rental_id": 333178, "car_category_id": 8, "car_category_type_id": 1, "lon": 9.11508, "carModelData": [14, 100], "car_name": "Fiat 500", "onClick_disabled": false, "address": "Via Pinerolo, 2, 20153 Milano", "lat": 45.475372, "fuel_level": 25}, {"virtual_rental_type_id": 2, "car_plate": "ET995CW", "virtual_rental_id": 394121, "car_category_id": 8, "car_category_type_id": 1, "lon": 9.194685, "carModelData": [100], "car_name": "Fiat 500", "onClick_disabled": false, "address": "Via Giuseppe Pozzobonelli, 4, 20162 Milano", "lat": 45.521866, "fuel_level": 80}, {"virtual_rental_type_id": 2, "car_plate": "EZ202TY", "virtual_rental_id": 389863, "car_category_id": 8, "car_category_type_id": 1, "lon": 9.259322, "carModelData": [], "car_name": "Fiat 500", "onClick_disabled": false, "address": "Via Gaudenzio Fantoli, 28, 20138 Milano", "lat": 45.45134, "fuel_level": 91}, {"virtual_rental_type_id": 2, "car_plate": "ET036XL", "virtual_rental_id": 360042, "car_category_id": 8, "car_category_type_id": 1, "lon": 9.156682, "carModelData": [100], "car_name": "Fiat 500", "onClick_disabled": false, "address": "Via Ovada, 8, 20142 Milano", "lat": 45.435566, "fuel_level": 83}, {"virtual_rental_type_id": 2, "car_plate": "ET351XF", "virtual_rental_id": 388572, "car_category_id": 8, "car_category_type_id": 1, "lon": 9.093635, "carModelData": [100], "car_name": "Fiat 500", "onClick_disabled": false, "address": "Via Valsesia, 65-79, 20152 Milano", "lat": 45.45431, "fuel_level": 91}, {"virtual_rental_type_id": 2, "car_plate": "ET645XJ", "virtual_rental_id": 392805, "car_category_id": 8, "car_category_type_id": 1, "lon": 9.241274, "carModelData": [100], "car_name": "Fiat 500", "onClick_disabled": false, "address": "Via Padova, 223, 20127 Milano", "lat": 45.504982, "fuel_level": 92}, {"virtual_rental_type_id": 2, "car_plate": "ET043XL", "virtual_rental_id": 411962, "car_category_id": 8, "car_category_type_id": 1, "lon": 9.234155, "carModelData": [100], "car_name": "Fiat 500", "onClick_disabled": false, "address": "Via Giacomo Venezian, 19-21, 20133 Milano", "lat": 45.47444, "fuel_level": 61}, {"virtual_rental_type_id": 2, "car_plate": "EZ328GW", "virtual_rental_id": 330882, "car_category_id": 8, "car_category_type_id": 1, "lon": 9.085397, "carModelData": [14], "car_name": "Fiat 500", "onClick_disabled": false, "address": "Via Salvo D'Acquisto, 7, 20090 Cesano Boscone MI", "lat": 45.444153, "fuel_level": 61}, {"virtual_rental_type_id": 2, "car_plate": "ET987CW", "virtual_rental_id": 368230, "car_category_id": 8, "car_category_type_id": 1, "lon": 9.11371, "carModelData": [100], "car_name": "Fiat 500", "onClick_disabled": false, "address": "Via Gallarate, 311, 20151 Milano", "lat": 45.50187, "fuel_level": 68}, {"virtual_rental_type_id": 2, "car_plate": "EZ218TY", "virtual_rental_id": 352111, "car_category_id": 8, "car_category_type_id": 1, "lon": 9.236923, "carModelData": [], "car_name": "Fiat 500", "onClick_disabled": false, "address": "Viale Corsica, 94, 20137 Milano", "lat": 45.46184, "fuel_level": 22}, {"virtual_rental_type_id": 2, "car_plate": "EZ132GW", "virtual_rental_id": 381162, "car_category_id": 8, "car_category_type_id": 1, "lon": 9.11086, "carModelData": [100], "car_name": "Fiat 500", "onClick_disabled": false, "address": "Via Antonio Vivaldi, 81, 20090 Buccinasco MI", "lat": 45.41664, "fuel_level": 60}, {"virtual_rental_type_id": 2, "car_plate": "FA443YY", "virtual_rental_id": 414615, "car_category_id": 8, "car_category_type_id": 1, "lon": 9.22946, "carModelData": [], "car_name": "Fiat 500", "onClick_disabled": false, "address": "Viale Ercole Marelli, 234, 20099 Sesto San Giovanni MI", "lat": 45.52818, "fuel_level": 47}, {"virtual_rental_type_id": 2, "car_plate": "ET984DD", "virtual_rental_id": 395247, "car_category_id": 8, "car_category_type_id": 1, "lon": 9.171282, "carModelData": [100], "car_name": "Fiat 500", "onClick_disabled": false, "address": "Via dell'Arcadia, 30-40, 20142 Milano", "lat": 45.415916, "fuel_level": 53}, {"virtual_rental_type_id": 2, "car_plate": "ET254CY", "virtual_rental_id": 345425, "car_category_id": 8, "car_category_type_id": 1, "lon": 9.134855, "carModelData": [100], "car_name": "Fiat 500", "onClick_disabled": false, "address": "Viale Federico Caprilli, 13, 20148 Milano", "lat": 45.47962, "fuel_level": 70}, {"virtual_rental_type_id": 2, "car_plate": "ET020XL", "virtual_rental_id": 381946, "car_category_id": 8, "car_category_type_id": 1, "lon": 9.223359, "carModelData": [100], "car_name": "Fiat 500", "onClick_disabled": false, "address": "Via Privata Baldassare Longhena, 3, 20139 Milano", "lat": 45.442204, "fuel_level": 94}, {"virtual_rental_type_id": 2, "car_plate": "EZ031TY", "virtual_rental_id": 327323, "car_category_id": 8, "car_category_type_id": 1, "lon": 9.148603, "carModelData": [], "car_name": "Fiat 500", "onClick_disabled": false, "address": "Viale Faenza, 21, 20142 Milano", "lat": 45.43656, "fuel_level": 42}, {"virtual_rental_type_id": 2, "car_plate": "ET690XJ", "virtual_rental_id": 367923, "car_category_id": 8, "car_category_type_id": 1, "lon": 9.10265, "carModelData": [100], "car_name": "Fiat 500", "onClick_disabled": false, "address": "Viale Monte Grappa, 5-9, 20094 Corsico MI", "lat": 45.42614, "fuel_level": 92}, {"virtual_rental_type_id": 2, "car_plate": "ET859DD", "virtual_rental_id": 372459, "car_category_id": 8, "car_category_type_id": 1, "lon": 9.054035, "carModelData": [100], "car_name": "Fiat 500", "onClick_disabled": false, "address": "Via della Libert\u00e0, 4, 20019 Settimo Milanese MI", "lat": 45.48191, "fuel_level": 95}, {"virtual_rental_type_id": 2, "car_plate": "ET868DD", "virtual_rental_id": 391120, "car_category_id": 8, "car_category_type_id": 1, "lon": 9.155531, "carModelData": [100], "car_name": "Fiat 500", "onClick_disabled": false, "address": "Via Cola di Rienzo, 53, 20144 Milano", "lat": 45.45466, "fuel_level": 65}, {"virtual_rental_type_id": 2, "car_plate": "FA830WD", "virtual_rental_id": 326997, "car_category_id": 8, "car_category_type_id": 1, "lon": 9.208539, "carModelData": [], "car_name": "Fiat 500", "onClick_disabled": false, "address": "Viale Giovanni Suzzani, 270, 20162 Milano", "lat": 45.525433, "fuel_level": 40}, {"virtual_rental_type_id": 2, "car_plate": "ET343XF", "virtual_rental_id": 361216, "car_category_id": 8, "car_category_type_id": 1, "lon": 9.171413, "carModelData": [100], "car_name": "Fiat 500", "onClick_disabled": false, "address": "Via della Marna, 7, 20161 Milano", "lat": 45.52557, "fuel_level": 43}, {"virtual_rental_type_id": 1, "car_plate": "ED04615", "virtual_rental_id": 283928, "car_category_id": 7, "car_category_type_id": 2, "lon": 9.215719, "carModelData": [99, 100], "car_name": "Piaggio MP3", "onClick_disabled": false, "address": "Via Lattanzio, 37, 20137 Milano", "lat": 45.45136, "fuel_level": 88}, {"virtual_rental_type_id": 2, "car_plate": "EZ196GW", "virtual_rental_id": 322383, "car_category_id": 8, "car_category_type_id": 1, "lon": 9.169341, "carModelData": [], "car_name": "Fiat 500", "onClick_disabled": false, "address": "Via Franco Faccio, 19, 20161 Milano", "lat": 45.518997, "fuel_level": 72}, {"virtual_rental_type_id": 2, "car_plate": "ET983XK", "virtual_rental_id": 368162, "car_category_id": 8, "car_category_type_id": 1, "lon": 9.216951, "carModelData": [100], "car_name": "Fiat 500", "onClick_disabled": false, "address": "Via Sannio, 7, 20137 Milano", "lat": 45.446293, "fuel_level": 53}, {"virtual_rental_type_id": 2, "car_plate": "ET323XF", "virtual_rental_id": 377003, "car_category_id": 8, "car_category_type_id": 1, "lon": 9.208214, "carModelData": [100], "car_name": "Fiat 500", "onClick_disabled": false, "address": "Via Thomas Mann, 1-9, 20162 Milano", "lat": 45.523987, "fuel_level": 31}, {"virtual_rental_type_id": 2, "car_plate": "ET993XK", "virtual_rental_id": 359109, "car_category_id": 8, "car_category_type_id": 1, "lon": 9.229701, "carModelData": [100], "car_name": "Fiat 500", "onClick_disabled": false, "address": "Via Carlo Linati, 7, 20128 Milano", "lat": 45.51131, "fuel_level": 44}, {"virtual_rental_type_id": 2, "car_plate": "ET307XF", "virtual_rental_id": 353830, "car_category_id": 8, "car_category_type_id": 1, "lon": 9.253922, "carModelData": [100], "car_name": "Fiat 500", "onClick_disabled": false, "address": "Via Piero Portaluppi, 9, 20138 Milano", "lat": 45.45447, "fuel_level": 90}, {"virtual_rental_type_id": 2, "car_plate": "EZ338GW", "virtual_rental_id": 318463, "car_category_id": 8, "car_category_type_id": 1, "lon": 9.154278, "carModelData": [], "car_name": "Fiat 500", "onClick_disabled": false, "address": "Via Monte Rosa, 102, 20089 Rozzano MI", "lat": 45.393597, "fuel_level": 49}, {"virtual_rental_type_id": 2, "car_plate": "FA431YY", "virtual_rental_id": 358848, "car_category_id": 8, "car_category_type_id": 1, "lon": 9.067441, "carModelData": [], "car_name": "Fiat 500", "onClick_disabled": false, "address": "Via Sandro Pertini, 7, 20019 Milano", "lat": 45.473724, "fuel_level": 88}, {"virtual_rental_type_id": 2, "car_plate": "FA436YY", "virtual_rental_id": 331503, "car_category_id": 8, "car_category_type_id": 1, "lon": 9.2261915, "carModelData": [], "car_name": "Fiat 500", "onClick_disabled": false, "address": "Via Fanfulla da Lodi, 2, 20131 Milano", "lat": 45.49164, "fuel_level": 73}, {"virtual_rental_type_id": 1, "car_plate": "ED57379", "virtual_rental_id": 284604, "car_category_id": 7, "car_category_type_id": 2, "lon": 9.178946, "carModelData": [100], "car_name": "Piaggio MP3", "onClick_disabled": false, "address": "Via Anton Giulio Barrili, 25, 20141 Milano", "lat": 45.43397, "fuel_level": 56}, {"virtual_rental_type_id": 2, "car_plate": "ET958XK", "virtual_rental_id": 351676, "car_category_id": 8, "car_category_type_id": 1, "lon": 9.2485285, "carModelData": [14, 100], "car_name": "Fiat 500", "onClick_disabled": false, "address": "Via Giuseppe Saragat, 2631, 20128 Milano", "lat": 45.51614, "fuel_level": 61}, {"virtual_rental_type_id": 1, "car_plate": "ED57403", "virtual_rental_id": 284602, "car_category_id": 7, "car_category_type_id": 2, "lon": 9.232757, "carModelData": [100], "car_name": "Piaggio MP3", "onClick_disabled": false, "address": "Via Vincenzo Toffetti, 96-100, 20139 Milano", "lat": 45.44275, "fuel_level": 67}, {"virtual_rental_type_id": 2, "car_plate": "ET684XJ", "virtual_rental_id": 328623, "car_category_id": 8, "car_category_type_id": 1, "lon": 9.245527, "carModelData": [100], "car_name": "Fiat 500", "onClick_disabled": false, "address": "Via Don Giovanni Calabria, 36, 20132 Milano", "lat": 45.501404, "fuel_level": 85}, {"virtual_rental_type_id": 2, "car_plate": "EZ239GW", "virtual_rental_id": 389305, "car_category_id": 8, "car_category_type_id": 1, "lon": 9.1260605, "carModelData": [100], "car_name": "Fiat 500", "onClick_disabled": false, "address": "Via della Costituzione, 13, 20090 Milano MI", "lat": 45.42794, "fuel_level": 69}, {"virtual_rental_type_id": 2, "car_plate": "FA524YY", "virtual_rental_id": 362971, "car_category_id": 8, "car_category_type_id": 1, "lon": 9.213879, "carModelData": [], "car_name": "Fiat 500", "onClick_disabled": false, "address": "Via Sannio, 26, 20137 Milano", "lat": 45.446144, "fuel_level": 53}, {"virtual_rental_type_id": 2, "car_plate": "FA461YY", "virtual_rental_id": 357704, "car_category_id": 8, "car_category_type_id": 1, "lon": 9.232516, "carModelData": [], "car_name": "Fiat 500", "onClick_disabled": false, "address": "Via Adolfo Wildt, 19-21, 20131 Milano", "lat": 45.48807, "fuel_level": 92}, {"virtual_rental_type_id": 2, "car_plate": "ET897DD", "virtual_rental_id": 385819, "car_category_id": 8, "car_category_type_id": 1, "lon": 9.112792, "carModelData": [100], "car_name": "Fiat 500", "onClick_disabled": false, "address": "Via F.R.Lamennais, 19, 20153 Milano", "lat": 45.47339, "fuel_level": 86}, {"virtual_rental_type_id": 2, "car_plate": "EZ752NF", "virtual_rental_id": 336777, "car_category_id": 8, "car_category_type_id": 1, "lon": 9.219486, "carModelData": [], "car_name": "Fiat 500", "onClick_disabled": false, "address": "Via Tito Livio, 31, 20137 Milano", "lat": 45.45064, "fuel_level": 76}, {"virtual_rental_type_id": 2, "car_plate": "ET320XF", "virtual_rental_id": 399769, "car_category_id": 8, "car_category_type_id": 1, "lon": 9.180605, "carModelData": [100], "car_name": "Fiat 500", "onClick_disabled": false, "address": "Via Odoardo Tabacchi, 5, 20136 Milano", "lat": 45.447517, "fuel_level": 86}, {"virtual_rental_type_id": 2, "car_plate": "FA817WD", "virtual_rental_id": 331402, "car_category_id": 8, "car_category_type_id": 1, "lon": 9.227033, "carModelData": [], "car_name": "Fiat 500", "onClick_disabled": false, "address": "Via Giosu\u00e8 Carducci, 27, 20099 Sesto San Giovanni MI", "lat": 45.530106, "fuel_level": 34}, {"virtual_rental_type_id": 2, "car_plate": "FA827WD", "virtual_rental_id": 420339, "car_category_id": 8, "car_category_type_id": 1, "lon": 9.283398, "carModelData": [], "car_name": "Fiat 500", "onClick_disabled": false, "address": "Via Felice Maritano, 24, 20097 San Donato Milanese MI", "lat": 45.42011, "fuel_level": 67}, {"virtual_rental_type_id": 2, "car_plate": "EZ335GW", "virtual_rental_id": 363000, "car_category_id": 8, "car_category_type_id": 1, "lon": 9.191581, "carModelData": [14], "car_name": "Fiat 500", "onClick_disabled": false, "address": "Via Luigi Bianchi D'espinosa, 7, 20162 Milano", "lat": 45.513733, "fuel_level": 84}, {"virtual_rental_type_id": 2, "car_plate": "FA417YY", "virtual_rental_id": 356502, "car_category_id": 8, "car_category_type_id": 1, "lon": 9.148499, "carModelData": [], "car_name": "Fiat 500", "onClick_disabled": false, "address": "Via Camillo Benso Conte di Cavour, 2, 20089 Rozzano MI", "lat": 45.375572, "fuel_level": 48}, {"virtual_rental_type_id": 2, "car_plate": "FA487YY", "virtual_rental_id": 332523, "car_category_id": 8, "car_category_type_id": 1, "lon": 9.25437, "carModelData": [], "car_name": "Fiat 500", "onClick_disabled": false, "address": "Piazza Caduti e Dispersi in Russia, 1, 20134 Milano", "lat": 45.490368, "fuel_level": 52}, {"virtual_rental_type_id": 2, "car_plate": "EZ345GW", "virtual_rental_id": 342530, "car_category_id": 8, "car_category_type_id": 1, "lon": 9.235445, "carModelData": [], "car_name": "Fiat 500", "onClick_disabled": false, "address": "Via Roberto Tremelloni, 20128 Milano", "lat": 45.514988, "fuel_level": 40}, {"virtual_rental_type_id": 2, "car_plate": "ET299XF", "virtual_rental_id": 357516, "car_category_id": 8, "car_category_type_id": 1, "lon": 9.173226, "carModelData": [100], "car_name": "Fiat 500", "onClick_disabled": false, "address": "Via Michele Saponaro, 26, 20142 Milano", "lat": 45.40815, "fuel_level": 51}, {"virtual_rental_type_id": 1, "car_plate": "ED57389", "virtual_rental_id": 274656, "car_category_id": 7, "car_category_type_id": 2, "lon": 9.111513, "carModelData": [100], "car_name": "Piaggio MP3", "onClick_disabled": false, "address": "Via Vivaldi Antonio, 25, 20090 Buccinasco MI", "lat": 45.41556, "fuel_level": 59}, {"virtual_rental_type_id": 2, "car_plate": "ET033XL", "virtual_rental_id": 394666, "car_category_id": 8, "car_category_type_id": 1, "lon": 9.121539, "carModelData": [100], "car_name": "Fiat 500", "onClick_disabled": false, "address": "Via Giuseppe di Vittorio, 3, 20090 Buccinasco MI", "lat": 45.421104, "fuel_level": 91}, {"virtual_rental_type_id": 2, "car_plate": "ET697XJ", "virtual_rental_id": 349832, "car_category_id": 8, "car_category_type_id": 1, "lon": 9.193377, "carModelData": [100], "car_name": "Fiat 500", "onClick_disabled": false, "address": "Via Riccardo Bauer, 16, 20162 Milano", "lat": 45.51613, "fuel_level": 55}, {"virtual_rental_type_id": 3, "car_plate": "ET100XL", "virtual_rental_id": 214104, "car_category_id": 9, "car_category_type_id": 1, "lon": 9.241092, "carModelData": [100], "car_name": "Fiat 500 L", "onClick_disabled": false, "address": "Via Gino Severini, 20138 Milano", "lat": 45.43758, "fuel_level": 100}, {"virtual_rental_type_id": 2, "car_plate": "EZ754NF", "virtual_rental_id": 340359, "car_category_id": 8, "car_category_type_id": 1, "lon": 9.060197, "carModelData": [], "car_name": "Fiat 500", "onClick_disabled": false, "address": "Via Giuseppe di Vittorio, 52, 20019 Settimo Milanese MI", "lat": 45.478573, "fuel_level": 58}, {"virtual_rental_type_id": 2, "car_plate": "ET926DD", "virtual_rental_id": 356571, "car_category_id": 8, "car_category_type_id": 1, "lon": 9.20078, "carModelData": [100], "car_name": "Fiat 500", "onClick_disabled": false, "address": "Via Tullo Morgagni, 2, 20125 Milano", "lat": 45.498966, "fuel_level": 83}, {"virtual_rental_type_id": 2, "car_plate": "FA517YY", "virtual_rental_id": 333125, "car_category_id": 8, "car_category_type_id": 1, "lon": 9.225738, "carModelData": [], "car_name": "Fiat 500", "onClick_disabled": false, "address": "Piazza Leonardo Da Vinci, 9, 20133 Milano", "lat": 45.478626, "fuel_level": 92}, {"virtual_rental_type_id": 2, "car_plate": "ET002XL", "virtual_rental_id": 335997, "car_category_id": 8, "car_category_type_id": 1, "lon": 9.283505, "carModelData": [100], "car_name": "Fiat 500", "onClick_disabled": false, "address": "Via Felice Maritano, 24, 20097 San Donato Milanese MI", "lat": 45.420193, "fuel_level": 60}, {"virtual_rental_type_id": 2, "car_plate": "FA843WD", "virtual_rental_id": 329386, "car_category_id": 8, "car_category_type_id": 1, "lon": 9.175245, "carModelData": [], "car_name": "Fiat 500", "onClick_disabled": false, "address": "Via Guido de Ruggiero, 6, 20142 Milano", "lat": 45.418026, "fuel_level": 86}, {"virtual_rental_type_id": 1, "car_plate": "ED57414", "virtual_rental_id": 300628, "car_category_id": 7, "car_category_type_id": 2, "lon": 9.212094, "carModelData": [100], "car_name": "Piaggio MP3", "onClick_disabled": false, "address": "Viale dell'Innovazione, 3, 20125 Milano", "lat": 45.51301, "fuel_level": 88},