[{"car_name":"Fiat 500","car_plate":"FA492YY","fuel_level":34,"lat":45.482044,"lon":9.175739,"address":"Via Messina, 2-8, 20154 Milano","virtual_rental_type_id":2,"virtual_rental_id":371776,"car_category_type_id":1,"car_category_id":8,"onClick_disabled":false,"carModelData":[]},{"car_name":"Piaggio MP3","car_plate":"ED04657","fuel_level":59,"lat":45.49659,"lon":9.235733,"address":"SPexSS11, 20132 Milano","virtual_rental_type_id":1,"virtual_rental_id":371741,"car_category_type_id":2,"car_category_id":7,"onClick_disabled":false,"carModelData":[100]},{"car_name":"Fiat 500","car_plate":"EX993VG","fuel_level":24,"lat":45.486664,"lon":9.159678,"address":"Via Ezio Biondi, 3, 20154 Milano","virtual_rental_type_id":2,"virtual_rental_id":363992,"car_category_type_id":1,"car_category_id":8,"onClick_disabled":false,"carModelData":[100]},{"car_name":"Fiat 500","car_plate":"EZ036TY","fuel_level":73,"lat":45.49166,"lon":9.122501,"address":"Via Luigi Chiarelli, 16, 20151 Milano","virtual_rental_type_id":2,"virtual_rental_id":379030,"car_category_type_id":1,"car_category_id":8,"onClick_disabled":false,"carModelData":[]},{"car_name":"Piaggio MP3","car_plate":"ED04621","fuel_level":66,"lat":45.48947,"lon":9.05056,"address":"SPexSS11, 27, 20019 Settimo Milanese MI","virtual_rental_type_id":1,"virtual_rental_id":346778,"car_category_type_id":2,"car_category_id":7,"onClick_disabled":false,"carModelData":[100]},{"car_name":"Fiat 500","car_plate":"FA520YY","fuel_level":71,"lat":45.505444,"lon":9.096945,"address":"Via Appennini, 201, 20151 Milano MI","virtual_rental_type_id":2,"virtual_rental_id":351622,"car_category_type_id":1,"car_category_id":8,"onClick_disabled":false,"carModelData":[]},{"car_name":"Fiat 500","car_plate":"ET952DD","fuel_level":98,"lat":45.413277,"lon":9.276702,"address":"Via Felice Maritano, 14B, 20097 San Donato Milanese MI","virtual_rental_type_id":2,"virtual_rental_id":376322,"car_category_type_id":1,"car_category_id":8,"onClick_disabled":false,"carModelData":[100]},{"car_name":"Fiat 500","car_plate":"FA818WD","fuel_level":4,"lat":45.502228,"lon":9.178137,"address":"Via Livigno, 26, 20158 Milano","virtual_rental_type_id":2,"virtual_rental_id":364259,"car_category_type_id":1,"car_category_id":8,"onClick_disabled":false,"carModelData":[]},{"car_name":"Fiat 500","car_plate":"ET341XF","fuel_level":24,"lat":45.48488,"lon":9.17825,"address":"Piazzale Cimitero Monumentale, 9, 20154 Milano","virtual_rental_type_id":2,"virtual_rental_id":326931,"car_category_type_id":1,"car_category_id":8,"onClick_disabled":false,"carModelData":[100]},{"car_name":"Fiat 500","car_plate":"ET000DE","fuel_level":97,"lat":45.414246,"lon":9.178919,"address":"Via Selvanesco, 73, 20142 Milano","virtual_rental_type_id":2,"virtual_rental_id":412416,"car_category_type_id":1,"car_category_id":8,"onClick_disabled":false,"carModelData":[100]},{"car_name":"Fiat 500","car_plate":"EZ130TY","fuel_level":91,"lat":45.435375,"lon":9.236325,"address":"Via Giacomo Filippo Lacaita, 2, 20139 Milano","virtual_rental_type_id":2,"virtual_rental_id":381009,"car_category_type_id":1,"car_category_id":8,"onClick_disabled":false,"carModelData":[]},{"car_name":"Piaggio MP3","car_plate":"ED57411","fuel_level":0,"lat":45.487217,"lon":9.202158,"address":"Via Fabio Filzi, 3, 20124 Milano","virtual_rental_type_id":1,"virtual_rental_id":306309,"car_category_type_id":2,"car_category_id":7,"onClick_disabled":false,"carModelData":[100]},{"car_name":"Piaggio MP3","car_plate":"ED04656","fuel_level":70,"lat":45.41556,"lon":9.111541,"address":"Via Vivaldi Antonio, 25, 20090 Buccinasco MI","virtual_rental_type_id":1,"virtual_rental_id":379739,"car_category_type_id":2,"car_category_id":7,"onClick_disabled":false,"carModelData":[100]},{"car_name":"Fiat 500","car_plate":"FA833WD","fuel_level":26,"lat":45.41643,"lon":9.123817,"address":"Via Lomellina, 16B, 20090 Buccinasco MI","virtual_rental_type_id":2,"virtual_rental_id":337656,"car_category_type_id":1,"car_category_id":8,"onClick_disabled":false,"carModelData":[]},{"car_name":"Fiat 500","car_plate":"ET922DD","fuel_level":61,"lat":45.42325,"lon":9.102292,"address":"Via Alessandro Manzoni, 9, 20090 Buccinasco MI","virtual_rental_type_id":2,"virtual_rental_id":329148,"car_category_type_id":1,"car_category_id":8,"onClick_disabled":false,"carModelData":[100]},{"car_name":"Fiat 500","car_plate":"EZ368GW","fuel_level":58,"lat":45.456482,"lon":9.090954,"address":"Via Benozzo Gozzoli, 12, 20152 Milano","virtual_rental_type_id":2,"virtual_rental_id":325841,"car_category_type_id":1,"car_category_id":8,"onClick_disabled":false,"carModelData":[]},{"car_name":"Fiat 500","car_plate":"FA476YY","fuel_level":62,"lat":45.50687,"lon":9.126162,"address":"Via Mahatma Gandhi, 18, 20156 Milano","virtual_rental_type_id":2,"virtual_rental_id":333620,"car_category_type_id":1,"car_category_id":8,"onClick_disabled":false,"carModelData":[]},{"car_name":"Piaggio MP3","car_plate":"ED57152","fuel_level":72,"lat":45.444073,"lon":9.089204,"address":"Via Amerigo Vespucci, 5, 20090 Cesano Boscone MI","virtual_rental_type_id":1,"virtual_rental_id":299122,"car_category_type_id":2,"car_category_id":7,"onClick_disabled":false,"carModelData":[100]},{"car_name":"Fiat 500","car_plate":"EZ324GW","fuel_level":77,"lat":45.420258,"lon":9.283694,"address":"Via Felice Maritano, 24, 20097 San Donato Milanese MI","virtual_rental_type_id":2,"virtual_rental_id":329254,"car_category_type_id":1,"car_category_id":8,"onClick_disabled":false,"carModelData":[]},{"car_name":"Fiat 500","car_plate":"ET066XL","fuel_level":44,"lat":45.47007,"lon":9.262522,"address":"Via Arcangelo Corelli, 136, 20134 Milano","virtual_rental_type_id":2,"virtual_rental_id":399858,"car_category_type_id":1,"car_category_id":8,"onClick_disabled":false,"carModelData":[100]},{"car_name":"Fiat 500","car_plate":"FA469YY","fuel_level":20,"lat":45.44419,"lon":9.08906,"address":"Via Amerigo Vespucci, 6, 20090 Cesano Boscone MI","virtual_rental_type_id":2,"virtual_rental_id":377572,"car_category_type_id":1,"car_category_id":8,"onClick_disabled":false,"carModelData":[]},{"car_name":"Fiat 500","car_plate":"ET017XL","fuel_level":85,"lat":45.494225,"lon":9.106992,"address":"Via Ugo Betti, 81, 20151 Milano","virtual_rental_type_id":2,"virtual_rental_id":350003,"car_category_type_id":1,"car_category_id":8,"onClick_disabled":false,"carModelData":[100]},{"car_name":"Fiat 500","car_plate":"ET904DD","fuel_level":16,"lat":45.451492,"lon":9.249668,"address":"Via Mecenate, 82-88, 20138 Milano","virtual_rental_type_id":2,"virtual_rental_id":393378,"car_category_type_id":1,"car_category_id":8,"onClick_disabled":false,"carModelData":[100]},{"car_name":"Piaggio MP3","car_plate":"ED57074","fuel_level":23,"lat":45.48633,"lon":9.1296015,"address":"Via Carlo Osma, 7-9, 20151 Milano","virtual_rental_type_id":1,"virtual_rental_id":285366,"car_category_type_id":2,"car_category_id":7,"onClick_disabled":false,"carModelData":[100]},{"car_name":"Fiat 500","car_plate":"ET275XF","fuel_level":35,"lat":45.50275,"lon":9.23903,"address":"Via Padova, 194, 20132 Milano","virtual_rental_type_id":2,"virtual_rental_id":407656,"car_category_type_id":1,"car_category_id":8,"onClick_disabled":false,"carModelData":[100]},{"car_name":"Fiat 500","car_plate":"EZ364GW","fuel_level":98,"lat":45.505253,"lon":9.125669,"address":"Via Mahatma Gandhi, 9, 20156 Milano","virtual_rental_type_id":2,"virtual_rental_id":327998,"car_category_type_id":1,"car_category_id":8,"onClick_disabled":false,"carModelData":[]},{"car_name":"Fiat 500","car_plate":"EY173WC","fuel_level":71,"lat":45.46589,"lon":9.073575,"address":"Via S. Martino, 4-6, 20019 Settimo Milanese MI","virtual_rental_type_id":2,"virtual_rental_id":360101,"car_category_type_id":1,"car_category_id":8,"onClick_disabled":false,"carModelData":[100]},{"car_name":"Fiat 500","car_plate":"FA835WD","fuel_level":74,"lat":45.503494,"lon":9.143265,"address":"Via Emilio Bianchi, 2-6, 20156 Milano","virtual_rental_type_id":2,"virtual_rental_id":382854,"car_category_type_id":1,"car_category_id":8,"onClick_disabled":false,"carModelData":[]},{"car_name":"Fiat 500","car_plate":"EZ766NF","fuel_level":55,"lat":45.492535,"lon":9.168327,"address":"Via Principe Eugenio, 58, 20154 Milano","virtual_rental_type_id":2,"virtual_rental_id":325483,"car_category_type_id":1,"car_category_id":8,"onClick_disabled":false,"carModelData":[]},{"car_name":"Fiat 500","car_plate":"EZ151GW","fuel_level":96,"lat":45.419678,"lon":9.157671,"address":"Via del Mare, 45, 20142 Milano","virtual_rental_type_id":2,"virtual_rental_id":400399,"car_category_type_id":1,"car_category_id":8,"onClick_disabled":false,"carModelData":[]},{"car_name":"Piaggio MP3","car_plate":"ED57392","fuel_level":31,"lat":45.487556,"lon":9.0516405,"address":"Via della Libert\u00e0, 72, 20019 Settimo Milanese MI","virtual_rental_type_id":1,"virtual_rental_id":274652,"car_category_type_id":2,"car_category_id":7,"onClick_disabled":false,"carModelData":[100]},{"car_name":"Fiat 500","car_plate":"FA449YY","fuel_level":72,"lat":45.48921,"lon":9.119655,"address":"Via Antonio Cechov, 1-13, 20151 Milano","virtual_rental_type_id":2,"virtual_rental_id":327945,"car_category_type_id":1,"car_category_id":8,"onClick_disabled":false,"carModelData":[]},{"car_name":"Fiat 500","car_plate":"ET988XK","fuel_level":83,"lat":45.45336,"lon":9.096631,"address":"Via Valsesia, 63, 20152 Milano","virtual_rental_type_id":2,"virtual_rental_id":413951,"car_category_type_id":1,"car_category_id":8,"onClick_disabled":false,"carModelData":[100]},{"car_name":"Piaggio MP3","car_plate":"ED57142","fuel_level":39,"lat":45.466694,"lon":9.174485,"address":"Via Vincenzo Monti, 79\/5, 20145 Milano","virtual_rental_type_id":1,"virtual_rental_id":283924,"car_category_type_id":2,"car_category_id":7,"onClick_disabled":false,"carModelData":[100]},{"car_name":"Fiat 500","car_plate":"ET886DD","fuel_level":47,"lat":45.513874,"lon":9.245727,"address":"Via Adriano, 60, 20128 Milano","virtual_rental_type_id":2,"virtual_rental_id":352566,"car_category_type_id":1,"car_category_id":8,"onClick_disabled":false,"carModelData":[100]},{"car_name":"Fiat 500","car_plate":"ET641XJ","fuel_level":56,"lat":45.413292,"lon":9.276595,"address":"Via Felice Maritano, 14A, 20097 San Donato Milanese MI","virtual_rental_type_id":2,"virtual_rental_id":421877,"car_category_type_id":1,"car_category_id":8,"onClick_disabled":false,"carModelData":[100]},{"car_name":"Fiat 500","car_plate":"ET835DD","fuel_level":97,"lat":45.42803,"lon":9.254524,"address":"Via Giuseppe Impastato, 20138 Milano","virtual_rental_type_id":2,"virtual_rental_id":361693,"car_category_type_id":1,"car_category_id":8,"onClick_disabled":false,"carModelData":[100]},{"car_name":"Fiat 500","car_plate":"FA521YY","fuel_level":89,"lat":45.513557,"lon":9.125991,"address":"Via Giovanni Battista Grassi, 15, 20157 Milano","virtual_rental_type_id":2,"virtual_rental_id":331157,"car_category_type_id":1,"car_category_id":8,"onClick_disabled":false,"carModelData":[]},{"car_name":"Piaggio MP3","car_plate":"ED57395","fuel_level":100,"lat":45.493668,"lon":9.119827,"address":"Via Benedetto Croce, 20151 Milano","virtual_rental_type_id":1,"virtual_rental_id":274833,"car_category_type_id":2,"car_category_id":7,"onClick_disabled":false,"carModelData":[100]},{"car_name":"Fiat 500","car_plate":"ET996XK","fuel_level":74,"lat":45.52513,"lon":9.164716,"address":"Via Madre Clelia Merloni, 2, 20161 Milano","virtual_rental_type_id":2,"virtual_rental_id":416885,"car_category_type_id":1,"car_category_id":8,"onClick_disabled":false,"carModelData":[100]},{"car_name":"Fiat 500","car_plate":"ET987XK","fuel_level":85,"lat":45.474644,"lon":9.18698,"address":"Largo Claudio Treves, 1, 20121 Milano","virtual_rental_type_id":2,"virtual_rental_id":329898,"car_category_type_id":1,"car_category_id":8,"onClick_disabled":false,"carModelData":[100]},{"car_name":"Fiat 500","car_plate":"ET998XK","fuel_level":53,"lat":45.518032,"lon":9.225755,"address":"Via Brunico, 5, 20126 Milano","virtual_rental_type_id":2,"virtual_rental_id":322408,"car_category_type_id":1,"car_category_id":8,"onClick_disabled":false,"carModelData":[100]},{"car_name":"Piaggio MP3","car_plate":"ED57147","fuel_level":89,"lat":45.50085,"lon":9.124896,"address":"Via Privata Gadames, 93, 20151 Milano","virtual_rental_type_id":1,"virtual_rental_id":333072,"car_category_type_id":2,"car_category_id":7,"onClick_disabled":false,"carModelData":[100]},{"car_name":"Piaggio MP3","car_plate":"ED04642","fuel_level":79,"lat":45.466194,"lon":9.201652,"address":"Via Pietro Mascagni, 1-5, 20122 Milano","virtual_rental_type_id":1,"virtual_rental_id":275111,"car_category_type_id":2,"car_category_id":7,"onClick_disabled":false,"carModelData":[100]},{"car_name":"Fiat 500","car_plate":"ET002XL","fuel_level":51,"lat":45.436752,"lon":9.265519,"address":"Via Camaldoli, 64, 20138 Milano MI","virtual_rental_type_id":2,"virtual_rental_id":353333,"car_category_type_id":1,"car_category_id":8,"onClick_disabled":false,"carModelData":[100]},{"car_name":"Fiat 500","car_plate":"ET877DD","fuel_level":100,"lat":45.423237,"lon":9.101804,"address":"Via Alessandro Manzoni, 9, 20090 Buccinasco MI","virtual_rental_type_id":2,"virtual_rental_id":359766,"car_category_type_id":1,"car_category_id":8,"onClick_disabled":false,"carModelData":[100]},{"car_name":"Fiat 500","car_plate":"EZ359GW","fuel_level":80,"lat":45.472973,"lon":9.19822,"address":"Via Palestro, 12, 20121 Milano","virtual_rental_type_id":2,"virtual_rental_id":367215,"car_category_type_id":1,"car_category_id":8,"onClick_disabled":false,"carModelData":[]},{"car_name":"Fiat 500","car_plate":"ET992CW","fuel_level":74,"lat":45.42337,"lon":9.127005,"address":"Via Rodolfo Morandi, 7, 20090 Buccinasco MI","virtual_rental_type_id":2,"virtual_rental_id":418860,"car_category_type_id":1,"car_category_id":8,"onClick_disabled":false,"carModelData":[14,100]},{"car_name":"Fiat 500","car_plate":"EZ285GW","fuel_level":62,"lat":45.480347,"lon":9.129271,"address":"Piazzale dello Sport, 16, 20151 Milano","virtual_rental_type_id":2,"virtual_rental_id":359768,"car_category_type_id":1,"car_category_id":8,"onClick_disabled":false,"carModelData":[100]},{"car_name":"Fiat 500","car_plate":"EZ355GW","fuel_level":22,"lat":45.485725,"lon":9.059733,"address":"Via Vittorio Alfieri, 32, 20019 Settimo Milanese MI","virtual_rental_type_id":2,"virtual_rental_id":331012,"car_category_type_id":1,"car_category_id":8,"onClick_disabled":false,"carModelData":[]},{"car_name":"Fiat 500","car_plate":"ET903DD","fuel_level":98,"lat":45.459538,"lon":9.12119,"address":"Via Simone Saint Bon, 16-18, 20147 Milano","virtual_rental_type_id":2,"virtual_rental_id":358932,"car_category_type_id":1,"car_category_id":8,"onClick_disabled":false,"carModelData":[100]},{"car_name":"Fiat 500","car_plate":"ET361XF","fuel_level":90,"lat":45.426605,"lon":9.103022,"address":"Via Asiago, 12, 20094 Corsico MI","virtual_rental_type_id":2,"virtual_rental_id":357036,"car_category_type_id":1,"car_category_id":8,"onClick_disabled":false,"carModelData":[100]},{"car_name":"Fiat 500","car_plate":"EY186YA","fuel_level":13,"lat":45.490623,"lon":9.188156,"address":"Via Alserio, 21-23, 20159 Milano","virtual_rental_type_id":2,"virtual_rental_id":369557,"car_category_type_id":1,"car_category_id":8,"onClick_disabled":false,"carModelData":[100]},{"car_name":"Fiat 500","car_plate":"ET331XF","fuel_level":36,"lat":45.471466,"lon":9.182855,"address":"Foro Buonaparte, 52, 20121 Milano","virtual_rental_type_id":2,"virtual_rental_id":377709,"car_category_type_id":1,"car_category_id":8,"onClick_disabled":false,"carModelData":[100]},{"car_name":"Piaggio MP3","car_plate":"ED57382","fuel_level":11,"lat":45.494987,"lon":9.237436,"address":"Via Monfalcone, 14-32, 20132 Milano","virtual_rental_type_id":1,"virtual_rental_id":312205,"car_category_type_id":2,"car_category_id":7,"onClick_disabled":false,"carModelData":[100]},{"car_name":"Fiat 500","car_plate":"ET962XK","fuel_level":98,"lat":45.413322,"lon":9.276612,"address":"Via Felice Maritano, 14A, 20097 San Donato Milanese MI","virtual_rental_type_id":2,"virtual_rental_id":373289,"car_category_type_id":1,"car_category_id":8,"onClick_disabled":false,"carModelData":[100]},{"car_name":"Fiat 500","car_plate":"ET954XK","fuel_level":71,"lat":45.428123,"lon":9.125998,"address":"Via della Costituzione, 11, 20090 Buccinasco MI","virtual_rental_type_id":2,"virtual_rental_id":338893,"car_category_type_id":1,"car_category_id":8,"onClick_disabled":false,"carModelData":[100]},{"car_name":"Fiat 500","car_plate":"ET056XL","fuel_level":96,"lat":45.503586,"lon":9.2356415,"address":"Via Angelo Zanardini, 18, 20127 Milano","virtual_rental_type_id":2,"virtual_rental_id":362519,"car_category_type_id":1,"car_category_id":8,"onClick_disabled":false,"carModelData":[100]},{"car_name":"Fiat 500","car_plate":"ET271CY","fuel_level":98,"lat":45.43878,"lon":9.127649,"address":"Via S. Colombano, 7, 20142 Milano","virtual_rental_type_id":2,"virtual_rental_id":357270,"car_category_type_id":1,"car_category_id":8,"onClick_disabled":false,"carModelData":[100]},{"car_name":"Fiat 500","car_plate":"FA794WD","fuel_level":83,"lat":45.503918,"lon":9.102611,"address":"Via Alex Visconti, 8, 20151 Milano","virtual_rental_type_id":2,"virtual_rental_id":358065,"car_category_type_id":1,"car_category_id":8,"onClick_disabled":false,"carModelData":[]},{"car_name":"Fiat 500","car_plate":"ET596XJ","fuel_level":97,"lat":45.458218,"lon":9.153285,"address":"Via Garian, 22, 20146 Milano","virtual_rental_type_id":2,"virtual_rental_id":414507,"car_category_type_id":1,"car_category_id":8,"onClick_disabled":false,"carModelData":[100]},{"car_name":"Fiat 500","car_plate":"EZ358GW","fuel_level":91,"lat":45.5403,"lon":9.222655,"address":"Via Saint Denis, 205, 20099 Sesto San Giovanni MI","virtual_rental_type_id":2,"virtual_rental_id":426318,"car_category_type_id":1,"car_category_id":8,"onClick_disabled":false,"carModelData":[14]},{"car_name":"Fiat 500","car_plate":"FA450YY","fuel_level":80,"lat":45.469772,"lon":9.061157,"address":"Via Leonardo da Vinci, 56, 20019 Settimo Milanese MI","virtual_rental_type_id":2,"virtual_rental_id":433158,"car_category_type_id":1,"car_category_id":8,"onClick_disabled":false,"carModelData":[]},{"car_name":"Fiat 500","car_plate":"FA431YY","fuel_level":58,"lat":45.430676,"lon":9.177909,"address":"Piazza Abbiategrasso, 1, 20141 Milano","virtual_rental_type_id":2,"virtual_rental_id":358047,"car_category_type_id":1,"car_category_id":8,"onClick_disabled":false,"carModelData":[]},{"car_name":"Fiat 500","car_plate":"FA823WD","fuel_level":42,"lat":45.482876,"lon":9.1943865,"address":"Viale della Liberazione, 18, 20124 Milano","virtual_rental_type_id":2,"virtual_rental_id":369483,"car_category_type_id":1,"car_category_id":8,"onClick_disabled":false,"carModelData":[]},{"car_name":"Fiat 500","car_plate":"EZ214TY","fuel_level":97,"lat":45.47151,"lon":9.182058,"address":"Via Giovanni Lanza, 3, 20121 Milano","virtual_rental_type_id":2,"virtual_rental_id":349862,"car_category_type_id":1,"car_category_id":8,"onClick_disabled":false,"carModelData":[]},{"car_name":"Fiat 500","car_plate":"FA455YY","fuel_level":51,"lat":45.511482,"lon":9.128728,"address":"Largo Umberto Boccioni, 10, 20157 Milano","virtual_rental_type_id":2,"virtual_rental_id":360516,"car_category_type_id":1,"car_category_id":8,"onClick_disabled":false,"carModelData":[]},{"car_name":"Fiat 500","car_plate":"ET931DD","fuel_level":98,"lat":45.43923,"lon":9.128071,"address":"Via S. Colombano, 11, 20142 Milano","virtual_rental_type_id":2,"virtual_rental_id":373988,"car_category_type_id":1,"car_category_id":8,"onClick_disabled":false,"carModelData":[100]},{"car_name":"Fiat 500","car_plate":"ET876DD","fuel_level":33,"lat":45.47745,"lon":9.11729,"address":"Via Federico Tesio, 7, 20151 Milano","virtual_rental_type_id":2,"virtual_rental_id":424034,"car_category_type_id":1,"car_category_id":8,"onClick_disabled":false,"carModelData":[100]},{"car_name":"Fiat 500","car_plate":"ET869DD","fuel_level":22,"lat":45.514015,"lon":9.168103,"address":"Via Privata Andrea Vochieri, 14, 20161 Milano","virtual_rental_type_id":2,"virtual_rental_id":382699,"car_category_type_id":1,"car_category_id":8,"onClick_disabled":false,"carModelData":[100]},{"car_name":"Fiat 500","car_plate":"EZ211TY","fuel_level":32,"lat":45.460995,"lon":9.081795,"address":"Via Cusago, 66, 20153 Milano","virtual_rental_type_id":2,"virtual_rental_id":324684,"car_category_type_id":1,"car_category_id":8,"onClick_disabled":false,"carModelData":[]},{"car_name":"Fiat 500","car_plate":"FA505YY","fuel_level":70,"lat":45.47828,"lon":9.170402,"address":"Via Francesco Melzi d\u0027Eril, 29, 20154 Milano","virtual_rental_type_id":2,"virtual_rental_id":377049,"car_category_type_id":1,"car_category_id":8,"onClick_disabled":false,"carModelData":[14]},{"car_name":"Fiat 500","car_plate":"ET953DD","fuel_level":40,"lat":45.43028,"lon":9.1234255,"address":"Via Giuseppe Garibaldi, 13, 20090 Buccinasco MI","virtual_rental_type_id":2,"virtual_rental_id":378601,"car_category_type_id":1,"car_category_id":8,"onClick_disabled":false,"carModelData":[100]},{"car_name":"Piaggio MP3","car_plate":"ED57065","fuel_level":57,"lat":45.507553,"lon":9.236947,"address":"Via Ponte Nuovo, 40, 20128 Milano","virtual_rental_type_id":1,"virtual_rental_id":361416,"car_category_type_id":2,"car_category_id":7,"onClick_disabled":false,"carModelData":[100]},{"car_name":"Fiat 500","car_plate":"FA495YY","fuel_level":98,"lat":45.417213,"lon":9.26434,"address":"Via Cesare Battisti, 21, 20097 San Donato Milanese MI","virtual_rental_type_id":2,"virtual_rental_id":352983,"car_category_type_id":1,"car_category_id":8,"onClick_disabled":false,"carModelData":[]},{"car_name":"Fiat 500","car_plate":"ET663XJ","fuel_level":74,"lat":45.508953,"lon":9.131171,"address":"Via Giovanni Ameglio, 1-9, 20157 Milano","virtual_rental_type_id":2,"virtual_rental_id":372564,"car_category_type_id":1,"car_category_id":8,"onClick_disabled":false,"carModelData":[100]},{"car_name":"Fiat 500","car_plate":"EZ885DF","fuel_level":67,"lat":45.45637,"lon":9.127469,"address":"Via dei Ciclamini, 16, 20147 Milano","virtual_rental_type_id":2,"virtual_rental_id":361858,"car_category_type_id":1,"car_category_id":8,"onClick_disabled":false,"carModelData":[100]},{"car_name":"Fiat 500","car_plate":"EZ282GW","fuel_level":98,"lat":45.428074,"lon":9.119734,"address":"Via Pasin, 2, 20090 Buccinasco MI","virtual_rental_type_id":2,"virtual_rental_id":365540,"car_category_type_id":1,"car_category_id":8,"onClick_disabled":false,"carModelData":[100]},{"car_name":"Fiat 500","car_plate":"ET634XJ","fuel_level":32,"lat":45.431244,"lon":9.170311,"address":"Via Donna Prassede, 5a, 20142 Milano","virtual_rental_type_id":2,"virtual_rental_id":348301,"car_category_type_id":1,"car_category_id":8,"onClick_disabled":false,"carModelData":[100]},{"car_name":"Fiat 500","car_plate":"FA432YY","fuel_level":33,"lat":45.45019,"lon":9.203837,"address":"Via Verona, 5, 20135 Milano","virtual_rental_type_id":2,"virtual_rental_id":333341,"car_category_type_id":1,"car_category_id":8,"onClick_disabled":false,"carModelData":[]},{"car_name":"Piaggio MP3","car_plate":"DR81193","fuel_level":45,"lat":45.439816,"lon":9.153508,"address":"Via Modica, 560, 20143 Milano","virtual_rental_type_id":1,"virtual_rental_id":368071,"car_category_type_id":2,"car_category_id":7,"onClick_disabled":false,"carModelData":[100]},{"car_name":"Piaggio MP3","car_plate":"ED57398","fuel_level":72,"lat":45.490047,"lon":9.248067,"address":"Via Passo Rolle, 43, 20134 Milano","virtual_rental_type_id":1,"virtual_rental_id":300709,"car_category_type_id":2,"car_category_id":7,"onClick_disabled":false,"carModelData":[100]},{"car_name":"Fiat 500","car_plate":"ET921DD","fuel_level":100,"lat":45.475723,"lon":9.105651,"address":"Via Privata Luigi Zoja, 23, 20153 Milano","virtual_rental_type_id":2,"virtual_rental_id":389517,"car_category_type_id":1,"car_category_id":8,"onClick_disabled":false,"carModelData":[100]},{"car_name":"Fiat 500","car_plate":"EZ339GW","fuel_level":69,"lat":45.474953,"lon":9.155343,"address":"Piazzale Giulio Cesare, 21, 20145 Milano","virtual_rental_type_id":2,"virtual_rental_id":343476,"car_category_type_id":1,"car_category_id":8,"onClick_disabled":false,"carModelData":[]},{"car_name":"Fiat 500","car_plate":"EZ265GW","fuel_level":4,"lat":45.482975,"lon":9.184725,"address":"Via Massimo D\u0027Azeglio, 3, 20154 Milano","virtual_rental_type_id":2,"virtual_rental_id":341180,"car_category_type_id":1,"car_category_id":8,"onClick_disabled":false,"carModelData":[100]},{"car_name":"Fiat 500","car_plate":"EZ164TY","fuel_level":20,"lat":45.42629,"lon":9.125505,"address":"Via della Costituzione, 1, 20090 Milano MI","virtual_rental_type_id":2,"virtual_rental_id":355314,"car_category_type_id":1,"car_category_id":8,"onClick_disabled":false,"carModelData":[]},{"car_name":"Fiat 500","car_plate":"ET028XL","fuel_level":100,"lat":45.454002,"lon":9.09483,"address":"Via Valsesia, 65-79, 20152 Milano","virtual_rental_type_id":2,"virtual_rental_id":348762,"car_category_type_id":1,"car_category_id":8,"onClick_disabled":false,"carModelData":[]},{"car_name":"Fiat 500","car_plate":"ET593XJ","fuel_level":89,"lat":45.47141,"lon":9.1531105,"address":"Via Correggio, 1, 20149 Milano","virtual_rental_type_id":2,"virtual_rental_id":347735,"car_category_type_id":1,"car_category_id":8,"onClick_disabled":false,"carModelData":[14,100]},{"car_name":"Piaggio MP3","car_plate":"ED57396","fuel_level":86,"lat":45.494217,"lon":9.121861,"address":"Via Giacomo Quarenghi, 1-7, 20151 Milano","virtual_rental_type_id":1,"virtual_rental_id":275123,"car_category_type_id":2,"car_category_id":7,"onClick_disabled":false,"carModelData":[100]},{"car_name":"Fiat 500","car_plate":"FA424YY","fuel_level":96,"lat":45.461533,"lon":9.0928,"address":"Via Eligio Brigatti, 12, 20152 Milano","virtual_rental_type_id":2,"virtual_rental_id":437164,"car_category_type_id":1,"car_category_id":8,"onClick_disabled":false,"carModelData":[]},{"car_name":"Fiat 500","car_plate":"FA832WD","fuel_level":18,"lat":45.44005,"lon":9.157609,"address":"Via Felice Venosta, 20, 20143 Milano","virtual_rental_type_id":2,"virtual_rental_id":327607,"car_category_type_id":1,"car_category_id":8,"onClick_disabled":false,"carModelData":[]},{"car_name":"Piaggio MP3","car_plate":"ED04631","fuel_level":25,"lat":45.472717,"lon":9.11933,"address":"Via Novara, 101, 20153 Milano","virtual_rental_type_id":1,"virtual_rental_id":274863,"car_category_type_id":2,"car_category_id":7,"onClick_disabled":false,"carModelData":[100]},{"car_name":"Piaggio MP3","car_plate":"ED04639","fuel_level":93,"lat":45.485886,"lon":9.247121,"address":"Via Egidio Folli, 27-41, 20134 Milano","virtual_rental_type_id":1,"virtual_rental_id":282494,"car_category_type_id":2,"car_category_id":7,"onClick_disabled":false,"carModelData":[100]},{"car_name":"Fiat 500","car_plate":"FA452YY","fuel_level":26,"lat":45.4914,"lon":9.233289,"address":"Via Guido Mazzali, 5, 20132 Milano","virtual_rental_type_id":2,"virtual_rental_id":426871,"car_category_type_id":1,"car_category_id":8,"onClick_disabled":false,"carModelData":[]},{"car_name":"Fiat 500","car_plate":"ET650XJ","fuel_level":84,"lat":45.4321,"lon":9.2608185,"address":"Via Giuseppe Impastato, 6, 20138 Milano","virtual_rental_type_id":2,"virtual_rental_id":370287,"car_category_type_id":1,"car_category_id":8,"onClick_disabled":false,"carModelData":[100]},{"car_name":"Fiat 500","car_plate":"ET061XL","fuel_level":64,"lat":45.48892,"lon":9.1422825,"address":"Viale Achille Papa, 20151 Milano","virtual_rental_type_id":2,"virtual_rental_id":369004,"car_category_type_id":1,"car_category_id":8,"onClick_disabled":false,"carModelData":[100]},{"car_name":"Fiat 500","car_plate":"FA404YY","fuel_level":64,"lat":45.466415,"lon":9.148109,"address":"Via Antonio Tolomeo Trivulzio, 2-4, 20146 Milano","virtual_rental_type_id":2,"virtual_rental_id":427141,"car_category_type_id":1,"car_category_id":8,"onClick_disabled":false,"carModelData":[]},{"car_name":"Fiat 500","car_plate":"ET841DD","fuel_level":31,"lat":45.462307,"lon":9.124335,"address":"Via delle Forze Armate, 113, 20147 Milano","virtual_rental_type_id":2,"virtual_rental_id":346614,"car_category_type_id":1,"car_category_id":8,"onClick_disabled":false,"carModelData":[100]},{"car_name":"Piaggio MP3","car_plate":"ED04640","fuel_level":53,"lat":45.468277,"lon":9.1284275,"address":"Via Novara, 6, 20148 Milano","virtual_rental_type_id":1,"virtual_rental_id":274865,"car_category_type_id":2,"car_category_id":7,"onClick_disabled":false,"carModelData":[100]},{"car_name":"Fiat 500","car_plate":"FA499YY","fuel_level":63,"lat":45.422966,"lon":9.127827,"address":"Via Indipendenza, 5A, 20090 Buccinasco MI","virtual_rental_type_id":2,"virtual_rental_id":325167,"car_category_type_id":1,"car_category_id":8,"onClick_disabled":false,"carModelData":[]},{"car_name":"Piaggio MP3","car_plate":"ED04663","fuel_level":58,"lat":45.451508,"lon":9.091042,"address":"Istituto Sacra Famiglia, 20090 Cesano Boscone MI","virtual_rental_type_id":1,"virtual_rental_id":274840,"car_category_type_id":2,"car_category_id":7,"onClick_disabled":false,"carModelData":[100]},{"car_name":"Fiat 500","car_plate":"ET999DD","fuel_level":71,"lat":45.462646,"lon":9.207462,"address":"Piazza Cinque Giornate, 5, 20129 Milano","virtual_rental_type_id":2,"virtual_rental_id":430112,"car_category_type_id":1,"car_category_id":8,"onClick_disabled":false,"carModelData":[100]},{"car_name":"Fiat 500","car_plate":"ET971DD","fuel_level":92,"lat":45.505672,"lon":9.097205,"address":"Via Appennini, 197, 20151 Milano","virtual_rental_type_id":2,"virtual_rental_id":331766,"car_category_type_id":1,"car_category_id":8,"onClick_disabled":false,"carModelData":[14,100]},{"car_name":"Fiat 500","car_plate":"FA497YY","fuel_level":97,"lat":45.45783,"lon":9.218491,"address":"Via Costanza Arconati, 14, 20135 Milano","virtual_rental_type_id":2,"virtual_rental_id":433050,"car_category_type_id":1,"car_category_id":8,"onClick_disabled":false,"carModelData":[]},{"car_name":"Piaggio MP3","car_plate":"ED04645","fuel_level":80,"lat":45.485806,"lon":9.059899,"address":"Via Vittorio Alfieri, 35-39, 20019 Settimo Milanese MI","virtual_rental_type_id":1,"virtual_rental_id":274837,"car_category_type_id":2,"car_category_id":7,"onClick_disabled":false,"carModelData":[100]},{"car_name":"Fiat 500","car_plate":"ET638XJ","fuel_level":48,"lat":45.47363,"lon":9.12981,"address":"Via Guglielmo Ciardi, 20-22, 20148 Milano","virtual_rental_type_id":2,"virtual_rental_id":390847,"car_category_type_id":1,"car_category_id":8,"onClick_disabled":false,"carModelData":[100]},{"car_name":"Fiat 500","car_plate":"FA792WD","fuel_level":100,"lat":45.489964,"lon":9.189078,"address":"Via Pietro Borsieri, 41, 20159 Milano","virtual_rental_type_id":2,"virtual_rental_id":352181,"car_category_type_id":1,"car_category_id":8,"onClick_disabled":false,"carModelData":[]},{"car_name":"Fiat 500","car_plate":"EX523VG","fuel_level":37,"lat":45.490696,"lon":9.121976,"address":"Via Luigi Chiarelli, 10, 20151 Milano","virtual_rental_type_id":2,"virtual_rental_id":331899,"car_category_type_id":1,"car_category_id":8,"onClick_disabled":false,"carModelData":[100]},{"car_name":"Piaggio MP3","car_plate":"ED57071","fuel_level":85,"lat":45.50108,"lon":9.109168,"address":"Via Castellanza, 2-4, 20151 Milano","virtual_rental_type_id":1,"virtual_rental_id":282513,"car_category_type_id":2,"car_category_id":7,"onClick_disabled":false,"carModelData":[100]},{"car_name":"Fiat 500","car_plate":"FA831WD","fuel_level":65,"lat":45.473473,"lon":9.065091,"address":"Via Ignazio Silone, 39, 20019 Settimo Milanese MI","virtual_rental_type_id":2,"virtual_rental_id":342282,"car_category_type_id":1,"car_category_id":8,"onClick_disabled":false,"carModelData":[14]},{"car_name":"Fiat 500","car_plate":"ET999CW","fuel_level":49,"lat":45.454517,"lon":9.105567,"address":"Via Lucca, 53-59, 20152 Milano","virtual_rental_type_id":2,"virtual_rental_id":355518,"car_category_type_id":1,"car_category_id":8,"onClick_disabled":false,"carModelData":[100]},{"car_name":"Fiat 500","car_plate":"ET274CY","fuel_level":84,"lat":45.483356,"lon":9.184814,"address":"Via Massimo D\u0027Azeglio, 5, 20154 Milano","virtual_rental_type_id":2,"virtual_rental_id":355569,"car_category_type_id":1,"car_category_id":8,"onClick_disabled":false,"carModelData":[100]},{"car_name":"Fiat 500","car_plate":"ET630XJ","fuel_level":98,"lat":45.466896,"lon":9.091177,"address":"Via Capri, 2, 20153 Milano","virtual_rental_type_id":2,"virtual_rental_id":368034,"car_category_type_id":1,"car_category_id":8,"onClick_disabled":false,"carModelData":[100]},{"car_name":"Fiat 500","car_plate":"FA501YY","fuel_level":54,"lat":45.435577,"lon":9.213848,"address":"Via Pismonte, 9, 20139 Milano","virtual_rental_type_id":2,"virtual_rental_id":339523,"car_category_type_id":1,"car_category_id":8,"onClick_disabled":false,"carModelData":[]},{"car_name":"Fiat 500","car_plate":"EZ754NF","fuel_level":32,"lat":45.447933,"lon":9.204123,"address":"Via Trebbia, 28, 20135 Milano","virtual_rental_type_id":2,"virtual_rental_id":352996,"car_category_type_id":1,"car_category_id":8,"onClick_disabled":false,"carModelData":[]},{"car_name":"Fiat 500","car_plate":"ET669XJ","fuel_level":97,"lat":45.453876,"lon":9.183894,"address":"Via Calatafimi, 11-15, 20122 Milano","virtual_rental_type_id":2,"virtual_rental_id":322426,"car_category_type_id":1,"car_category_id":8,"onClick_disabled":false,"carModelData":[100]},{"car_name":"Fiat 500","car_plate":"FB324SM","fuel_level":71,"lat":45.523598,"lon":9.163864,"address":"Via Alessandro Litta Modignani, 12, 20161 Milano","virtual_rental_type_id":2,"virtual_rental_id":435828,"car_category_type_id":1,"car_category_id":8,"onClick_disabled":false,"carModelData":[]},{"car_name":"Fiat 500","car_plate":"FA508YY","fuel_level":69,"lat":45.457115,"lon":9.112953,"address":"Via Viterbo, 3, 20152 Milano","virtual_rental_type_id":2,"virtual_rental_id":327735,"car_category_type_id":1,"car_category_id":8,"onClick_disabled":false,"carModelData":[]},{"car_name":"Fiat 500","car_plate":"ET023XL","fuel_level":96,"lat":45.41797,"lon":9.282324,"address":"Via Felice Maritano, 26, 20097 San Donato Milanese MI","virtual_rental_type_id":2,"virtual_rental_id":400758,"car_category_type_id":1,"car_category_id":8,"onClick_disabled":false,"carModelData":[100]},{"car_name":"Piaggio MP3","car_plate":"ED57386","fuel_level":0,"lat":45.436195,"lon":9.175507,"address":"Via Francesco de Sanctis, 8, 20141 Milano","virtual_rental_type_id":1,"virtual_rental_id":301178,"car_category_type_id":2,"car_category_id":7,"onClick_disabled":false,"carModelData":[100]},{"car_name":"Fiat 500","car_plate":"ET265CY","fuel_level":100,"lat":45.5282,"lon":9.156549,"address":"Via Armando Spadini, 20161 Milano","virtual_rental_type_id":2,"virtual_rental_id":399430,"car_category_type_id":1,"car_category_id":8,"onClick_disabled":false,"carModelData":[100]},{"car_name":"Fiat 500","car_plate":"EZ341GW","fuel_level":46,"lat":45.520485,"lon":9.244807,"address":"Via Lombardia, 35, 20099 Sesto San Giovanni MI","virtual_rental_type_id":2,"virtual_rental_id":323262,"car_category_type_id":1,"car_category_id":8,"onClick_disabled":false,"carModelData":[]},{"car_name":"Piaggio MP3","car_plate":"ED04635","fuel_level":88,"lat":45.468796,"lon":9.176675,"address":"Piazzale Luigi Cadorna, 10, 20123 Milano","virtual_rental_type_id":1,"virtual_rental_id":284566,"car_category_type_id":2,"car_category_id":7,"onClick_disabled":false,"carModelData":[100]},{"car_name":"Fiat 500","car_plate":"FA830WD","fuel_level":94,"lat":45.490536,"lon":9.100477,"address":"Piazza Rosa Scolari, 7, 20151 Milano","virtual_rental_type_id":2,"virtual_rental_id":336813,"car_category_type_id":1,"car_category_id":8,"onClick_disabled":false,"carModelData":[]},{"car_name":"Fiat 500","car_plate":"FE804SS","fuel_level":81,"lat":45.45838,"lon":9.098885,"address":"Via Cividale del Friuli, 15, 20152 Milano","virtual_rental_type_id":2,"virtual_rental_id":368679,"car_category_type_id":1,"car_category_id":8,"onClick_disabled":false,"carModelData":[14]},{"car_name":"Fiat 500","car_plate":"FA814WD","fuel_level":92,"lat":45.452667,"lon":9.253656,"address":"Str. B - C.A.M.M., 20138 Milano","virtual_rental_type_id":2,"virtual_rental_id":348195,"car_category_type_id":1,"car_category_id":8,"onClick_disabled":false,"carModelData":[]},{"car_name":"Fiat 500","car_plate":"EZ134TY","fuel_level":66,"lat":45.50203,"lon":9.125203,"address":"Viale Certosa, 808, 20156 Milano","virtual_rental_type_id":2,"virtual_rental_id":325190,"car_category_type_id":1,"car_category_id":8,"onClick_disabled":false,"carModelData":[14]},{"car_name":"Fiat 500","car_plate":"ET863DD","fuel_level":67,"lat":45.45824,"lon":9.105898,"address":"Via Nikolajevka, 23, 20152 Milano","virtual_rental_type_id":2,"virtual_rental_id":393668,"car_category_type_id":1,"car_category_id":8,"onClick_disabled":false,"carModelData":[]},{"car_name":"Piaggio MP3","car_plate":"ED57139","fuel_level":68,"lat":45.468204,"lon":9.073672,"address":"Via Meriggia, 34, 20019 Settimo Milanese MI","virtual_rental_type_id":1,"virtual_rental_id":274814,"car_category_type_id":2,"car_category_id":7,"onClick_disabled":false,"carModelData":[100]},{"car_name":"Fiat 500","car_plate":"EZ037TY","fuel_level":44,"lat":45.417583,"lon":9.2823,"address":"Via Maritano Felice, 24A, 20097 San Donato Milanese MI","virtual_rental_type_id":2,"virtual_rental_id":337426,"car_category_type_id":1,"car_category_id":8,"onClick_disabled":false,"carModelData":[]},{"car_name":"Fiat 500","car_plate":"ET619XJ","fuel_level":40,"lat":45.486954,"lon":9.254374,"address":"Via Rombon, 78, 20134 Milano","virtual_rental_type_id":2,"virtual_rental_id":353680,"car_category_type_id":1,"car_category_id":8,"onClick_disabled":false,"carModelData":[100]},{"car_name":"Fiat 500","car_plate":"ET975XK","fuel_level":48,"lat":45.52391,"lon":9.170523,"address":"Via Gian Rinaldo Carli, 45, 20161 Milano","virtual_rental_type_id":2,"virtual_rental_id":325512,"car_category_type_id":1,"car_category_id":8,"onClick_disabled":false,"carModelData":[100]},{"car_name":"Piaggio MP3","car_plate":"ED57397","fuel_level":24,"lat":45.471767,"lon":9.116002,"address":"Via Privata Postumia, 20, 20153 Milano","virtual_rental_type_id":1,"virtual_rental_id":301250,"car_category_type_id":2,"car_category_id":7,"onClick_disabled":false,"carModelData":[]},{"car_name":"Piaggio MP3","car_plate":"ED04643","fuel_level":94,"lat":45.460617,"lon":9.110936,"address":"Via Fratelli Zoia, 228, 20152 Milano","virtual_rental_type_id":1,"virtual_rental_id":283927,"car_category_type_id":2,"car_category_id":7,"onClick_disabled":false,"carModelData":[100]},{"car_name":"Fiat 500","car_plate":"EZ326GW","fuel_level":60,"lat":45.43915,"lon":9.172346,"address":"Via la Spezia, 45, 20142 Milano","virtual_rental_type_id":2,"virtual_rental_id":389012,"car_category_type_id":1,"car_category_id":8,"onClick_disabled":false,"carModelData":[]},{"car_name":"Fiat 500","car_plate":"FA502YY","fuel_level":25,"lat":45.45387,"lon":9.1999445,"address":"Corso di Porta Romana, 111, 20122 Milano","virtual_rental_type_id":2,"virtual_rental_id":422862,"car_category_type_id":1,"car_category_id":8,"onClick_disabled":false,"carModelData":[]},{"car_name":"Fiat 500","car_plate":"EZ193GW","fuel_level":96,"lat":45.443523,"lon":9.150745,"address":"Via Giacomo Watt, 27-33, 20143 Milano","virtual_rental_type_id":2,"virtual_rental_id":409296,"car_category_type_id":1,"car_category_id":8,"onClick_disabled":false,"carModelData":[]},{"car_name":"Fiat 500","car_plate":"EZ223GW","fuel_level":62,"lat":45.51599,"lon":9.193468,"address":"Via Riccardo Bauer, 16, 20162 Milano","virtual_rental_type_id":2,"virtual_rental_id":421422,"car_category_type_id":1,"car_category_id":8,"onClick_disabled":false,"carModelData":[100]},{"car_name":"Fiat 500","car_plate":"ET003DE","fuel_level":54,"lat":45.488426,"lon":9.171437,"address":"Via Messina, 53, 20154 Milano","virtual_rental_type_id":2,"virtual_rental_id":327471,"car_category_type_id":1,"car_category_id":8,"onClick_disabled":false,"carModelData":[100]},{"car_name":"Piaggio MP3","car_plate":"ED04632","fuel_level":49,"lat":45.4434,"lon":9.086922,"address":"Via Amerigo Vespucci, 10, 20090 Cesano Boscone MI","virtual_rental_type_id":1,"virtual_rental_id":301123,"car_category_type_id":2,"car_category_id":7,"onClick_disabled":false,"carModelData":[100]},{"car_name":"Fiat 500","car_plate":"FA461YY","fuel_level":15,"lat":45.46167,"lon":9.178362,"address":"Via S. Pio V, 12, 20123 Milano","virtual_rental_type_id":2,"virtual_rental_id":378441,"car_category_type_id":1,"car_category_id":8,"onClick_disabled":false,"carModelData":[]},{"car_name":"Fiat 500","car_plate":"ET643XJ","fuel_level":98,"lat":45.472767,"lon":9.20237,"address":"Via Palestro, 16, 20121 Milano","virtual_rental_type_id":2,"virtual_rental_id":320676,"car_category_type_id":1,"car_category_id":8,"onClick_disabled":false,"carModelData":[100]},{"car_name":"Fiat 500","car_plate":"ET879DD","fuel_level":55,"lat":45.479393,"lon":9.16826,"address":"Corso Sempione, 28, 20154 Milano","virtual_rental_type_id":2,"virtual_rental_id":361328,"car_category_type_id":1,"car_category_id":8,"onClick_disabled":false,"carModelData":[100]},{"car_name":"Fiat 500","car_plate":"ET677XJ","fuel_level":97,"lat":45.493,"lon":9.104757,"address":"Via Ottone Rosai, 8, 20151 Milano","virtual_rental_type_id":2,"virtual_rental_id":334688,"car_category_type_id":1,"car_category_id":8,"onClick_disabled":false,"carModelData":[100]},{"car_name":"Fiat 500","car_plate":"ET318XF","fuel_level":71,"lat":45.461906,"lon":9.168633,"address":"Via degli Olivetani, 12, 20123 Milano","virtual_rental_type_id":2,"virtual_rental_id":369746,"car_category_type_id":1,"car_category_id":8,"onClick_disabled":false,"carModelData":[100]},{"car_name":"Fiat 500","car_plate":"EZ156GW","fuel_level":97,"lat":45.471897,"lon":9.166292,"address":"Largo 5\u00ba Alpini, 15, 20145 Milano","virtual_rental_type_id":2,"virtual_rental_id":414209,"car_category_type_id":1,"car_category_id":8,"onClick_disabled":false,"carModelData":[]},{"car_name":"Piaggio MP3","car_plate":"ED57377","fuel_level":11,"lat":45.498867,"lon":9.226192,"address":"Via Adelaide Bono Cairoli, 13-23, 20127 Milano","virtual_rental_type_id":1,"virtual_rental_id":284253,"car_category_type_id":2,"car_category_id":7,"onClick_disabled":false,"carModelData":[100]},{"car_name":"Fiat 500","car_plate":"ET345XF","fuel_level":35,"lat":45.450787,"lon":9.158035,"address":"Via Tortona, 72-74, 20144 Milano","virtual_rental_type_id":2,"virtual_rental_id":405726,"car_category_type_id":1,"car_category_id":8,"onClick_disabled":false,"carModelData":[]},{"car_name":"Fiat 500","car_plate":"ET010DE","fuel_level":100,"lat":45.489536,"lon":9.124863,"address":"Via Karl Ziegler, 20151 Milano","virtual_rental_type_id":2,"virtual_rental_id":372417,"car_category_type_id":1,"car_category_id":8,"onClick_disabled":false,"carModelData":[100]},{"car_name":"Fiat 500","car_plate":"EZ216GW","fuel_level":27,"lat":45.479874,"lon":9.05953,"address":"Via Don Luigi Sturzo, 13, 20019 Settimo Milanese MI","virtual_rental_type_id":2,"virtual_rental_id":350647,"car_category_type_id":1,"car_category_id":8,"onClick_disabled":false,"carModelData":[14,100]},{"car_name":"Fiat 500","car_plate":"FA430YY","fuel_level":82,"lat":45.42225,"lon":9.110468,"address":"Via Lario, 7, 20090 Buccinasco MI","virtual_rental_type_id":2,"virtual_rental_id":330171,"car_category_type_id":1,"car_category_id":8,"onClick_disabled":false,"carModelData":[]},{"car_name":"Fiat 500","car_plate":"EZ259GW","fuel_level":71,"lat":45.48932,"lon":9.1854315,"address":"Via Porro Lambertenghi Luigi, 9, 20159 Milano","virtual_rental_type_id":2,"virtual_rental_id":418310,"car_category_type_id":1,"car_category_id":8,"onClick_disabled":false,"carModelData":[100]},{"car_name":"Fiat 500","car_plate":"ET997CW","fuel_level":67,"lat":45.470333,"lon":9.11514,"address":"Via Pio II, 3, 20153 Milano","virtual_rental_type_id":2,"virtual_rental_id":357236,"car_category_type_id":1,"car_category_id":8,"onClick_disabled":false,"carModelData":[14]},{"car_name":"Fiat 500","car_plate":"EZ219TY","fuel_level":70,"lat":45.504875,"lon":9.122641,"address":"Via Sapri, 6, 20156 Milano","virtual_rental_type_id":2,"virtual_rental_id":344197,"car_category_type_id":1,"car_category_id":8,"onClick_disabled":false,"carModelData":[]},{"car_name":"Fiat 500","car_plate":"ET626XJ","fuel_level":15,"lat":45.460617,"lon":9.160264,"address":"Via Lipari, 8, 20144 Milano","virtual_rental_type_id":2,"virtual_rental_id":364263,"car_category_type_id":1,"car_category_id":8,"onClick_disabled":false,"carModelData":[100]},{"car_name":"Fiat 500","car_plate":"EZ182GW","fuel_level":74,"lat":45.490646,"lon":9.121537,"address":"Via Luigi Chiarelli, 10, 20151 Milano","virtual_rental_type_id":2,"virtual_rental_id":411239,"car_category_type_id":1,"car_category_id":8,"onClick_disabled":false,"carModelData":[]},{"car_name":"Piaggio MP3","car_plate":"ED04652","fuel_level":100,"lat":45.511627,"lon":9.127897,"address":"Via Giovanni Battista Grassi, 21, 20157 Milano","virtual_rental_type_id":1,"virtual_rental_id":274831,"car_category_type_id":2,"car_category_id":7,"onClick_disabled":false,"carModelData":[100]},{"car_name":"Fiat 500","car_plate":"ET893DD","fuel_level":48,"lat":45.48835,"lon":9.057856,"address":"Via Alessandro Manzoni, 4, 20019 Settimo Milanese MI","virtual_rental_type_id":2,"virtual_rental_id":363846,"car_category_type_id":1,"car_category_id":8,"onClick_disabled":false,"carModelData":[100]},{"car_name":"Fiat 500","car_plate":"EZ254GW","fuel_level":80,"lat":45.486145,"lon":9.231562,"address":"Via Francesco Ingegnoli, 1, 20131 Milano","virtual_rental_type_id":2,"virtual_rental_id":380011,"car_category_type_id":1,"car_category_id":8,"onClick_disabled":false,"carModelData":[100]},{"car_name":"Fiat 500","car_plate":"ET968XK","fuel_level":10,"lat":45.450382,"lon":9.140627,"address":"Via degli Zuccaro, 11, 20146 Milano","virtual_rental_type_id":2,"virtual_rental_id":333279,"car_category_type_id":1,"car_category_id":8,"onClick_disabled":false,"carModelData":[100]},{"car_name":"Piaggio MP3","car_plate":"ED04664","fuel_level":58,"lat":45.439674,"lon":9.101795,"address":"Via Repubblica, 51, 20090 Cesano Boscone MI","virtual_rental_type_id":1,"virtual_rental_id":369724,"car_category_type_id":2,"car_category_id":7,"onClick_disabled":false,"carModelData":[100]},{"car_name":"Fiat 500","car_plate":"EZ208TY","fuel_level":100,"lat":45.518585,"lon":9.227434,"address":"Via Privata Eraclito, 2-10, 20128 Milano","virtual_rental_type_id":2,"virtual_rental_id":346942,"car_category_type_id":1,"car_category_id":8,"onClick_disabled":false,"carModelData":[]},{"car_name":"Fiat 500","car_plate":"ET269XF","fuel_level":16,"lat":45.452003,"lon":9.183769,"address":"Viale Col di Lana, 12, 20136 Milano","virtual_rental_type_id":2,"virtual_rental_id":340013,"car_category_type_id":1,"car_category_id":8,"onClick_disabled":false,"carModelData":[100]},{"car_name":"Fiat 500","car_plate":"EX999VG","fuel_level":53,"lat":45.5044,"lon":9.211808,"address":"Via Emilio de Marchi, 66, 20125 Milano","virtual_rental_type_id":2,"virtual_rental_id":333853,"car_category_type_id":1,"car_category_id":8,"onClick_disabled":false,"carModelData":[100]},{"car_name":"Fiat 500","car_plate":"FA419YY","fuel_level":89,"lat":45.487095,"lon":9.174055,"address":"Piazza Coriolano, 1-9, 20154 Milano","virtual_rental_type_id":2,"virtual_rental_id":352666,"car_category_type_id":1,"car_category_id":8,"onClick_disabled":false,"carModelData":[]},{"car_name":"Fiat 500","car_plate":"EZ380GW","fuel_level":44,"lat":45.514328,"lon":9.16545,"address":"Via Ernesto Teodoro Moneta, 37, 20161 Milano","virtual_rental_type_id":2,"virtual_rental_id":379830,"car_category_type_id":1,"car_category_id":8,"onClick_disabled":false,"carModelData":[]},{"car_name":"Fiat 500","car_plate":"FA421YY","fuel_level":98,"lat":45.49564,"lon":9.196028,"address":"Via Leone Fortis, 10, 20125 Milano","virtual_rental_type_id":2,"virtual_rental_id":428296,"car_category_type_id":1,"car_category_id":8,"onClick_disabled":false,"carModelData":[]},{"car_name":"Fiat 500","car_plate":"FA849WD","fuel_level":98,"lat":45.428673,"lon":9.254617,"address":"Via Giuseppe Impastato, 20138 Milano","virtual_rental_type_id":2,"virtual_rental_id":433443,"car_category_type_id":1,"car_category_id":8,"onClick_disabled":false,"carModelData":[]},{"car_name":"Piaggio MP3","car_plate":"ED57408","fuel_level":92,"lat":45.44229,"lon":9.188602,"address":"Via dei Fontanili, 2, 20141 Milano","virtual_rental_type_id":1,"virtual_rental_id":275131,"car_category_type_id":2,"car_category_id":7,"onClick_disabled":false,"carModelData":[100]},{"car_name":"Fiat 500","car_plate":"ET068XL","fuel_level":2,"lat":45.48231,"lon":9.187941,"address":"Via Carlo de Cristoforis, 1-3, 20124 Milano","virtual_rental_type_id":2,"virtual_rental_id":378756,"car_category_type_id":1,"car_category_id":8,"onClick_disabled":false,"carModelData":[100]},{"car_name":"Fiat 500","car_plate":"FA426YY","fuel_level":98,"lat":45.427578,"lon":9.253586,"address":"Via Giuseppe Impastato, 20138 Milano","virtual_rental_type_id":2,"virtual_rental_id":340329,"car_category_type_id":1,"car_category_id":8,"onClick_disabled":false,"carModelData":[]},{"car_name":"Fiat 500","car_plate":"EZ344GW","fuel_level":28,"lat":45.48621,"lon":9.059489,"address":"Via Giacomo Leopardi, 13, 20019 Settimo Milanese MI","virtual_rental_type_id":2,"virtual_rental_id":332527,"car_category_type_id":1,"car_category_id":8,"onClick_disabled":false,"carModelData":[]},{"car_name":"Fiat 500","car_plate":"ET012DE","fuel_level":97,"lat":45.40698,"lon":9.169897,"address":"Via Costantino Baroni, 57, 20142 Milano","virtual_rental_type_id":2,"virtual_rental_id":436229,"car_category_type_id":1,"car_category_id":8,"onClick_disabled":false,"carModelData":[100]},{"car_name":"Fiat 500","car_plate":"ET989XK","fuel_level":56,"lat":45.46258,"lon":9.276964,"address":"Aeroporto Linate - Partenze, Segrate MI","virtual_rental_type_id":2,"virtual_rental_id":326444,"car_category_type_id":1,"car_category_id":8,"onClick_disabled":false,"carModelData":[100]},{"car_name":"Fiat 500","car_plate":"FA470YY","fuel_level":100,"lat":45.48075,"lon":9.062113,"address":"Via Giulio Pastore, 5, 20019 Settimo Milanese MI","virtual_rental_type_id":2,"virtual_rental_id":422323,"car_category_type_id":1,"car_category_id":8,"onClick_disabled":false,"carModelData":[]},{"car_name":"Fiat 500","car_plate":"ET000XL","fuel_level":70,"lat":45.430347,"lon":9.1235,"address":"Via Giuseppe Garibaldi, 13, 20090 Buccinasco MI","virtual_rental_type_id":2,"virtual_rental_id":332321,"car_category_type_id":1,"car_category_id":8,"onClick_disabled":false,"carModelData":[100]},{"car_name":"Fiat 500","car_plate":"EX990VG","fuel_level":91,"lat":45.51142,"lon":9.13792,"address":"Via Filippo de Pisis, 9, 20157 Milano","virtual_rental_type_id":2,"virtual_rental_id":365079,"car_category_type_id":1,"car_category_id":8,"onClick_disabled":false,"carModelData":[100]},{"car_name":"Fiat 500","car_plate":"EZ148GW","fuel_level":49,"lat":45.519203,"lon":9.2067995,"address":"Via Luigi Beccali, 7, 20162 Milano","virtual_rental_type_id":2,"virtual_rental_id":344634,"car_category_type_id":1,"car_category_id":8,"onClick_disabled":false,"carModelData":[]},{"car_name":"Fiat 500","car_plate":"FA441YY","fuel_level":64,"lat":45.499756,"lon":9.175725,"address":"Via Giuseppe Guerzoni, 18-30, 20158 Milano","virtual_rental_type_id":2,"virtual_rental_id":336183,"car_category_type_id":1,"car_category_id":8,"onClick_disabled":false,"carModelData":[]},{"car_name":"Fiat 500","car_plate":"ET846DD","fuel_level":41,"lat":45.50062,"lon":9.106026,"address":"Via Appennini, 9, 20151 Milano","virtual_rental_type_id":2,"virtual_rental_id":374615,"car_category_type_id":1,"car_category_id":8,"onClick_disabled":false,"carModelData":[100]},{"car_name":"Fiat 500","car_plate":"ET036XL","fuel_level":88,"lat":45.446404,"lon":9.180409,"address":"Via Antonio Tantardini, 8-10, 20136 Milano","virtual_rental_type_id":2,"virtual_rental_id":332086,"car_category_type_id":1,"car_category_id":8,"onClick_disabled":false,"carModelData":[100]},{"car_name":"Fiat 500","car_plate":"FA503YY","fuel_level":52,"lat":45.466454,"lon":9.09289,"address":"Via Angelo Bisi, 30, 20152 Milano","virtual_rental_type_id":2,"virtual_rental_id":350857,"car_category_type_id":1,"car_category_id":8,"onClick_disabled":false,"carModelData":[]},{"car_name":"Fiat 500","car_plate":"FA515YY","fuel_level":97,"lat":45.4365,"lon":9.2267,"address":"Via Giovanni Montemartini, 9, 20139 Milano","virtual_rental_type_id":2,"virtual_rental_id":322420,"car_category_type_id":1,"car_category_id":8,"onClick_disabled":false,"carModelData":[14]},{"car_name":"Fiat 500","car_plate":"ET324XF","fuel_level":96,"lat":45.41928,"lon":9.103754,"address":"Via I Maggio, 39, 20090 Buccinasco MI","virtual_rental_type_id":2,"virtual_rental_id":322322,"car_category_type_id":1,"car_category_id":8,"onClick_disabled":false,"carModelData":[100]},{"car_name":"Fiat 500","car_plate":"ET999XK","fuel_level":35,"lat":45.481045,"lon":9.226512,"address":"Via Andrea Maria Amp\u00e8re, 15, 20131 Milano","virtual_rental_type_id":2,"virtual_rental_id":328780,"car_category_type_id":1,"car_category_id":8,"onClick_disabled":false,"carModelData":[100]},{"car_name":"Fiat 500","car_plate":"EZ366GW","fuel_level":78,"lat":45.495594,"lon":9.177611,"address":"Via Resegone, 2, 20158 Milano","virtual_rental_type_id":2,"virtual_rental_id":418280,"car_category_type_id":1,"car_category_id":8,"onClick_disabled":false,"carModelData":[]},{"car_name":"Fiat 500","car_plate":"ET595XJ","fuel_level":98,"lat":45.407314,"lon":9.169981,"address":"Via Costantino Baroni, 57, 20142 Milano","virtual_rental_type_id":2,"virtual_rental_id":396189,"car_category_type_id":1,"car_category_id":8,"onClick_disabled":false,"carModelData":[100]},{"car_name":"Fiat 500","car_plate":"EZ907DF","fuel_level":100,"lat":45.46846,"lon":9.142313,"address":"Via Osoppo, 21, 20148 Milano","virtual_rental_type_id":2,"virtual_rental_id":367344,"car_category_type_id":1,"car_category_id":8,"onClick_disabled":false,"carModelData":[100]},{"car_name":"Fiat 500","car_plate":"EZ174TY","fuel_level":73,"lat":45.470406,"lon":9.114934,"address":"Via Pio II, 3, 20153 Milano","virtual_rental_type_id":2,"virtual_rental_id":343470,"car_category_type_id":1,"car_category_id":8,"onClick_disabled":false,"carModelData":[]},{"car_name":"Fiat 500","car_plate":"ET895DD","fuel_level":61,"lat":45.4694,"lon":9.215675,"address":"Via Carlo Goldoni, 41, 20129 Milano","virtual_rental_type_id":2,"virtual_rental_id":324763,"car_category_type_id":1,"car_category_id":8,"onClick_disabled":false,"carModelData":[100]},{"car_name":"Fiat 500","car_plate":"ET275CY","fuel_level":80,"lat":45.51166,"lon":9.267,"address":"Via Olgettina, 9, 20090 Vimodrone MI","virtual_rental_type_id":2,"virtual_rental_id":336602,"car_category_type_id":1,"car_category_id":8,"onClick_disabled":false,"carModelData":[100]},{"car_name":"Fiat 500","car_plate":"ET027XL","fuel_level":51,"lat":45.484074,"lon":9.182004,"address":"Via Maurizio Quadrio, 24, 20154 Milano","virtual_rental_type_id":2,"virtual_rental_id":356471,"car_category_type_id":1,"car_category_id":8,"onClick_disabled":false,"carModelData":[100]},{"car_name":"Fiat 500","car_plate":"EZ224GW","fuel_level":90,"lat":45.495377,"lon":9.177772,"address":"Viale Vincenzo Lancetti, 31, 20158 Milano","virtual_rental_type_id":2,"virtual_rental_id":386712,"car_category_type_id":1,"car_category_id":8,"onClick_disabled":false,"carModelData":[100]},{"car_name":"Fiat 500","car_plate":"EX991VG","fuel_level":41,"lat":45.49068,"lon":9.189211,"address":"Via Genova Thaon di Revel, 2-4, 20159 Milano","virtual_rental_type_id":2,"virtual_rental_id":408841,"car_category_type_id":1,"car_category_id":8,"onClick_disabled":false,"carModelData":[100]},{"car_name":"Fiat 500","car_plate":"ET990XK","fuel_level":62,"lat":45.51206,"lon":9.256393,"address":"Via Padova, 353, 20132 Milano","virtual_rental_type_id":2,"virtual_rental_id":326980,"car_category_type_id":1,"car_category_id":8,"onClick_disabled":false,"carModelData":[100]},{"car_name":"Fiat 500","car_plate":"ET986XK","fuel_level":100,"lat":45.457844,"lon":9.114133,"address":"Via Creta, 23-25, 20152 Milano","virtual_rental_type_id":2,"virtual_rental_id":346830,"car_category_type_id":1,"car_category_id":8,"onClick_disabled":false,"carModelData":[14,100]},{"car_name":"Fiat 500","car_plate":"EZ394GW","fuel_level":66,"lat":45.47919,"lon":9.057032,"address":"Via Don Luigi Sturzo, 1, 20019 Settimo Milanese MI","virtual_rental_type_id":2,"virtual_rental_id":327586,"car_category_type_id":1,"car_category_id":8,"onClick_disabled":false,"carModelData":[]},{"car_name":"Fiat 500","car_plate":"EX519VG","fuel_level":100,"lat":45.4697,"lon":9.115817,"address":"Via Pio II, 3, 20153 Milano","virtual_rental_type_id":2,"virtual_rental_id":400885,"car_category_type_id":1,"car_category_id":8,"onClick_disabled":false,"carModelData":[14,100]},{"car_name":"Fiat 500","car_plate":"FA827WD","fuel_level":92,"lat":45.537792,"lon":9.243302,"address":"Via Fratelli Cairoli, 76, 20099 Sesto San Giovanni MI","virtual_rental_type_id":2,"virtual_rental_id":423753,"car_category_type_id":1,"car_category_id":8,"onClick_disabled":false,"carModelData":[]},{"car_name":"Fiat 500","car_plate":"FA481YY","fuel_level":97,"lat":45.468643,"lon":9.150862,"address":"Via Ravizza Carlo, 16, 20149 Milano","virtual_rental_type_id":2,"virtual_rental_id":337743,"car_category_type_id":1,"car_category_id":8,"onClick_disabled":false,"carModelData":[]},{"car_name":"Fiat 500","car_plate":"ET658XJ","fuel_level":12,"lat":45.49715,"lon":9.129753,"address":"Viale del Ghisallo, 16, 20151 Milano","virtual_rental_type_id":2,"virtual_rental_id":411496,"car_category_type_id":1,"car_category_id":8,"onClick_disabled":false,"carModelData":[14,100]},{"car_name":"Fiat 500","car_plate":"ET649XJ","fuel_level":100,"lat":45.477894,"lon":9.135155,"address":"Via degli Odescalchi, 14-16, 20148 Milano","virtual_rental_type_id":2,"virtual_rental_id":378570,"car_category_type_id":1,"car_category_id":8,"onClick_disabled":false,"carModelData":[100]},{"car_name":"Fiat 500","car_plate":"FA460YY","fuel_level":97,"lat":45.421757,"lon":9.108546,"address":"Via Vittorio Emanuele II, 3, 20090 Buccinasco MI","virtual_rental_type_id":2,"virtual_rental_id":431416,"car_category_type_id":1,"car_category_id":8,"onClick_disabled":false,"carModelData":[]},{"car_name":"Fiat 500","car_plate":"ET590XJ","fuel_level":77,"lat":45.411526,"lon":9.170394,"address":"Via Costantino Baroni, 80, 20142 Milano","virtual_rental_type_id":2,"virtual_rental_id":343211,"car_category_type_id":1,"car_category_id":8,"onClick_disabled":false,"carModelData":[100]},{"car_name":"Piaggio MP3","car_plate":"ED57145","fuel_level":94,"lat":45.49322,"lon":9.11376,"address":"Via Ugo Ojetti, 1, 20151 Milano","virtual_rental_type_id":1,"virtual_rental_id":368122,"car_category_type_id":2,"car_category_id":7,"onClick_disabled":false,"carModelData":[100]},{"car_name":"Fiat 500","car_plate":"FA510YY","fuel_level":62,"lat":45.50356,"lon":9.096935,"address":"Via Mario Borsa, 69-63, 20151 Milano","virtual_rental_type_id":2,"virtual_rental_id":336442,"car_category_type_id":1,"car_category_id":8,"onClick_disabled":false,"carModelData":[]},{"car_name":"Fiat 500","car_plate":"EX501VG","fuel_level":92,"lat":45.40096,"lon":9.173515,"address":"Via Eugenio Curiel, 2, 20142 Milano MI","virtual_rental_type_id":2,"virtual_rental_id":349197,"car_category_type_id":1,"car_category_id":8,"onClick_disabled":false,"carModelData":[100]},{"car_name":"Piaggio MP3","car_plate":"ED04638","fuel_level":88,"lat":45.494263,"lon":9.229655,"address":"Via Esterle Carlo, 23, 20132 Milano","virtual_rental_type_id":1,"virtual_rental_id":300627,"car_category_type_id":2,"car_category_id":7,"onClick_disabled":false,"carModelData":[100]},{"car_name":"Fiat 500","car_plate":"ET371XF","fuel_level":68,"lat":45.474808,"lon":9.159705,"address":"Viale Cassiodoro, 14, 20145 Milano","virtual_rental_type_id":2,"virtual_rental_id":394284,"car_category_type_id":1,"car_category_id":8,"onClick_disabled":false,"carModelData":[]},{"car_name":"Fiat 500","car_plate":"FA518YY","fuel_level":11,"lat":45.4201,"lon":9.283561,"address":"Via Felice Maritano, 24, 20097 San Donato Milanese MI","virtual_rental_type_id":2,"virtual_rental_id":322524,"car_category_type_id":1,"car_category_id":8,"onClick_disabled":false,"carModelData":[]},{"car_name":"Fiat 500","car_plate":"FA522YY","fuel_level":13,"lat":45.475777,"lon":9.1055,"address":"Via Privata Luigi Zoja, 23, 20153 Milano","virtual_rental_type_id":2,"virtual_rental_id":342357,"car_category_type_id":1,"car_category_id":8,"onClick_disabled":false,"carModelData":[]},{"car_name":"Fiat 500","car_plate":"ET642XJ","fuel_level":83,"lat":45.484314,"lon":9.2300005,"address":"Via Teodosio, 18, 20131 Milano","virtual_rental_type_id":2,"virtual_rental_id":357131,"car_category_type_id":1,"car_category_id":8,"onClick_disabled":false,"carModelData":[100]},{"car_name":"Fiat 500","car_plate":"ET020XL","fuel_level":98,"lat":45.45752,"lon":9.148464,"address":"Via Tagiura, 18, 20146 Milano","virtual_rental_type_id":2,"virtual_rental_id":322395,"car_category_type_id":1,"car_category_id":8,"onClick_disabled":false,"carModelData":[100]},{"car_name":"Fiat 500","car_plate":"ET618XJ","fuel_level":88,"lat":45.50269,"lon":9.124228,"address":"Viale Certosa, 290, 20156 Milano","virtual_rental_type_id":2,"virtual_rental_id":348999,"car_category_type_id":1,"car_category_id":8,"onClick_disabled":false,"carModelData":[100]},{"car_name":"Fiat 500","car_plate":"ET964XK","fuel_level":26,"lat":45.458767,"lon":9.096702,"address":"Via Don Ernesto Vercesi, 17, 20152 Milano","virtual_rental_type_id":2,"virtual_rental_id":347604,"car_category_type_id":1,"car_category_id":8,"onClick_disabled":false,"carModelData":[100]},{"car_name":"Fiat 500","car_plate":"EZ132GW","fuel_level":53,"lat":45.5236,"lon":9.163282,"address":"Via Santuario del Sacro Cuore, 2-4, 20161 Milano","virtual_rental_type_id":2,"virtual_rental_id":339447,"car_category_type_id":1,"car_category_id":8,"onClick_disabled":false,"carModelData":[100]},{"car_name":"Fiat 500","car_plate":"EZ165TY","fuel_level":63,"lat":45.420288,"lon":9.283787,"address":"Via Felice Maritano, 24, 20097 San Donato Milanese MI","virtual_rental_type_id":2,"virtual_rental_id":382474,"car_category_type_id":1,"car_category_id":8,"onClick_disabled":false,"carModelData":[]},{"car_name":"Fiat 500","car_plate":"ET340XF","fuel_level":29,"lat":45.535744,"lon":9.219368,"address":"Via Giuseppe Rovani, 280, 20099 Sesto San Giovanni MI","virtual_rental_type_id":2,"virtual_rental_id":333080,"car_category_type_id":1,"car_category_id":8,"onClick_disabled":false,"carModelData":[100]},{"car_name":"Fiat 500","car_plate":"ET004XL","fuel_level":100,"lat":45.523533,"lon":9.163148,"address":"Via Santuario del Sacro Cuore, 3, 20161 Milano","virtual_rental_type_id":2,"virtual_rental_id":359592,"car_category_type_id":1,"car_category_id":8,"onClick_disabled":false,"carModelData":[100]},{"car_name":"Piaggio MP3","car_plate":"ED57401","fuel_level":49,"lat":45.50044,"lon":9.218245,"address":"Via Piero Malvestiti, 20125 Milano","virtual_rental_type_id":1,"virtual_rental_id":414705,"car_category_type_id":2,"car_category_id":7,"onClick_disabled":false,"carModelData":[100]},{"car_name":"Fiat 500","car_plate":"ET660XJ","fuel_level":94,"lat":45.50772,"lon":9.249511,"address":"Via Privata Flumendosa, 55, 20132 Milano","virtual_rental_type_id":2,"virtual_rental_id":412202,"car_category_type_id":1,"car_category_id":8,"onClick_disabled":false,"carModelData":[100]},{"car_name":"Fiat 500","car_plate":"FA458YY","fuel_level":82,"lat":45.508698,"lon":9.255058,"address":"Via Giuseppe Puricelli Guerra, 20132 Milano","virtual_rental_type_id":2,"virtual_rental_id":348460,"car_category_type_id":1,"car_category_id":8,"onClick_disabled":false,"carModelData":[]},{"car_name":"Piaggio MP3","car_plate":"ED04625","fuel_level":10,"lat":45.50278,"lon":9.238922,"address":"Via Padova, 194, 20132 Milano","virtual_rental_type_id":1,"virtual_rental_id":284330,"car_category_type_id":2,"car_category_id":7,"onClick_disabled":false,"carModelData":[100]},{"car_name":"Fiat 500","car_plate":"ET996CW","fuel_level":82,"lat":45.519646,"lon":9.187154,"address":"Via Antonio Cesari, 6-40, 20162 Milano","virtual_rental_type_id":2,"virtual_rental_id":387506,"car_category_type_id":1,"car_category_id":8,"onClick_disabled":false,"carModelData":[100]},{"car_name":"Fiat 500","car_plate":"ET271XF","fuel_level":64,"lat":45.480022,"lon":9.089209,"address":"Via Privata S. Romanello, 19, 20153 Milano","virtual_rental_type_id":2,"virtual_rental_id":356015,"car_category_type_id":1,"car_category_id":8,"onClick_disabled":false,"carModelData":[14,100]},{"car_name":"Fiat 500","car_plate":"FA789WD","fuel_level":36,"lat":45.470413,"lon":9.11452,"address":"Via Pio II, 3, 20153 Milano","virtual_rental_type_id":2,"virtual_rental_id":320876,"car_category_type_id":1,"car_category_id":8,"onClick_disabled":false,"carModelData":[]},{"car_name":"Fiat 500","car_plate":"EZ210TY","fuel_level":85,"lat":45.44624,"lon":9.096745,"address":"Via Achille Grandi, 8, 20090 Cesano Boscone MI","virtual_rental_type_id":2,"virtual_rental_id":385357,"car_category_type_id":1,"car_category_id":8,"onClick_disabled":false,"carModelData":[]},{"car_name":"Fiat 500","car_plate":"ET971XK","fuel_level":100,"lat":45.41631,"lon":9.129009,"address":"Via Guido Rossa, 26-30, 20090 Buccinasco MI","virtual_rental_type_id":2,"virtual_rental_id":415708,"car_category_type_id":1,"car_category_id":8,"onClick_disabled":false,"carModelData":[100]},{"car_name":"Fiat 500","car_plate":"FA402YY","fuel_level":98,"lat":45.473335,"lon":9.193055,"address":"Via Marco de Marchi, 2-4, 20121 Milano","virtual_rental_type_id":2,"virtual_rental_id":410854,"car_category_type_id":1,"car_category_id":8,"onClick_disabled":false,"carModelData":[]},{"car_name":"Fiat 500","car_plate":"EZ361GW","fuel_level":70,"lat":45.49863,"lon":9.166038,"address":"Piazzale Lugano, 4, 20158 Milano","virtual_rental_type_id":2,"virtual_rental_id":344435,"car_category_type_id":1,"car_category_id":8,"onClick_disabled":false,"carModelData":[]},{"car_name":"Fiat 500","car_plate":"ET075XL","fuel_level":97,"lat":45.540268,"lon":9.223676,"address":"Via la Fratta, 74, 20099 Sesto San Giovanni MI","virtual_rental_type_id":2,"virtual_rental_id":368694,"car_category_type_id":1,"car_category_id":8,"onClick_disabled":false,"carModelData":[100]},{"car_name":"Fiat 500","car_plate":"ET355XF","fuel_level":1,"lat":45.438557,"lon":9.265015,"address":"Via Privata degli Umiliati, 42, 20138 Milano","virtual_rental_type_id":2,"virtual_rental_id":420489,"car_category_type_id":1,"car_category_id":8,"onClick_disabled":false,"carModelData":[100]},{"car_name":"Fiat 500","car_plate":"EZ146TY","fuel_level":64,"lat":45.504883,"lon":9.12294,"address":"Via Punta Licosa, 18, 20156 Milano","virtual_rental_type_id":2,"virtual_rental_id":420325,"car_category_type_id":1,"car_category_id":8,"onClick_disabled":false,"carModelData":[]},{"car_name":"Fiat 500","car_plate":"FA513YY","fuel_level":96,"lat":45.46534,"lon":9.160103,"address":"Via Angelo Mauri, 10, 20144 Milano","virtual_rental_type_id":2,"virtual_rental_id":355914,"car_category_type_id":1,"car_category_id":8,"onClick_disabled":false,"carModelData":[]},{"car_name":"Fiat 500","car_plate":"ET040XL","fuel_level":100,"lat":45.468178,"lon":9.14823,"address":"Via Federico Faruffini, 17, 20149 Milano","virtual_rental_type_id":2,"virtual_rental_id":427465,"car_category_type_id":1,"car_category_id":8,"onClick_disabled":false,"carModelData":[100]},{"car_name":"Fiat 500","car_plate":"EZ335GW","fuel_level":63,"lat":45.480762,"lon":9.124247,"address":"Via Fetonte, 12-30, 20151 Milano","virtual_rental_type_id":2,"virtual_rental_id":326432,"car_category_type_id":1,"car_category_id":8,"onClick_disabled":false,"carModelData":[14]},{"car_name":"Fiat 500","car_plate":"FA845WD","fuel_level":31,"lat":45.420162,"lon":9.283499,"address":"Via Felice Maritano, 24, 20097 San Donato Milanese MI","virtual_rental_type_id":2,"virtual_rental_id":354193,"car_category_type_id":1,"car_category_id":8,"onClick_disabled":false,"carModelData":[]},{"car_name":"Fiat 500","car_plate":"FA451YY","fuel_level":100,"lat":45.422195,"lon":9.254728,"address":"Strada Statale 9 Via Emilia, 1, 20097 San Donato Milanese MI","virtual_rental_type_id":2,"virtual_rental_id":398356,"car_category_type_id":1,"car_category_id":8,"onClick_disabled":false,"carModelData":[]},{"car_name":"Fiat 500","car_plate":"ET865DD","fuel_level":74,"lat":45.52473,"lon":9.167775,"address":"Via Gerolamo Forni, 18, 20161 Milano","virtual_rental_type_id":2,"virtual_rental_id":402360,"car_category_type_id":1,"car_category_id":8,"onClick_disabled":false,"carModelData":[100]},{"car_name":"Fiat 500","car_plate":"ET967XK","fuel_level":68,"lat":45.505093,"lon":9.186749,"address":"Via Monzambano, 1-11, 20159 Milano","virtual_rental_type_id":2,"virtual_rental_id":384304,"car_category_type_id":1,"car_category_id":8,"onClick_disabled":false,"carModelData":[100]},{"car_name":"Fiat 500","car_plate":"FA494YY","fuel_level":45,"lat":45.468643,"lon":9.085608,"address":"Via Benedetto Diotti, 55, 20153 Milano","virtual_rental_type_id":2,"virtual_rental_id":379004,"car_category_type_id":1,"car_category_id":8,"onClick_disabled":false,"carModelData":[]},{"car_name":"Fiat 500","car_plate":"EX529VG","fuel_level":32,"lat":45.472786,"lon":9.203257,"address":"Corso Venezia, 46, 20122 Milano","virtual_rental_type_id":2,"virtual_rental_id":408217,"car_category_type_id":1,"car_category_id":8,"onClick_disabled":false,"carModelData":[100]},{"car_name":"Fiat 500","car_plate":"ET652XJ","fuel_level":47,"lat":45.45008,"lon":9.203679,"address":"Via Verona, 5, 20135 Milano","virtual_rental_type_id":2,"virtual_rental_id":339516,"car_category_type_id":1,"car_category_id":8,"onClick_disabled":false,"carModelData":[100]},{"car_name":"Fiat 500","car_plate":"ET272XF","fuel_level":60,"lat":45.456326,"lon":9.090937,"address":"Via Benozzo Gozzoli, 12, 20152 Milano","virtual_rental_type_id":2,"virtual_rental_id":322316,"car_category_type_id":1,"car_category_id":8,"onClick_disabled":false,"carModelData":[100]},{"car_name":"Fiat 500","car_plate":"ET057XL","fuel_level":100,"lat":45.478706,"lon":9.060246,"address":"Via Giuseppe di Vittorio, 52, 20019 Settimo Milanese MI","virtual_rental_type_id":2,"virtual_rental_id":376297,"car_category_type_id":1,"car_category_id":8,"onClick_disabled":false,"carModelData":[100]},{"car_name":"Fiat 500 L","car_plate":"ET099XL","fuel_level":40,"lat":45.496826,"lon":9.141201,"address":"Via Pier Francesco Mola, 34, 20156 Milano","virtual_rental_type_id":3,"virtual_rental_id":231867,"car_category_type_id":1,"car_category_id":9,"onClick_disabled":false,"carModelData":[100]},{"car_name":"Fiat 500","car_plate":"ET009DE","fuel_level":86,"lat":45.483864,"lon":9.054418,"address":"Via Bruno Buozzi, 14, 20019 Settimo Milanese MI","virtual_rental_type_id":2,"virtual_rental_id":395978,"car_category_type_id":1,"car_category_id":8,"onClick_disabled":false,"carModelData":[100]},{"car_name":"Fiat 500","car_plate":"FA511YY","fuel_level":40,"lat":45.43892,"lon":9.231084,"address":"Via Boncompagni, 5, 20139 Milano","virtual_rental_type_id":2,"virtual_rental_id":333915,"car_category_type_id":1,"car_category_id":8,"onClick_disabled":false,"carModelData":[]},{"car_name":"Fiat 500","car_plate":"EX543VG","fuel_level":98,"lat":45.483604,"lon":9.144939,"address":"Via Alessandro Algardi, 5, 20148 Milano","virtual_rental_type_id":2,"virtual_rental_id":374831,"car_category_type_id":1,"car_category_id":8,"onClick_disabled":false,"carModelData":[100]},{"car_name":"Fiat 500","car_plate":"ET011XL","fuel_level":86,"lat":45.499546,"lon":9.134076,"address":"Via Perin del Vaga, 20, 20156 Milano","virtual_rental_type_id":2,"virtual_rental_id":394798,"car_category_type_id":1,"car_category_id":8,"onClick_disabled":false,"carModelData":[100]},{"car_name":"Fiat 500","car_plate":"EZ197GW","fuel_level":67,"lat":45.49514,"lon":9.1836815,"address":"Viale Stelvio, 62, 20159 Milano","virtual_rental_type_id":2,"virtual_rental_id":335969,"car_category_type_id":1,"car_category_id":8,"onClick_disabled":false,"carModelData":[]},{"car_name":"Fiat 500","car_plate":"EZ387GW","fuel_level":67,"lat":45.48169,"lon":9.234431,"address":"Via Antonio Grossich, 10-16, 20131 Milano","virtual_rental_type_id":2,"virtual_rental_id":363360,"car_category_type_id":1,"car_category_id":8,"onClick_disabled":false,"carModelData":[14]},{"car_name":"Fiat 500","car_plate":"ET995CW","fuel_level":72,"lat":45.466488,"lon":9.171643,"address":"Via Giuseppe Antonio Sassi, 23, Milano, MI, Italia","virtual_rental_type_id":2,"virtual_rental_id":425843,"car_category_type_id":1,"car_category_id":8,"onClick_disabled":false,"carModelData":[100]},{"car_name":"Fiat 500","car_plate":"FA453YY","fuel_level":62,"lat":45.489143,"lon":9.124638,"address":"Via Giulio Natta, 11, 20151 Milano","virtual_rental_type_id":2,"virtual_rental_id":417331,"car_category_type_id":1,"car_category_id":8,"onClick_disabled":false,"carModelData":[]},{"car_name":"Fiat 500","car_plate":"ET578XJ","fuel_level":54,"lat":45.4221,"lon":9.270368,"address":"Via Agadir, 38, 20097 San Donato Milanese MI","virtual_rental_type_id":2,"virtual_rental_id":354553,"car_category_type_id":1,"car_category_id":8,"onClick_disabled":false,"carModelData":[100]},{"car_name":"Piaggio MP3","car_plate":"ED04655","fuel_level":17,"lat":45.445347,"lon":9.182242,"address":"Via Ludovico Lazzaro Zamenhof, 21, 20136 Milano","virtual_rental_type_id":1,"virtual_rental_id":398212,"car_category_type_id":2,"car_category_id":7,"onClick_disabled":false,"carModelData":[100]},{"car_name":"Fiat 500","car_plate":"EY174WC","fuel_level":96,"lat":45.50552,"lon":9.096899,"address":"Via Appennini, 201, 20151 Milano MI","virtual_rental_type_id":2,"virtual_rental_id":334601,"car_category_type_id":1,"car_category_id":8,"onClick_disabled":false,"carModelData":[100]},{"car_name":"Fiat 500","car_plate":"ET325XF","fuel_level":30,"lat":45.45525,"lon":9.17074,"address":"Via Privata Bobbio, 2-6, 20144 Milano","virtual_rental_type_id":2,"virtual_rental_id":366649,"car_category_type_id":1,"car_category_id":8,"onClick_disabled":false,"carModelData":[14,100]},{"car_name":"Fiat 500","car_plate":"FA489YY","fuel_level":31,"lat":45.471,"lon":9.146196,"address":"Via Lorenzo di Credi, 19, 20149 Milano","virtual_rental_type_id":2,"virtual_rental_id":322388,"car_category_type_id":1,"car_category_id":8,"onClick_disabled":false,"carModelData":[]},{"car_name":"Fiat 500","car_plate":"EZ216TY","fuel_level":35,"lat":45.401077,"lon":9.1736,"address":"Via Eugenio Curiel, 2, 20142 Milano MI","virtual_rental_type_id":2,"virtual_rental_id":426298,"car_category_type_id":1,"car_category_id":8,"onClick_disabled":false,"carModelData":[]},{"car_name":"Fiat 500","car_plate":"ET956DD","fuel_level":57,"lat":45.491985,"lon":9.1232195,"address":"Via Luigi Chiarelli, 20, 20151 Milano","virtual_rental_type_id":2,"virtual_rental_id":330197,"car_category_type_id":1,"car_category_id":8,"onClick_disabled":false,"carModelData":[100]},{"car_name":"Fiat 500","car_plate":"EX656VB","fuel_level":85,"lat":45.46716,"lon":9.130538,"address":"Via Piero Martinetti, 31, 20147 Milano","virtual_rental_type_id":2,"virtual_rental_id":414591,"car_category_type_id":1,"car_category_id":8,"onClick_disabled":false,"carModelData":[14,100]},{"car_name":"Fiat 500","car_plate":"FA848WD","fuel_level":28,"lat":45.485317,"lon":9.058575,"address":"Via Alessandro Manzoni, 37, 20019 Settimo Milanese MI","virtual_rental_type_id":2,"virtual_rental_id":358465,"car_category_type_id":1,"car_category_id":8,"onClick_disabled":false,"carModelData":[]},{"car_name":"Fiat 500","car_plate":"ET304XF","fuel_level":54,"lat":45.483765,"lon":9.184867,"address":"Via Massimo D\u0027Azeglio, 6, 20154 Milano","virtual_rental_type_id":2,"virtual_rental_id":379140,"car_category_type_id":1,"car_category_id":8,"onClick_disabled":false,"carModelData":[100]},{"car_name":"Piaggio MP3","car_plate":"ED57164","fuel_level":100,"lat":45.430637,"lon":9.186415,"address":"Via Giovanni Treccani degli Alfieri, 20, 20141 Milano","virtual_rental_type_id":1,"virtual_rental_id":374443,"car_category_type_id":2,"car_category_id":7,"onClick_disabled":false,"carModelData":[100]},{"car_name":"Fiat 500","car_plate":"ET976XK","fuel_level":61,"lat":45.472683,"lon":9.158603,"address":"Via Tiziano, 19, Milano, MI, Italia","virtual_rental_type_id":2,"virtual_rental_id":325392,"car_category_type_id":1,"car_category_id":8,"onClick_disabled":false,"carModelData":[]},{"car_name":"Fiat 500","car_plate":"FA413YY","fuel_level":54,"lat":45.523796,"lon":9.2049465,"address":"Via Empoli, 5, 20162 Milano","virtual_rental_type_id":2,"virtual_rental_id":417330,"car_category_type_id":1,"car_category_id":8,"onClick_disabled":false,"carModelData":[]},{"car_name":"Fiat 500","car_plate":"ET982DD","fuel_level":98,"lat":45.478127,"lon":9.197261,"address":"Piazza della Repubblica, 4718, 20124 Milano","virtual_rental_type_id":2,"virtual_rental_id":377993,"car_category_type_id":1,"car_category_id":8,"onClick_disabled":false,"carModelData":[100]},{"car_name":"Fiat 500","car_plate":"ET362XF","fuel_level":23,"lat":45.540222,"lon":9.230568,"address":"Via Timavo, 85-93, 20099 Sesto San Giovanni MI","virtual_rental_type_id":2,"virtual_rental_id":355884,"car_category_type_id":1,"car_category_id":8,"onClick_disabled":false,"carModelData":[100]},{"car_name":"Fiat 500","car_plate":"ET322XF","fuel_level":26,"lat":45.509743,"lon":9.267107,"address":"Via Olgettina, 25, 20132 Milano MI","virtual_rental_type_id":2,"virtual_rental_id":345244,"car_category_type_id":1,"car_category_id":8,"onClick_disabled":false,"carModelData":[100]},{"car_name":"Fiat 500","car_plate":"ET636XJ","fuel_level":97,"lat":45.466724,"lon":9.091073,"address":"Via Privata Alessandro Scanini, 21, 20153 Milano","virtual_rental_type_id":2,"virtual_rental_id":405912,"car_category_type_id":1,"car_category_id":8,"onClick_disabled":false,"carModelData":[100]},{"car_name":"Piaggio MP3","car_plate":"ED04661","fuel_level":63,"lat":45.503544,"lon":9.235499,"address":"Via Angelo Zanardini, 16, 20127 Milano","virtual_rental_type_id":1,"virtual_rental_id":274839,"car_category_type_id":2,"car_category_id":7,"onClick_disabled":false,"carModelData":[100]},{"car_name":"Fiat 500","car_plate":"FA817WD","fuel_level":91,"lat":45.460236,"lon":9.099217,"address":"Via delle Forze Armate, 252-270, 20152 Milano","virtual_rental_type_id":2,"virtual_rental_id":346701,"car_category_type_id":1,"car_category_id":8,"onClick_disabled":false,"carModelData":[]},{"car_name":"Fiat 500","car_plate":"EX989VG","fuel_level":30,"lat":45.5235,"lon":9.205726,"address":"Via Ponale, 66, 20162 Milano","virtual_rental_type_id":2,"virtual_rental_id":333178,"car_category_type_id":1,"car_category_id":8,"onClick_disabled":false,"carModelData":[100]},{"car_name":"Fiat 500","car_plate":"ET059XL","fuel_level":15,"lat":45.467464,"lon":9.144245,"address":"Via Caccialepori, 4, 20148 Milano","virtual_rental_type_id":2,"virtual_rental_id":322320,"car_category_type_id":1,"car_category_id":8,"onClick_disabled":false,"carModelData":[100]},{"car_name":"Fiat 500","car_plate":"ET372XF","fuel_level":30,"lat":45.40806,"lon":9.176494,"address":"Via dei Missaglia, 131, 20142 Milano MI","virtual_rental_type_id":2,"virtual_rental_id":394121,"car_category_type_id":1,"car_category_id":8,"onClick_disabled":false,"carModelData":[100]},{"car_name":"Fiat 500","car_plate":"EZ202TY","fuel_level":45,"lat":45.428722,"lon":9.254777,"address":"Via Giuseppe Impastato, 20138 Milano","virtual_rental_type_id":2,"virtual_rental_id":389863,"car_category_type_id":1,"car_category_id":8,"onClick_disabled":false,"carModelData":[]},{"car_name":"Fiat 500","car_plate":"EZ206TY","fuel_level":76,"lat":45.516987,"lon":9.151128,"address":"Via Pietro Maffi, 40, 20157 Milano","virtual_rental_type_id":2,"virtual_rental_id":322498,"car_category_type_id":1,"car_category_id":8,"onClick_disabled":false,"carModelData":[]},{"car_name":"Fiat 500","car_plate":"EZ177GW","fuel_level":31,"lat":45.411583,"lon":9.27332,"address":"Via Rodolfo Morandi, 11, 20097 San Donato Milanese MI","virtual_rental_type_id":2,"virtual_rental_id":360042,"car_category_type_id":1,"car_category_id":8,"onClick_disabled":false,"carModelData":[]},{"car_name":"Fiat 500","car_plate":"ET675XJ","fuel_level":100,"lat":45.4251,"lon":9.167878,"address":"Via Jan Palach, 16, 20142 Milano","virtual_rental_type_id":2,"virtual_rental_id":411962,"car_category_type_id":1,"car_category_id":8,"onClick_disabled":false,"carModelData":[14,100]},{"car_name":"Fiat 500","car_plate":"ET251CY","fuel_level":87,"lat":45.4145,"lon":9.165284,"address":"Via Gianluigi Banfi, 7, 20142 Milano","virtual_rental_type_id":2,"virtual_rental_id":392805,"car_category_type_id":1,"car_category_id":8,"onClick_disabled":false,"carModelData":[100]},{"car_name":"Fiat 500","car_plate":"EZ328GW","fuel_level":68,"lat":45.510014,"lon":9.253602,"address":"Via Palmanova, 219, 20132 Milano MI","virtual_rental_type_id":2,"virtual_rental_id":330882,"car_category_type_id":1,"car_category_id":8,"onClick_disabled":false,"carModelData":[14]},{"car_name":"Fiat 500","car_plate":"ET875DD","fuel_level":95,"lat":45.439465,"lon":9.193161,"address":"Via Enrico Heine, 1, 20141 Milano","virtual_rental_type_id":2,"virtual_rental_id":381162,"car_category_type_id":1,"car_category_id":8,"onClick_disabled":false,"carModelData":[100]},{"car_name":"Fiat 500","car_plate":"ET674XJ","fuel_level":57,"lat":45.432434,"lon":9.262184,"address":"Via Giuseppe Impastato, 6, 20138 Milano","virtual_rental_type_id":2,"virtual_rental_id":414615,"car_category_type_id":1,"car_category_id":8,"onClick_disabled":false,"carModelData":[100]},{"car_name":"Fiat 500","car_plate":"ET984DD","fuel_level":36,"lat":45.42955,"lon":9.121483,"address":"Via Giuseppe Garibaldi, 10, 20090 Buccinasco MI","virtual_rental_type_id":2,"virtual_rental_id":395247,"car_category_type_id":1,"car_category_id":8,"onClick_disabled":false,"carModelData":[100]},{"car_name":"Fiat 500","car_plate":"ET957DD","fuel_level":46,"lat":45.45648,"lon":9.092391,"address":"Via Maffeo Bagarotti, 31-37, 20152 Milano","virtual_rental_type_id":2,"virtual_rental_id":345425,"car_category_type_id":1,"car_category_id":8,"onClick_disabled":false,"carModelData":[100]},{"car_name":"Piaggio MP3","car_plate":"ED57137","fuel_level":39,"lat":45.456406,"lon":9.11797,"address":"Via Zurigo, 23, 20147 Milano","virtual_rental_type_id":1,"virtual_rental_id":283915,"car_category_type_id":2,"car_category_id":7,"onClick_disabled":false,"carModelData":[100]},{"car_name":"Fiat 500","car_plate":"ET008DE","fuel_level":87,"lat":45.408318,"lon":9.17032,"address":"Via Costantino Baroni, 128, 20142 Milano","virtual_rental_type_id":2,"virtual_rental_id":322448,"car_category_type_id":1,"car_category_id":8,"onClick_disabled":false,"carModelData":[100]},{"car_name":"Piaggio MP3","car_plate":"ED57153","fuel_level":12,"lat":45.43806,"lon":9.264482,"address":"Via Guido Ucelli di Nemi, 51, 20138 Milano","virtual_rental_type_id":1,"virtual_rental_id":275142,"car_category_type_id":2,"car_category_id":7,"onClick_disabled":false,"carModelData":[100]},{"car_name":"Fiat 500","car_plate":"EX511VG","fuel_level":88,"lat":45.477856,"lon":9.179952,"address":"Piazza Lega Lombarda, 3, 20154 Milano","virtual_rental_type_id":2,"virtual_rental_id":336701,"car_category_type_id":1,"car_category_id":8,"onClick_disabled":false,"carModelData":[100]},{"car_name":"Fiat 500","car_plate":"ET859DD","fuel_level":43,"lat":45.50111,"lon":9.244617,"address":"Via Giovanni Battista Monteggia, 10-16, 20132 Milano","virtual_rental_type_id":2,"virtual_rental_id":372459,"car_category_type_id":1,"car_category_id":8,"onClick_disabled":false,"carModelData":[100]},{"car_name":"Fiat 500","car_plate":"FA436YY","fuel_level":44,"lat":45.53913,"lon":9.241527,"address":"Via Giuseppe Mazzini, 22, 20099 Sesto San Giovanni MI","virtual_rental_type_id":2,"virtual_rental_id":326997,"car_category_type_id":1,"car_category_id":8,"onClick_disabled":false,"carModelData":[]},{"car_name":"Fiat 500","car_plate":"ET043XL","fuel_level":40,"lat":45.4499,"lon":9.122994,"address":"Via del Cardellino, 2, 20147 Milano","virtual_rental_type_id":2,"virtual_rental_id":371898,"car_category_type_id":1,"car_category_id":8,"onClick_disabled":false,"carModelData":[100]},{"car_name":"Fiat 500","car_plate":"ET609XJ","fuel_level":35,"lat":45.45299,"lon":9.225039,"address":"Via Monte Velino, 2-4, 20137 Milano","virtual_rental_type_id":2,"virtual_rental_id":361216,"car_category_type_id":1,"car_category_id":8,"onClick_disabled":false,"carModelData":[100]},{"car_name":"Fiat 500","car_plate":"ET614XJ","fuel_level":31,"lat":45.48986,"lon":9.122721,"address":"Via Giulio Natta, 10, 20151 Milano","virtual_rental_type_id":2,"virtual_rental_id":365424,"car_category_type_id":1,"car_category_id":8,"onClick_disabled":false,"carModelData":[14,100]},{"car_name":"Fiat 500","car_plate":"FA517YY","fuel_level":83,"lat":45.435966,"lon":9.24011,"address":"Via Francesco Pizzolpasso, 3, 20138 Milano","virtual_rental_type_id":2,"virtual_rental_id":322383,"car_category_type_id":1,"car_category_id":8,"onClick_disabled":false,"carModelData":[]},{"car_name":"Fiat 500 L","car_plate":"ET113XL","fuel_level":91,"lat":45.522263,"lon":9.195368,"address":"Via Giuseppe Pozzobonelli, 4, 20162 Milano","virtual_rental_type_id":3,"virtual_rental_id":225442,"car_category_type_id":1,"car_category_id":9,"onClick_disabled":false,"carModelData":[100]},{"car_name":"Fiat 500","car_plate":"EZ342GW","fuel_level":98,"lat":45.483894,"lon":9.184073,"address":"Via Maurizio Quadrio, 13, 20154 Milano","virtual_rental_type_id":2,"virtual_rental_id":368162,"car_category_type_id":1,"car_category_id":8,"onClick_disabled":false,"carModelData":[]},{"car_name":"Fiat 500","car_plate":"ET926DD","fuel_level":24,"lat":45.480263,"lon":9.144582,"address":"Viale Vigliani Paolo Onorato, 56, 20148 Milano","virtual_rental_type_id":2,"virtual_rental_id":377003,"car_category_type_id":1,"car_category_id":8,"onClick_disabled":false,"carModelData":[100]},{"car_name":"Fiat 500","car_plate":"ET644XJ","fuel_level":100,"lat":45.413612,"lon":9.208936,"address":"Via Macconago, 20, 20141 Milano MI","virtual_rental_type_id":2,"virtual_rental_id":390567,"car_category_type_id":1,"car_category_id":8,"onClick_disabled":false,"carModelData":[100]},{"car_name":"Fiat 500","car_plate":"EX548VG","fuel_level":56,"lat":45.49878,"lon":9.220465,"address":"Viale Monza, 123, 20125 Milano","virtual_rental_type_id":2,"virtual_rental_id":353830,"car_category_type_id":1,"car_category_id":8,"onClick_disabled":false,"carModelData":[14,100]},{"car_name":"Fiat 500","car_plate":"ET587XJ","fuel_level":29,"lat":45.46085,"lon":9.186399,"address":"Piazza Sant\u0027Alessandro, 4-6, 20123 Milano","virtual_rental_type_id":2,"virtual_rental_id":358848,"car_category_type_id":1,"car_category_id":8,"onClick_disabled":false,"carModelData":[100]},{"car_name":"Fiat 500","car_plate":"EZ760NF","fuel_level":32,"lat":45.481163,"lon":9.234189,"address":"Via Antonio Grossich, 3, 20133 Milano","virtual_rental_type_id":2,"virtual_rental_id":331503,"car_category_type_id":1,"car_category_id":8,"onClick_disabled":false,"carModelData":[]},{"car_name":"Fiat 500","car_plate":"ET887DD","fuel_level":97,"lat":45.411617,"lon":9.273642,"address":"Via Rodolfo Morandi, 11, 20097 San Donato Milanese MI","virtual_rental_type_id":2,"virtual_rental_id":346602,"car_category_type_id":1,"car_category_id":8,"onClick_disabled":false,"carModelData":[100]},{"car_name":"Fiat 500","car_plate":"FA484YY","fuel_level":9,"lat":45.474525,"lon":9.121402,"address":"Via Val Poschiavina, 8, 20153 Milano","virtual_rental_type_id":2,"virtual_rental_id":427837,"car_category_type_id":1,"car_category_id":8,"onClick_disabled":false,"carModelData":[]},{"car_name":"Fiat 500","car_plate":"ET958XK","fuel_level":100,"lat":45.420128,"lon":9.283455,"address":"Via Felice Maritano, 24, 20097 San Donato Milanese MI","virtual_rental_type_id":2,"virtual_rental_id":351676,"car_category_type_id":1,"car_category_id":8,"onClick_disabled":false,"carModelData":[14,100]},{"car_name":"Fiat 500","car_plate":"FA500YY","fuel_level":75,"lat":45.420864,"lon":9.125468,"address":"Via Giuseppe di Vittorio, 13, 20090 Buccinasco MI","virtual_rental_type_id":2,"virtual_rental_id":413206,"car_category_type_id":1,"car_category_id":8,"onClick_disabled":false,"carModelData":[14]},{"car_name":"Fiat 500","car_plate":"EZ239GW","fuel_level":98,"lat":45.501125,"lon":9.135025,"address":"Via Polidoro da Caravaggio, 43, 20156 Milano","virtual_rental_type_id":2,"virtual_rental_id":389305,"car_category_type_id":1,"car_category_id":8,"onClick_disabled":false,"carModelData":[100]},{"car_name":"Fiat 500","car_plate":"ET617XJ","fuel_level":63,"lat":45.50383,"lon":9.192155,"address":"Largo Gino Allegri, 20159 Milano","virtual_rental_type_id":2,"virtual_rental_id":357704,"car_category_type_id":1,"car_category_id":8,"onClick_disabled":false,"carModelData":[100]},{"car_name":"Fiat 500","car_plate":"EZ352GW","fuel_level":27,"lat":45.483486,"lon":9.195017,"address":"Piazza Luigi Einaudi, 4, 20124 Milano","virtual_rental_type_id":2,"virtual_rental_id":361654,"car_category_type_id":1,"car_category_id":8,"onClick_disabled":false,"carModelData":[]},{"car_name":"Fiat 500","car_plate":"FA414YY","fuel_level":90,"lat":45.485363,"lon":9.182972,"address":"Via Giuseppe Ferrari, 508, 20154 Milano","virtual_rental_type_id":2,"virtual_rental_id":348668,"car_category_type_id":1,"car_category_id":8,"onClick_disabled":false,"carModelData":[]},{"car_name":"Fiat 500","car_plate":"EZ194GW","fuel_level":100,"lat":45.50283,"lon":9.123853,"address":"Viale Certosa, 294, 20156 Milano","virtual_rental_type_id":2,"virtual_rental_id":385819,"car_category_type_id":1,"car_category_id":8,"onClick_disabled":false,"carModelData":[]},{"car_name":"Fiat 500","car_plate":"EZ388GW","fuel_level":58,"lat":45.508648,"lon":9.252118,"address":"Via Palmanova, 211, 20132 Milano","virtual_rental_type_id":2,"virtual_rental_id":397024,"car_category_type_id":1,"car_category_id":8,"onClick_disabled":false,"carModelData":[]},{"car_name":"Fiat 500","car_plate":"ET280XF","fuel_level":81,"lat":45.499825,"lon":9.101434,"address":"Via Enrico Falck, 47-51, 20151 Milano","virtual_rental_type_id":2,"virtual_rental_id":355729,"car_category_type_id":1,"car_category_id":8,"onClick_disabled":false,"carModelData":[100]},{"car_name":"Fiat 500","car_plate":"ET621XJ","fuel_level":64,"lat":45.478718,"lon":9.117418,"address":"Via Federico Tesio, 15, 20151 Milano","virtual_rental_type_id":2,"virtual_rental_id":332523,"car_category_type_id":1,"car_category_id":8,"onClick_disabled":false,"carModelData":[100]},{"car_name":"Fiat 500","car_plate":"EZ345GW","fuel_level":69,"lat":45.460716,"lon":9.235916,"address":"Via Piranesi Giovanni Battista, 78, 20137 Milano","virtual_rental_type_id":2,"virtual_rental_id":342530,"car_category_type_id":1,"car_category_id":8,"onClick_disabled":false,"carModelData":[]},{"car_name":"Piaggio MP3","car_plate":"ED57389","fuel_level":100,"lat":45.51994,"lon":9.141262,"address":"Via Longarone, 12, 20157 Milano","virtual_rental_type_id":1,"virtual_rental_id":274656,"car_category_type_id":2,"car_category_id":7,"onClick_disabled":false,"carModelData":[100]},{"car_name":"Fiat 500","car_plate":"ET033XL","fuel_level":98,"lat":45.513847,"lon":9.163419,"address":"Via Vincenzo Caldesi, 6, 20161 Milano","virtual_rental_type_id":2,"virtual_rental_id":394666,"car_category_type_id":1,"car_category_id":8,"onClick_disabled":false,"carModelData":[100]},{"car_name":"Fiat 500 L","car_plate":"ET100XL","fuel_level":100,"lat":45.423267,"lon":9.10158,"address":"Via Alessandro Manzoni, 19A, 20090 Buccinasco MI","virtual_rental_type_id":3,"virtual_rental_id":214104,"car_category_type_id":1,"car_category_id":9,"onClick_disabled":false,"carModelData":[100]},{"car_name":"Fiat 500","car_plate":"ET656XJ","fuel_level":100,"lat":45.48878,"lon":9.116771,"address":"Via Eugenio Montale, 9, 20151 Milano","virtual_rental_type_id":2,"virtual_rental_id":388702,"car_category_type_id":1,"car_category_id":8,"onClick_disabled":false,"carModelData":[100]},{"car_name":"Fiat 500","car_plate":"ET964DD","fuel_level":98,"lat":45.51936,"lon":9.2231865,"address":"Via Fortezza, 15-21, 20126 Milano","virtual_rental_type_id":2,"virtual_rental_id":343710,"car_category_type_id":1,"car_category_id":8,"onClick_disabled":false,"carModelData":[100]},{"car_name":"Fiat 500","car_plate":"FA446YY","fuel_level":98,"lat":45.427483,"lon":9.123498,"address":"Via degli Alpini, 1, 20090 Buccinasco MI","virtual_rental_type_id":2,"virtual_rental_id":356571,"car_category_type_id":1,"car_category_id":8,"onClick_disabled":false,"carModelData":[14]},{"car_name":"Fiat 500","car_plate":"FA473YY","fuel_level":60,"lat":45.465088,"lon":9.151771,"address":"Via Giuseppe Frua, 1-3, 20146 Milano","virtual_rental_type_id":2,"virtual_rental_id":380775,"car_category_type_id":1,"car_category_id":8,"onClick_disabled":false,"carModelData":[]},{"car_name":"Fiat 500","car_plate":"FA826WD","fuel_level":31,"lat":45.53858,"lon":9.221931,"address":"Via Giacomo Leopardi, 230, 20099 Sesto San Giovanni MI","virtual_rental_type_id":2,"virtual_rental_id":342956,"car_category_type_id":1,"car_category_id":8,"onClick_disabled":false,"carModelData":[]},{"car_name":"Fiat 500","car_plate":"EZ174GW","fuel_level":9,"lat":45.50325,"lon":9.251855,"address":"Via Carlo Cazzaniga, 102, 20132 Milano","virtual_rental_type_id":2,"virtual_rental_id":327482,"car_category_type_id":1,"car_category_id":8,"onClick_disabled":false,"carModelData":[]},{"car_name":"Fiat 500","car_plate":"ET972DD","fuel_level":98,"lat":45.514065,"lon":9.115179,"address":"Via Privata Repubblica di San Marino, 5-11, 20157 Milano","virtual_rental_type_id":2,"virtual_rental_id":333125,"car_category_type_id":1,"car_category_id":8,"onClick_disabled":false,"carModelData":[100]},{"car_name":"Piaggio MP3","car_plate":"ED57414","fuel_level":55,"lat":45.50559,"lon":9.096854,"address":"Via Appennini, 201, 20151 Milano MI","virtual_rental_type_id":1,"virtual_rental_id":300628,"car_category_type_id":2,"car_category_id":7,"onClick_disabled":false,"carModelData":[100]},{"car_name":"Fiat 500","car_plate":"ET069XL","fuel_level":40,"lat":45.490925,"lon":9.122281,"address":"Via Luigi Chiarelli, 10, 20151 Milano","virtual_rental_type_id":2,"virtual_rental_id":388002,"car_category_type_id":1,"car_category_id":8,"onClick_disabled":false,"carModelData":[100]},{"car_name":"Fiat 500","car_plate":"FA519YY","fuel_level":56,"lat":45.500633,"lon":9.132162,"address":"Via Barnaba Oriani, 66, 20156 Milano","virtual_rental_type_id":2,"virtual_rental_id":365411,"car_category_type_id":1,"car_category_id":8,"onClick_disabled":false,"carModelData":[]},{"car_name":"Fiat 500","car_plate":"ET598XJ","fuel_level":98,"lat":45.43618,"lon":9.117101,"address":"Via Due Giugno, 6, 20094 Corsico MI","virtual_rental_type_id":2,"virtual_rental_id":394680,"car_category_type_id":1,"car_category_id":8,"onClick_disabled":false,"carModelData":[100]},{"car_name":"Fiat 500","car_plate":"ET917DD","fuel_level":86,"lat":45.518257,"lon":9.2104435,"address":"Via Bicocca degli Arcimboldi, 3, 20126 Milano","virtual_rental_type_id":2,"virtual_rental_id":318532,"car_category_type_id":1,"car_category_id":8,"onClick_disabled":false,"carModelData":[100]},{"car_name":"Fiat 500","car_plate":"ET366XF","fuel_level":76,"lat":45.474056,"lon":9.109107,"address":"Via Fratelli Zoia, 43, 20153 Milano","virtual_rental_type_id":2,"virtual_rental_id":389931,"car_category_type_id":1,"car_category_id":8,"onClick_disabled":false,"carModelData":[100]},{"car_name":"Fiat 500","car_plate":"ET359XF","fuel_level":89,"lat":45.51178,"lon":9.257261,"address":"SPexSS11, 20132 Milano","virtual_rental_type_id":2,"virtual_rental_id":353689,"car_category_type_id":1,"car_category_id":8,"onClick_disabled":false,"carModelData":[100]},{"car_name":"Fiat 500","car_plate":"EZ269GW","fuel_level":78,"lat":45.473053,"lon":9.1874485,"address":"Via Solferino, 2-10, 20121 Milano","virtual_rental_type_id":2,"virtual_rental_id":421647,"car_category_type_id":1,"car_category_id":8,"onClick_disabled":false,"carModelData":[100]},{"car_name":"Fiat 500","car_plate":"FA516YY","fuel_level":97,"lat":45.503544,"lon":9.127069,"address":"Via Privata Cefalonia, 14, 20156 Milano","virtual_rental_type_id":2,"virtual_rental_id":350924,"car_category_type_id":1,"car_category_id":8,"onClick_disabled":false,"carModelData":[]},{"car_name":"Fiat 500","car_plate":"EY185YA","fuel_level":76,"lat":45.41468,"lon":9.165665,"address":"Via Gianluigi Banfi, 10h, 20142 Milano MI","virtual_rental_type_id":2,"virtual_rental_id":352465,"car_category_type_id":1,"car_category_id":8,"onClick_disabled":false,"carModelData":[100]},{"car_name":"Piaggio MP3","car_plate":"ED57149","fuel_level":69,"lat":45.466034,"lon":9.186217,"address":"Via S. Prospero, 1, 20121 Milano","virtual_rental_type_id":1,"virtual_rental_id":274702,"car_category_type_id":2,"car_category_id":7,"onClick_disabled":false,"carModelData":[100]},{"car_name":"Fiat 500","car_plate":"EZ374GW","fuel_level":67,"lat":45.480778,"lon":9.241546,"address":"Via Console Flaminio, 7, 20134 Milano","virtual_rental_type_id":2,"virtual_rental_id":376726,"car_category_type_id":1,"car_category_id":8,"onClick_disabled":false,"carModelData":[]},{"car_name":"Piaggio MP3","car_plate":"ED57067","fuel_level":10,"lat":45.45434,"lon":9.25385,"address":"Via Piero Portaluppi, 1, 20138 Milano","virtual_rental_type_id":1,"virtual_rental_id":274727,"car_category_type_id":2,"car_category_id":7,"onClick_disabled":false,"carModelData":[100]},{"car_name":"Fiat 500","car_plate":"ET962DD","fuel_level":53,"lat":45.446487,"lon":9.221657,"address":"Via Giulio Verne, 1, 20137 Milano","virtual_rental_type_id":2,"virtual_rental_id":373090,"car_category_type_id":1,"car_category_id":8,"onClick_disabled":false,"carModelData":[100]},{"car_name":"Fiat 500","car_plate":"FA401YY","fuel_level":73,"lat":45.488865,"lon":9.053935,"address":"SPexSS11, 18, 20019 Settimo Milanese MI","virtual_rental_type_id":2,"virtual_rental_id":369944,"car_category_type_id":1,"car_category_id":8,"onClick_disabled":false,"carModelData":[]},{"car_name":"Fiat 500","car_plate":"FA523YY","fuel_level":37,"lat":45.518333,"lon":9.130514,"address":"Via Val Lagarina, 2-10, 20157 Milano","virtual_rental_type_id":2,"virtual_rental_id":379243,"car_category_type_id":1,"car_category_id":8,"onClick_disabled":false,"carModelData":[]},{"car_name":"Fiat 500","car_plate":"FA400YY","fuel_level":34,"lat":45.462524,"lon":9.276896,"address":"Aeroporto Linate - Partenze, Segrate MI","virtual_rental_type_id":2,"virtual_rental_id":371573,"car_category_type_id":1,"car_category_id":8,"onClick_disabled":false,"carModelData":[]},{"car_name":"Fiat 500","car_plate":"FA462YY","fuel_level":63,"lat":45.4435,"lon":9.139312,"address":"Piazzale Luigi Negrelli, 1, 20143 Milano","virtual_rental_type_id":2,"virtual_rental_id":376814,"car_category_type_id":1,"car_category_id":8,"onClick_disabled":false,"carModelData":[]},{"car_name":"Fiat 500","car_plate":"FA479YY","fuel_level":16,"lat":45.432354,"lon":9.262143,"address":"Via Giuseppe Impastato, 6, 20138 Milano","virtual_rental_type_id":2,"virtual_rental_id":404786,"car_category_type_id":1,"car_category_id":8,"onClick_disabled":false,"carModelData":[]},{"car_name":"Fiat 500","car_plate":"ET955XK","fuel_level":34,"lat":45.419647,"lon":9.108702,"address":"Via Vittorio Emanuele II, 21, 20090 Buccinasco MI","virtual_rental_type_id":2,"virtual_rental_id":323503,"car_category_type_id":1,"car_category_id":8,"onClick_disabled":false,"carModelData":[100]},