[{"virtual_rental_type_id": 2, "car_plate": "ET905DD", "virtual_rental_id": 393378, "car_category_id": 8, "car_category_type_id": 1, "lon": 9.191357, "carModelData": [100], "car_name": "Fiat 500", "onClick_disabled": false, "address": "Via Luigi Ornato, 7102, 20162 Milano", "lat": 45.525047, "fuel_level": 100}, {"virtual_rental_type_id": 2, "car_plate": "ET852DD", "virtual_rental_id": 328747, "car_category_id": 8, "car_category_type_id": 1, "lon": 9.178304, "carModelData": [14, 100], "car_name": "Fiat 500", "onClick_disabled": false, "address": "Via Lodovico Montegani, 13, 20141 Milano", "lat": 45.4363, "fuel_level": 82}, {"virtual_rental_type_id": 2, "car_plate": "ET853DD", "virtual_rental_id": 359315, "car_category_id": 8, "car_category_type_id": 1, "lon": 9.059088, "carModelData": [14, 100], "car_name": "Fiat 500", "onClick_disabled": false, "address": "Via Giuseppe di Vittorio, 47A, 20019 Settimo Milanese MI", "lat": 45.480988, "fuel_level": 90}, {"virtual_rental_type_id": 2, "car_plate": "ET865DD", "virtual_rental_id": 402360, "car_category_id": 8, "car_category_type_id": 1, "lon": 9.23814, "carModelData": [100], "car_name": "Fiat 500", "onClick_disabled": false, "address": "Piazza Luigi Petazzi, 25, 20099 Sesto San Giovanni MI", "lat": 45.53587, "fuel_level": 95}, {"virtual_rental_type_id": 2, "car_plate": "ET954DD", "virtual_rental_id": 352744, "car_category_id": 8, "car_category_type_id": 1, "lon": 9.1689, "carModelData": [100], "car_name": "Fiat 500", "onClick_disabled": false, "address": "Alzaia Naviglio Pavese, 260, 20142 Milano", "lat": 45.425392, "fuel_level": 67}, {"virtual_rental_type_id": 2, "car_plate": "ET924DD", "virtual_rental_id": 362085, "car_category_id": 8, "car_category_type_id": 1, "lon": 9.127806, "carModelData": [], "car_name": "Fiat 500", "onClick_disabled": false, "address": "Via Indipendenza, 5A, 20090 Buccinasco MI", "lat": 45.42296, "fuel_level": 71}, {"virtual_rental_type_id": 2, "car_plate": "ET944DD", "virtual_rental_id": 330451, "car_category_id": 8, "car_category_type_id": 1, "lon": 9.228785, "carModelData": [100], "car_name": "Fiat 500", "onClick_disabled": false, "address": "Via Clitumno, 14, 20131 Milano", "lat": 45.493168, "fuel_level": 100}, {"virtual_rental_type_id": 2, "car_plate": "ET844DD", "virtual_rental_id": 331034, "car_category_id": 8, "car_category_type_id": 1, "lon": 9.169737, "carModelData": [100], "car_name": "Fiat 500", "onClick_disabled": false, "address": "Via Donna Prassede, 7, 20142 Milano", "lat": 45.43141, "fuel_level": 97}, {"virtual_rental_type_id": 2, "car_plate": "ET988DD", "virtual_rental_id": 332809, "car_category_id": 8, "car_category_type_id": 1, "lon": 9.245069, "carModelData": [100], "car_name": "Fiat 500", "onClick_disabled": false, "address": "Via Riccardo Pitteri, 109-111, 20134 Milano", "lat": 45.481213, "fuel_level": 49}, {"virtual_rental_type_id": 2, "car_plate": "ET972DD", "virtual_rental_id": 333125, "car_category_id": 8, "car_category_type_id": 1, "lon": 9.197011, "carModelData": [100], "car_name": "Fiat 500", "onClick_disabled": false, "address": "Viale Francesco Restelli, 29, 20124 Milano", "lat": 45.490517, "fuel_level": 54}, {"virtual_rental_type_id": 2, "car_plate": "ET879DD", "virtual_rental_id": 361328, "car_category_id": 8, "car_category_type_id": 1, "lon": 9.263917, "carModelData": [100], "car_name": "Fiat 500", "onClick_disabled": false, "address": "Via Privata Monteoliveto, 10, 20138 Milano", "lat": 45.443424, "fuel_level": 97}, {"virtual_rental_type_id": 2, "car_plate": "ET934DD", "virtual_rental_id": 365727, "car_category_id": 8, "car_category_type_id": 1, "lon": 9.08622, "carModelData": [14, 100], "car_name": "Fiat 500", "onClick_disabled": false, "address": "Via Libert\u00e0, 23, 20090 Cesano Boscone MI", "lat": 45.4466, "fuel_level": 94}, {"virtual_rental_type_id": 2, "car_plate": "ET276XF", "virtual_rental_id": 351163, "car_category_id": 8, "car_category_type_id": 1, "lon": 9.238758, "carModelData": [100], "car_name": "Fiat 500", "onClick_disabled": false, "address": "Via Maria Montessori, 3, 20138 Milano", "lat": 45.460686, "fuel_level": 74}, {"virtual_rental_type_id": 2, "car_plate": "ET912DD", "virtual_rental_id": 336537, "car_category_id": 8, "car_category_type_id": 1, "lon": 9.088958, "carModelData": [100], "car_name": "Fiat 500", "onClick_disabled": false, "address": "Via Benedetto Diotti, 17, 20153 Milano", "lat": 45.469288, "fuel_level": 33}, {"virtual_rental_type_id": 2, "car_plate": "ET343XF", "virtual_rental_id": 361216, "car_category_id": 8, "car_category_type_id": 1, "lon": 9.249164, "carModelData": [100], "car_name": "Fiat 500", "onClick_disabled": false, "address": "Via Palmanova, 185, 20132 Milano", "lat": 45.506577, "fuel_level": 40}, {"virtual_rental_type_id": 2, "car_plate": "ET307XF", "virtual_rental_id": 356502, "car_category_id": 8, "car_category_type_id": 1, "lon": 9.117425, "carModelData": [100], "car_name": "Fiat 500", "onClick_disabled": false, "address": "Via Novara, 104, 20153 Milano", "lat": 45.473846, "fuel_level": 21}, {"virtual_rental_type_id": 2, "car_plate": "ET360XF", "virtual_rental_id": 410911, "car_category_id": 8, "car_category_type_id": 1, "lon": 9.273432, "carModelData": [100], "car_name": "Fiat 500", "onClick_disabled": false, "address": "Via Rodolfo Morandi, 11, 20097 San Donato Milanese MI", "lat": 45.411655, "fuel_level": 72}, {"virtual_rental_type_id": 2, "car_plate": "ET333XF", "virtual_rental_id": 365412, "car_category_id": 8, "car_category_type_id": 1, "lon": 9.244169, "carModelData": [100], "car_name": "Fiat 500", "onClick_disabled": false, "address": "Via Monte Palombino, 8, 20138 Milano", "lat": 45.431965, "fuel_level": 51}, {"virtual_rental_type_id": 2, "car_plate": "ET282XF", "virtual_rental_id": 371898, "car_category_id": 8, "car_category_type_id": 1, "lon": 9.221573, "carModelData": [100], "car_name": "Fiat 500", "onClick_disabled": false, "address": "Via Privata Giuseppe Sacconi, 2, 20139 Milano", "lat": 45.44162, "fuel_level": 22}, {"virtual_rental_type_id": 2, "car_plate": "ET323XF", "virtual_rental_id": 377003, "car_category_id": 8, "car_category_type_id": 1, "lon": 9.109339, "carModelData": [100], "car_name": "Fiat 500", "onClick_disabled": false, "address": "Via Fratelli Zoia, 89, 20153 Milano", "lat": 45.4711, "fuel_level": 82}, {"virtual_rental_type_id": 2, "car_plate": "ET976XK", "virtual_rental_id": 325392, "car_category_id": 8, "car_category_type_id": 1, "lon": 9.172804, "carModelData": [], "car_name": "Fiat 500", "onClick_disabled": false, "address": "Via Galileo Ferraris, 89, 20154 Milano", "lat": 45.48899, "fuel_level": 61}, {"virtual_rental_type_id": 2, "car_plate": "ET965XK", "virtual_rental_id": 402936, "car_category_id": 8, "car_category_type_id": 1, "lon": 9.112688, "carModelData": [100], "car_name": "Fiat 500", "onClick_disabled": false, "address": "Via Antonio Vivaldi, 26, 20090 Buccinasco MI", "lat": 45.412464, "fuel_level": 72}, {"virtual_rental_type_id": 2, "car_plate": "ET600XJ", "virtual_rental_id": 353165, "car_category_id": 8, "car_category_type_id": 1, "lon": 9.125175, "carModelData": [100], "car_name": "Fiat 500", "onClick_disabled": false, "address": "Via Lomellina, 35, 20090 Buccinasco MI", "lat": 45.415024, "fuel_level": 74}, {"virtual_rental_type_id": 2, "car_plate": "ET952XK", "virtual_rental_id": 378756, "car_category_id": 8, "car_category_type_id": 1, "lon": 9.252765, "carModelData": [100], "car_name": "Fiat 500", "onClick_disabled": false, "address": "Via S. Mamete, 80, 20128 Milano", "lat": 45.513153, "fuel_level": 82}, {"virtual_rental_type_id": 2, "car_plate": "ET667XJ", "virtual_rental_id": 433451, "car_category_id": 8, "car_category_type_id": 1, "lon": 9.130832, "carModelData": [100], "car_name": "Fiat 500", "onClick_disabled": false, "address": "Via Guglielmo Ciardi, 8-18, 20148 Milano", "lat": 45.47429, "fuel_level": 55}, {"virtual_rental_type_id": 2, "car_plate": "ET011XL", "virtual_rental_id": 394798, "car_category_id": 8, "car_category_type_id": 1, "lon": 9.1535635, "carModelData": [100], "car_name": "Fiat 500", "onClick_disabled": false, "address": "Via Modica, 13, 20143 Milano", "lat": 45.439346, "fuel_level": 47}, {"virtual_rental_type_id": 2, "car_plate": "ET322XF", "virtual_rental_id": 345244, "car_category_id": 8, "car_category_type_id": 1, "lon": 9.26282, "carModelData": [100], "car_name": "Fiat 500", "onClick_disabled": false, "address": "Via Giacinto Menotti Serrati, 19-29, 20138 Milano", "lat": 45.441685, "fuel_level": 22}, {"virtual_rental_type_id": 2, "car_plate": "ET320XF", "virtual_rental_id": 399769, "car_category_id": 8, "car_category_type_id": 1, "lon": 9.276891, "carModelData": [100], "car_name": "Fiat 500", "onClick_disabled": false, "address": "Aeroporto di Milano Linate, Segrate MI", "lat": 45.462513, "fuel_level": 71}, {"virtual_rental_type_id": 2, "car_plate": "ET875DD", "virtual_rental_id": 381162, "car_category_id": 8, "car_category_type_id": 1, "lon": 9.124437, "carModelData": [100], "car_name": "Fiat 500", "onClick_disabled": false, "address": "Via Fetonte, 12-30, 20151 Milano", "lat": 45.48116, "fuel_level": 76}, {"virtual_rental_type_id": 2, "car_plate": "ET291XF", "virtual_rental_id": 377915, "car_category_id": 8, "car_category_type_id": 1, "lon": 9.270482, "carModelData": [100], "car_name": "Fiat 500", "onClick_disabled": false, "address": "Via Agadir, 38, 20097 San Donato Milanese MI", "lat": 45.422184, "fuel_level": 40}, {"virtual_rental_type_id": 2, "car_plate": "ET353XF", "virtual_rental_id": 394284, "car_category_id": 8, "car_category_type_id": 1, "lon": 9.221219, "carModelData": [100], "car_name": "Fiat 500", "onClick_disabled": false, "address": "Via Filippino Lippi, 3-5, 20131 Milano", "lat": 45.47966, "fuel_level": 100}, {"virtual_rental_type_id": 2, "car_plate": "ET997CW", "virtual_rental_id": 357236, "car_category_id": 8, "car_category_type_id": 1, "lon": 9.210898, "carModelData": [14], "car_name": "Fiat 500", "onClick_disabled": false, "address": "Viale Fulvio Testi, 280, 20126 Milano", "lat": 45.525124, "fuel_level": 23}, {"virtual_rental_type_id": 2, "car_plate": "ET992CW", "virtual_rental_id": 418860, "car_category_id": 8, "car_category_type_id": 1, "lon": 9.091895, "carModelData": [14, 100], "car_name": "Fiat 500", "onClick_disabled": false, "address": "Via Roma, 20, 20090 Cesano Boscone MI", "lat": 45.444828, "fuel_level": 23}, {"virtual_rental_type_id": 2, "car_plate": "ET993CW", "virtual_rental_id": 351313, "car_category_id": 8, "car_category_type_id": 1, "lon": 9.254102, "carModelData": [100], "car_name": "Fiat 500", "onClick_disabled": false, "address": "Via Piero Portaluppi, 9, 20138 Milano", "lat": 45.454235, "fuel_level": 48}, {"virtual_rental_type_id": 2, "car_plate": "ET995CW", "virtual_rental_id": 332086, "car_category_id": 8, "car_category_type_id": 1, "lon": 9.16085, "carModelData": [100], "car_name": "Fiat 500", "onClick_disabled": false, "address": "Via Assietta, Milano, MI, Italia", "lat": 45.517597, "fuel_level": 47}, {"virtual_rental_type_id": 2, "car_plate": "ET644XJ", "virtual_rental_id": 390567, "car_category_id": 8, "car_category_type_id": 1, "lon": 9.254169, "carModelData": [100], "car_name": "Fiat 500", "onClick_disabled": false, "address": "Via Giuseppe Impastato, 20138 Milano", "lat": 45.42777, "fuel_level": 61}, {"virtual_rental_type_id": 2, "car_plate": "ET065XL", "virtual_rental_id": 381025, "car_category_id": 8, "car_category_type_id": 1, "lon": 9.180959, "carModelData": [100], "car_name": "Fiat 500", "onClick_disabled": false, "address": "Via Nicola Romeo, 14, 20142 Milano", "lat": 45.417698, "fuel_level": 52}, {"virtual_rental_type_id": 2, "car_plate": "ET066XL", "virtual_rental_id": 399858, "car_category_id": 8, "car_category_type_id": 1, "lon": 9.271047, "carModelData": [100], "car_name": "Fiat 500", "onClick_disabled": false, "address": "Viale Alcide de Gasperi, 8, 20097 San Donato Milanese MI", "lat": 45.423634, "fuel_level": 97}, {"virtual_rental_type_id": 2, "car_plate": "ET069XL", "virtual_rental_id": 388002, "car_category_id": 8, "car_category_type_id": 1, "lon": 9.100566, "carModelData": [100], "car_name": "Fiat 500", "onClick_disabled": false, "address": "Via Fratelli Rizzardi, 37, 20151 Milano", "lat": 45.494198, "fuel_level": 81}, {"virtual_rental_type_id": 2, "car_plate": "ET598XJ", "virtual_rental_id": 341929, "car_category_id": 8, "car_category_type_id": 1, "lon": 9.117068, "carModelData": [100], "car_name": "Fiat 500", "onClick_disabled": false, "address": "Via S. Giusto, 70, 20153 Milano", "lat": 45.471462, "fuel_level": 78}, {"virtual_rental_type_id": 2, "car_plate": "ET630XJ", "virtual_rental_id": 368034, "car_category_id": 8, "car_category_type_id": 1, "lon": 9.142461, "carModelData": [100], "car_name": "Fiat 500", "onClick_disabled": false, "address": "Largo Antonio Balestra, 20146 Milano", "lat": 45.447857, "fuel_level": 41}, {"virtual_rental_type_id": 2, "car_plate": "ET027XL", "virtual_rental_id": 356471, "car_category_id": 8, "car_category_type_id": 1, "lon": 9.198642, "carModelData": [100], "car_name": "Fiat 500", "onClick_disabled": false, "address": "Via Luigi Alamanni, 20, 20141 Milano", "lat": 45.43323, "fuel_level": 62}, {"virtual_rental_type_id": 2, "car_plate": "ET038XL", "virtual_rental_id": 357516, "car_category_id": 8, "car_category_type_id": 1, "lon": 9.226208, "carModelData": [100], "car_name": "Fiat 500", "onClick_disabled": false, "address": "Via Sulmona, 9-17, 20139 Milano", "lat": 45.444496, "fuel_level": 7}, {"virtual_rental_type_id": 2, "car_plate": "ET659XJ", "virtual_rental_id": 345686, "car_category_id": 8, "car_category_type_id": 1, "lon": 9.163991, "carModelData": [100], "car_name": "Fiat 500", "onClick_disabled": false, "address": "Via S. Paolino, 20, 20142 Milano", "lat": 45.430786, "fuel_level": 100}, {"virtual_rental_type_id": 2, "car_plate": "ET980XK", "virtual_rental_id": 382616, "car_category_id": 8, "car_category_type_id": 1, "lon": 9.145396, "carModelData": [100], "car_name": "Fiat 500", "onClick_disabled": false, "address": "Via Filippo Brunelleschi, 9-13, 20144 Milano", "lat": 45.44758, "fuel_level": 60}, {"virtual_rental_type_id": 2, "car_plate": "ET995XK", "virtual_rental_id": 387297, "car_category_id": 8, "car_category_type_id": 1, "lon": 9.184047, "carModelData": [100], "car_name": "Fiat 500", "onClick_disabled": false, "address": "Corso Garibaldi, 70, 20121 Milano", "lat": 45.476307, "fuel_level": 12}, {"virtual_rental_type_id": 2, "car_plate": "ET275XF", "virtual_rental_id": 407656, "car_category_id": 8, "car_category_type_id": 1, "lon": 9.061953, "carModelData": [100], "car_name": "Fiat 500", "onClick_disabled": false, "address": "Via Barni, 1, 20019 Settimo Milanese MI", "lat": 45.47353, "fuel_level": 100}, {"virtual_rental_type_id": 2, "car_plate": "ET371XF", "virtual_rental_id": 346830, "car_category_id": 8, "car_category_type_id": 1, "lon": 9.120816, "carModelData": [], "car_name": "Fiat 500", "onClick_disabled": false, "address": "A4 Torino - Trieste, 20157 Milano MI", "lat": 45.51576, "fuel_level": 100}, {"virtual_rental_type_id": 2, "car_plate": "ET331XF", "virtual_rental_id": 377709, "car_category_id": 8, "car_category_type_id": 1, "lon": 9.105883, "carModelData": [100], "car_name": "Fiat 500", "onClick_disabled": false, "address": "Via delle Forze Armate, 256-258, 20152 Milano", "lat": 45.460007, "fuel_level": 82}, {"virtual_rental_type_id": 2, "car_plate": "ET369XF", "virtual_rental_id": 332000, "car_category_id": 8, "car_category_type_id": 1, "lon": 9.241384, "carModelData": [100], "car_name": "Fiat 500", "onClick_disabled": false, "address": "Via Console Flaminio, 16, 20134 Milano", "lat": 45.481384, "fuel_level": 30}, {"virtual_rental_type_id": 2, "car_plate": "ET859DD", "virtual_rental_id": 372459, "car_category_id": 8, "car_category_type_id": 1, "lon": 9.254113, "carModelData": [100], "car_name": "Fiat 500", "onClick_disabled": false, "address": "Via Piero Portaluppi, 9, 20138 Milano", "lat": 45.45428, "fuel_level": 100}, {"virtual_rental_type_id": 2, "car_plate": "ET578XJ", "virtual_rental_id": 354553, "car_category_id": 8, "car_category_type_id": 1, "lon": 9.263031, "carModelData": [100], "car_name": "Fiat 500", "onClick_disabled": false, "address": "Via Giacinto Menotti Serrati, 19-29, 20138 Milano", "lat": 45.44165, "fuel_level": 20}, {"virtual_rental_type_id": 2, "car_plate": "ET585XJ", "virtual_rental_id": 377872, "car_category_id": 8, "car_category_type_id": 1, "lon": 9.254085, "carModelData": [100], "car_name": "Fiat 500", "onClick_disabled": false, "address": "Via Piero Portaluppi, 9, 20138 Milano", "lat": 45.454338, "fuel_level": 90}, {"virtual_rental_type_id": 2, "car_plate": "ET595XJ", "virtual_rental_id": 396189, "car_category_id": 8, "car_category_type_id": 1, "lon": 9.090027, "carModelData": [100], "car_name": "Fiat 500", "onClick_disabled": false, "address": "Via Privata Alessandro Scanini, 75-81, 20153 Milano", "lat": 45.469845, "fuel_level": 61}, {"virtual_rental_type_id": 2, "car_plate": "ET954XK", "virtual_rental_id": 338893, "car_category_id": 8, "car_category_type_id": 1, "lon": 9.250723, "carModelData": [100], "car_name": "Fiat 500", "onClick_disabled": false, "address": "Via S. Mamete, 35, 20128 Milano MI", "lat": 45.51138, "fuel_level": 26}, {"virtual_rental_type_id": 2, "car_plate": "ET582XJ", "virtual_rental_id": 354999, "car_category_id": 8, "car_category_type_id": 1, "lon": 9.123028, "carModelData": [100], "car_name": "Fiat 500", "onClick_disabled": false, "address": "Via Grancino, 20090 Buccinasco MI", "lat": 45.425, "fuel_level": 80}, {"virtual_rental_type_id": 2, "car_plate": "ET614XJ", "virtual_rental_id": 365424, "car_category_id": 8, "car_category_type_id": 1, "lon": 9.253232, "carModelData": [14, 100], "car_name": "Fiat 500", "onClick_disabled": false, "address": "Via Piero Portaluppi, 9, 20138 Milano", "lat": 45.455173, "fuel_level": 53}, {"virtual_rental_type_id": 2, "car_plate": "ET650XJ", "virtual_rental_id": 370287, "car_category_id": 8, "car_category_type_id": 1, "lon": 9.147168, "carModelData": [100], "car_name": "Fiat 500", "onClick_disabled": false, "address": "Via Gaetano Previati, 40-54, 20149 Milano", "lat": 45.470356, "fuel_level": 51}, {"virtual_rental_type_id": 2, "car_plate": "ET000XL", "virtual_rental_id": 332321, "car_category_id": 8, "car_category_type_id": 1, "lon": 9.119666, "carModelData": [100], "car_name": "Fiat 500", "onClick_disabled": false, "address": "Viale Lombardia, 4, 20090 Buccinasco MI", "lat": 45.42144, "fuel_level": 58}, {"virtual_rental_type_id": 2, "car_plate": "ET987XK", "virtual_rental_id": 329898, "car_category_id": 8, "car_category_type_id": 1, "lon": 9.11733, "carModelData": [100], "car_name": "Fiat 500", "onClick_disabled": false, "address": "Via Federico Tesio, 19, 20151 Milano", "lat": 45.47948, "fuel_level": 50}, {"virtual_rental_type_id": 2, "car_plate": "ET016XL", "virtual_rental_id": 339749, "car_category_id": 8, "car_category_type_id": 1, "lon": 9.283764, "carModelData": [100], "car_name": "Fiat 500", "onClick_disabled": false, "address": "Via Felice Maritano, 24, 20097 San Donato Milanese MI", "lat": 45.420265, "fuel_level": 100}, {"virtual_rental_type_id": 2, "car_plate": "ET991XK", "virtual_rental_id": 431261, "car_category_id": 8, "car_category_type_id": 1, "lon": 9.181186, "carModelData": [100], "car_name": "Fiat 500", "onClick_disabled": false, "address": "Via Carlo Imbonati, 72, 20159 Milano", "lat": 45.504227, "fuel_level": 100}, {"virtual_rental_type_id": 2, "car_plate": "ET958XK", "virtual_rental_id": 351676, "car_category_id": 8, "car_category_type_id": 1, "lon": 9.276983, "carModelData": [14, 100], "car_name": "Fiat 500", "onClick_disabled": false, "address": "Aeroporto di Milano Linate, Segrate MI", "lat": 45.462437, "fuel_level": 100}, {"virtual_rental_type_id": 2, "car_plate": "ET962XK", "virtual_rental_id": 373289, "car_category_id": 8, "car_category_type_id": 1, "lon": 9.254473, "carModelData": [100], "car_name": "Fiat 500", "onClick_disabled": false, "address": "Via Rombon, 78, 20134 Milano", "lat": 45.486958, "fuel_level": 51}, {"virtual_rental_type_id": 2, "car_plate": "ET635XJ", "virtual_rental_id": 350877, "car_category_id": 8, "car_category_type_id": 1, "lon": 9.176116, "carModelData": [100], "car_name": "Fiat 500", "onClick_disabled": false, "address": "Via Giuseppe Tartini, 11a, 20158 Milano", "lat": 45.50451, "fuel_level": 96}, {"virtual_rental_type_id": 2, "car_plate": "ET970XK", "virtual_rental_id": 384291, "car_category_id": 8, "car_category_type_id": 1, "lon": 9.139529, "carModelData": [], "car_name": "Fiat 500", "onClick_disabled": false, "address": "Via Filippo Palizzi, 803, 20157 Milano", "lat": 45.506687, "fuel_level": 74}, {"virtual_rental_type_id": 2, "car_plate": "ET636XJ", "virtual_rental_id": 405912, "car_category_id": 8, "car_category_type_id": 1, "lon": 9.185361, "carModelData": [100], "car_name": "Fiat 500", "onClick_disabled": false, "address": "Via Statuto, 17, 20121 Milano", "lat": 45.47651, "fuel_level": 46}, {"virtual_rental_type_id": 2, "car_plate": "ET686XJ", "virtual_rental_id": 384781, "car_category_id": 8, "car_category_type_id": 1, "lon": 9.127632, "carModelData": [100], "car_name": "Fiat 500", "onClick_disabled": false, "address": "Via Indipendenza, 13, 20090 Buccinasco MI", "lat": 45.41998, "fuel_level": 48}, {"virtual_rental_type_id": 2, "car_plate": "ET649XJ", "virtual_rental_id": 378570, "car_category_id": 8, "car_category_type_id": 1, "lon": 9.24409, "carModelData": [100], "car_name": "Fiat 500", "onClick_disabled": false, "address": "Via del Futurismo, 6, 20138 Milano", "lat": 45.43523, "fuel_level": 53}, {"virtual_rental_type_id": 2, "car_plate": "ET998XK", "virtual_rental_id": 322408, "car_category_id": 8, "car_category_type_id": 1, "lon": 9.23571, "carModelData": [100], "car_name": "Fiat 500", "onClick_disabled": false, "address": "Via Vittorio Gassman, 3, 20128 Milano", "lat": 45.514908, "fuel_level": 86}, {"virtual_rental_type_id": 2, "car_plate": "ET606XJ", "virtual_rental_id": 396631, "car_category_id": 8, "car_category_type_id": 1, "lon": 9.263014, "carModelData": [100], "car_name": "Fiat 500", "onClick_disabled": false, "address": "Via Privata Carlo Parea, 18, 20138 Milano", "lat": 45.443592, "fuel_level": 33}, {"virtual_rental_type_id": 2, "car_plate": "ET638XJ", "virtual_rental_id": 390847, "car_category_id": 8, "car_category_type_id": 1, "lon": 9.283607, "carModelData": [100], "car_name": "Fiat 500", "onClick_disabled": false, "address": "Via Felice Maritano, 24, 20097 San Donato Milanese MI", "lat": 45.420284, "fuel_level": 66}, {"virtual_rental_type_id": 2, "car_plate": "ET057XL", "virtual_rental_id": 376297, "car_category_id": 8, "car_category_type_id": 1, "lon": 9.125941, "carModelData": [100], "car_name": "Fiat 500", "onClick_disabled": false, "address": "Via Giuseppe di Vittorio, 15, 20090 Buccinasco MI", "lat": 45.42086, "fuel_level": 38}, {"virtual_rental_type_id": 2, "car_plate": "ET308XF", "virtual_rental_id": 353697, "car_category_id": 8, "car_category_type_id": 1, "lon": 9.091916, "carModelData": [100], "car_name": "Fiat 500", "onClick_disabled": false, "address": "Via Gioacchino Rossini, 6, 20090 Cesano Boscone MI", "lat": 45.44184, "fuel_level": 100}, {"virtual_rental_type_id": 2, "car_plate": "ET279CY", "virtual_rental_id": 414138, "car_category_id": 8, "car_category_type_id": 1, "lon": 9.163697, "carModelData": [100], "car_name": "Fiat 500", "onClick_disabled": false, "address": "Via Melchiorre Delfico, 2-6, 20155 Milano", "lat": 45.49323, "fuel_level": 60}, {"virtual_rental_type_id": 2, "car_plate": "ET985CW", "virtual_rental_id": 350912, "car_category_id": 8, "car_category_type_id": 1, "lon": 9.243432, "carModelData": [100], "car_name": "Fiat 500", "onClick_disabled": false, "address": "Via Puricelli Guerra, 145, 20099 Sesto San Giovanni MI", "lat": 45.535927, "fuel_level": 98}, {"virtual_rental_type_id": 2, "car_plate": "ET318XF", "virtual_rental_id": 418310, "car_category_id": 8, "car_category_type_id": 1, "lon": 9.247663, "carModelData": [100], "car_name": "Fiat 500", "onClick_disabled": false, "address": "Via Riccardo Pitteri, 61, 20134 Milano", "lat": 45.474995, "fuel_level": 95}, {"virtual_rental_type_id": 2, "car_plate": "ET297XF", "virtual_rental_id": 324967, "car_category_id": 8, "car_category_type_id": 1, "lon": 9.107705, "carModelData": [100], "car_name": "Fiat 500", "onClick_disabled": false, "address": "SPexSS11, 217-219, 20153 Milano", "lat": 45.477726, "fuel_level": 97}, {"virtual_rental_type_id": 2, "car_plate": "ET303XF", "virtual_rental_id": 333952, "car_category_id": 8, "car_category_type_id": 1, "lon": 9.213051, "carModelData": [100], "car_name": "Fiat 500", "onClick_disabled": false, "address": "Via Chiese, 64, 20126 Milano", "lat": 45.521664, "fuel_level": 45}, {"virtual_rental_type_id": 2, "car_plate": "ET324XF", "virtual_rental_id": 322322, "car_category_id": 8, "car_category_type_id": 1, "lon": 9.182111, "carModelData": [100], "car_name": "Fiat 500", "onClick_disabled": false, "address": "Via Tommaso da Cazzaniga, 1-9, 20121 Milano", "lat": 45.476265, "fuel_level": 77}, {"virtual_rental_type_id": 2, "car_plate": "ET315XF", "virtual_rental_id": 414515, "car_category_id": 8, "car_category_type_id": 1, "lon": 9.188515, "carModelData": [100], "car_name": "Fiat 500", "onClick_disabled": false, "address": "Viale Monte Grappa, 9, 20121 Milano", "lat": 45.480717, "fuel_level": 13}, {"virtual_rental_type_id": 2, "car_plate": "ET841DD", "virtual_rental_id": 346614, "car_category_id": 8, "car_category_type_id": 1, "lon": 9.107635, "carModelData": [100], "car_name": "Fiat 500", "onClick_disabled": false, "address": "Via Giovanni di Breganze, 3, 20152 Milano", "lat": 45.460766, "fuel_level": 77}, {"virtual_rental_type_id": 2, "car_plate": "ET931DD", "virtual_rental_id": 373988, "car_category_id": 8, "car_category_type_id": 1, "lon": 9.2661915, "carModelData": [100], "car_name": "Fiat 500", "onClick_disabled": false, "address": "Via Camaldoli, 6, 20138 Milano", "lat": 45.443375, "fuel_level": 64}, {"virtual_rental_type_id": 2, "car_plate": "ET938DD", "virtual_rental_id": 353596, "car_category_id": 8, "car_category_type_id": 1, "lon": 9.133835, "carModelData": [], "car_name": "Fiat 500", "onClick_disabled": false, "address": "Via Crimea, 4-6, 20147 Milano", "lat": 45.46189, "fuel_level": 41}, {"virtual_rental_type_id": 2, "car_plate": "ET939DD", "virtual_rental_id": 344430, "car_category_id": 8, "car_category_type_id": 1, "lon": 9.086246, "carModelData": [], "car_name": "Fiat 500", "onClick_disabled": false, "address": "Piazza Generale Carlo Alberto dalla Chiesa, 4B, 20090 Cesano Boscone MI", "lat": 45.44471, "fuel_level": 66}, {"virtual_rental_type_id": 2, "car_plate": "ET977DD", "virtual_rental_id": 386509, "car_category_id": 8, "car_category_type_id": 1, "lon": 9.087343, "carModelData": [100], "car_name": "Fiat 500", "onClick_disabled": false, "address": "Via Benedetto Diotti, 20, 20153 Milano", "lat": 45.469196, "fuel_level": 42}, {"virtual_rental_type_id": 2, "car_plate": "ET981DD", "virtual_rental_id": 423980, "car_category_id": 8, "car_category_type_id": 1, "lon": 9.283665, "carModelData": [100], "car_name": "Fiat 500", "onClick_disabled": false, "address": "Via Felice Maritano, 24, 20097 San Donato Milanese MI", "lat": 45.42023, "fuel_level": 100}, {"virtual_rental_type_id": 2, "car_plate": "ET982DD", "virtual_rental_id": 377993, "car_category_id": 8, "car_category_type_id": 1, "lon": 9.283501, "carModelData": [100], "car_name": "Fiat 500", "onClick_disabled": false, "address": "Via Felice Maritano, 24, 20097 San Donato Milanese MI", "lat": 45.42021, "fuel_level": 58}, {"virtual_rental_type_id": 2, "car_plate": "ET984DD", "virtual_rental_id": 395247, "car_category_id": 8, "car_category_type_id": 1, "lon": 9.068885, "carModelData": [100], "car_name": "Fiat 500", "onClick_disabled": false, "address": "Via Calatafimi, 18, 20019 Settimo Milanese MI", "lat": 45.46641, "fuel_level": 97}, {"virtual_rental_type_id": 2, "car_plate": "ET996DD", "virtual_rental_id": 367239, "car_category_id": 8, "car_category_type_id": 1, "lon": 9.067795, "carModelData": [100], "car_name": "Fiat 500", "onClick_disabled": false, "address": "Via Sandro Pertini, 7, 20019 Milano", "lat": 45.473625, "fuel_level": 40}, {"virtual_rental_type_id": 2, "car_plate": "ET325XF", "virtual_rental_id": 366649, "car_category_id": 8, "car_category_type_id": 1, "lon": 9.091815, "carModelData": [14, 100], "car_name": "Fiat 500", "onClick_disabled": false, "address": "Via Masaniello, 15, 20152 Milano", "lat": 45.46219, "fuel_level": 95}, {"virtual_rental_type_id": 2, "car_plate": "ET344XF", "virtual_rental_id": 409536, "car_category_id": 8, "car_category_type_id": 1, "lon": 9.142883, "carModelData": [100], "car_name": "Fiat 500", "onClick_disabled": false, "address": "Via Gallarate, 6, 20151 Milano", "lat": 45.493477, "fuel_level": 43}, {"virtual_rental_type_id": 2, "car_plate": "ET254CY", "virtual_rental_id": 345425, "car_category_id": 8, "car_category_type_id": 1, "lon": 9.232549, "carModelData": [100], "car_name": "Fiat 500", "onClick_disabled": false, "address": "Via Melette, 1-5, 20128 Milano", "lat": 45.506783, "fuel_level": 98}, {"virtual_rental_type_id": 2, "car_plate": "ET678XJ", "virtual_rental_id": 386926, "car_category_id": 8, "car_category_type_id": 1, "lon": 9.088442, "carModelData": [100], "car_name": "Fiat 500", "onClick_disabled": false, "address": "Via S. Giuseppe Da Cottolengo, 3, 20090 Cesano Boscone MI", "lat": 45.44882, "fuel_level": 78}, {"virtual_rental_type_id": 2, "car_plate": "ET028XL", "virtual_rental_id": 374576, "car_category_id": 8, "car_category_type_id": 1, "lon": 9.191684, "carModelData": [], "car_name": "Fiat 500", "onClick_disabled": false, "address": "Via Gioacchino Murat, 20, 20159 Milano", "lat": 45.498074, "fuel_level": 82}, {"virtual_rental_type_id": 2, "car_plate": "ET657XJ", "virtual_rental_id": 336760, "car_category_id": 8, "car_category_type_id": 1, "lon": 9.1397705, "carModelData": [100], "car_name": "Fiat 500", "onClick_disabled": false, "address": "Via Calliano, 20148 Milano", "lat": 45.4838, "fuel_level": 60}, {"virtual_rental_type_id": 2, "car_plate": "ET973XK", "virtual_rental_id": 397137, "car_category_id": 8, "car_category_type_id": 1, "lon": 9.116525, "carModelData": [100], "car_name": "Fiat 500", "onClick_disabled": false, "address": "Via Nino Bixio, 20090 Buccinasco MI", "lat": 45.42883, "fuel_level": 100}, {"virtual_rental_type_id": 2, "car_plate": "ET040XL", "virtual_rental_id": 427465, "car_category_id": 8, "car_category_type_id": 1, "lon": 9.144173, "carModelData": [100], "car_name": "Fiat 500", "onClick_disabled": false, "address": "Via Mario Donati, 5-7, 20146 Milano", "lat": 45.45412, "fuel_level": 65}, {"virtual_rental_type_id": 2, "car_plate": "ET999XK", "virtual_rental_id": 328780, "car_category_id": 8, "car_category_type_id": 1, "lon": 9.185198, "carModelData": [100], "car_name": "Fiat 500", "onClick_disabled": false, "address": "Via Luigi Porro Lambertenghi, 9, 20159 Milano", "lat": 45.489525, "fuel_level": 69}, {"virtual_rental_type_id": 2, "car_plate": "ET971XK", "virtual_rental_id": 415708, "car_category_id": 8, "car_category_type_id": 1, "lon": 9.218325, "carModelData": [100], "car_name": "Fiat 500", "onClick_disabled": false, "address": "Via Sansovino, 7, 20131 Milano", "lat": 45.479256, "fuel_level": 48}, {"virtual_rental_type_id": 2, "car_plate": "ET017XL", "virtual_rental_id": 350003, "car_category_id": 8, "car_category_type_id": 1, "lon": 9.219296, "carModelData": [100], "car_name": "Fiat 500", "onClick_disabled": false, "address": "Via Rovigno, 26, 20125 Milano", "lat": 45.50171, "fuel_level": 31}, {"virtual_rental_type_id": 2, "car_plate": "ET989XK", "virtual_rental_id": 326444, "car_category_id": 8, "car_category_type_id": 1, "lon": 9.121842, "carModelData": [100], "car_name": "Fiat 500", "onClick_disabled": false, "address": "Via Simone Saint Bon, 34, 20147 Milano", "lat": 45.458378, "fuel_level": 30}, {"virtual_rental_type_id": 2, "car_plate": "ET263CY", "virtual_rental_id": 336777, "car_category_id": 8, "car_category_type_id": 1, "lon": 9.103319, "carModelData": [100], "car_name": "Fiat 500", "onClick_disabled": false, "address": "Via Mar Nero, 10, 20152 Milano", "lat": 45.457108, "fuel_level": 98}, {"virtual_rental_type_id": 2, "car_plate": "ET265CY", "virtual_rental_id": 399430, "car_category_id": 8, "car_category_type_id": 1, "lon": 9.12714, "carModelData": [100], "car_name": "Fiat 500", "onClick_disabled": false, "address": "Via Buccinasco, 20142 Milano", "lat": 45.437706, "fuel_level": 57}, {"virtual_rental_type_id": 2, "car_plate": "ET009DE", "virtual_rental_id": 395978, "car_category_id": 8, "car_category_type_id": 1, "lon": 9.119692, "carModelData": [100], "car_name": "Fiat 500", "onClick_disabled": false, "address": "Via Lucerna, 1-3, 20147 Milano", "lat": 45.458298, "fuel_level": 74}, {"virtual_rental_type_id": 2, "car_plate": "ET011DE", "virtual_rental_id": 318493, "car_category_id": 8, "car_category_type_id": 1, "lon": 9.111708, "carModelData": [100], "car_name": "Fiat 500", "onClick_disabled": false, "address": "Via Ugo Betti, 34-40, 20151 Milano", "lat": 45.492413, "fuel_level": 48}, {"virtual_rental_type_id": 2, "car_plate": "ET012DE", "virtual_rental_id": 436229, "car_category_id": 8, "car_category_type_id": 1, "lon": 9.091502, "carModelData": [100], "car_name": "Fiat 500", "onClick_disabled": false, "address": "Via Magnolie, 13, 20090 Cesano Boscone MI", "lat": 45.440685, "fuel_level": 72}, {"virtual_rental_type_id": 2, "car_plate": "ET285XF", "virtual_rental_id": 364266, "car_category_id": 8, "car_category_type_id": 1, "lon": 9.152846, "carModelData": [100], "car_name": "Fiat 500", "onClick_disabled": false, "address": "Via Ambrogio Spinola, 8, 20149 Milano", "lat": 45.475697, "fuel_level": 26}, {"virtual_rental_type_id": 2, "car_plate": "ET304XF", "virtual_rental_id": 379140, "car_category_id": 8, "car_category_type_id": 1, "lon": 9.225506, "carModelData": [100], "car_name": "Fiat 500", "onClick_disabled": false, "address": "Via Privata della Torre, 41, 20127 Milano", "lat": 45.500637, "fuel_level": 89}, {"virtual_rental_type_id": 2, "car_plate": "ET310XF", "virtual_rental_id": 331420, "car_category_id": 8, "car_category_type_id": 1, "lon": 9.169792, "carModelData": [100], "car_name": "Fiat 500", "onClick_disabled": false, "address": "Via Costantino Baroni, 57, 20142 Milano", "lat": 45.407333, "fuel_level": 61}, {"virtual_rental_type_id": 2, "car_plate": "ET340XF", "virtual_rental_id": 333080, "car_category_id": 8, "car_category_type_id": 1, "lon": 9.181443, "carModelData": [100], "car_name": "Fiat 500", "onClick_disabled": false, "address": "Bastioni di Porta Volta, 16, 20121 Milano", "lat": 45.47894, "fuel_level": 85}, {"virtual_rental_type_id": 2, "car_plate": "ET350XF", "virtual_rental_id": 323262, "car_category_id": 8, "car_category_type_id": 1, "lon": 9.219733, "carModelData": [100], "car_name": "Fiat 500", "onClick_disabled": false, "address": "Giardino Sergio Ramelli, 20133 Milano", "lat": 45.476494, "fuel_level": 64}, {"virtual_rental_type_id": 2, "car_plate": "ET357XF", "virtual_rental_id": 322572, "car_category_id": 8, "car_category_type_id": 1, "lon": 9.235171, "carModelData": [100], "car_name": "Fiat 500", "onClick_disabled": false, "address": "Via Carlo Pascal, 35, 20133 Milano", "lat": 45.478626, "fuel_level": 45}, {"virtual_rental_type_id": 2, "car_plate": "ET362XF", "virtual_rental_id": 355884, "car_category_id": 8, "car_category_type_id": 1, "lon": 9.238183, "carModelData": [100], "car_name": "Fiat 500", "onClick_disabled": false, "address": "Via Giovanni Battista Cassinis, 66, 20139 Milano", "lat": 45.433308, "fuel_level": 98}, {"virtual_rental_type_id": 2, "car_plate": "ET828DD", "virtual_rental_id": 353506, "car_category_id": 8, "car_category_type_id": 1, "lon": 9.2027, "carModelData": [100], "car_name": "Fiat 500", "onClick_disabled": false, "address": "Viale Fulvio Testi, 91, 20162 Milano", "lat": 45.510532, "fuel_level": 53}, {"virtual_rental_type_id": 2, "car_plate": "ET831DD", "virtual_rental_id": 369199, "car_category_id": 8, "car_category_type_id": 1, "lon": 9.2767935, "carModelData": [100], "car_name": "Fiat 500", "onClick_disabled": false, "address": "Aeroporto di Milano Linate, Segrate MI", "lat": 45.462555, "fuel_level": 100}, {"virtual_rental_type_id": 2, "car_plate": "ET833DD", "virtual_rental_id": 377207, "car_category_id": 8, "car_category_type_id": 1, "lon": 9.171704, "carModelData": [100], "car_name": "Fiat 500", "onClick_disabled": false, "address": "Via Pietro Boifava, 7-15, 20142 Milano", "lat": 45.42712, "fuel_level": 97}, {"virtual_rental_type_id": 2, "car_plate": "ET835DD", "virtual_rental_id": 361693, "car_category_id": 8, "car_category_type_id": 1, "lon": 9.180679, "carModelData": [100], "car_name": "Fiat 500", "onClick_disabled": false, "address": "Via Francesco Brioschi, 15-19, 20136 Milano", "lat": 45.44605, "fuel_level": 31}, {"virtual_rental_type_id": 2, "car_plate": "ET837DD", "virtual_rental_id": 326947, "car_category_id": 8, "car_category_type_id": 1, "lon": 9.11922, "carModelData": [100], "car_name": "Fiat 500", "onClick_disabled": false, "address": "Via Cesare Musatti, 20157 Milano", "lat": 45.514637, "fuel_level": 98}, {"virtual_rental_type_id": 2, "car_plate": "ET839DD", "virtual_rental_id": 351308, "car_category_id": 8, "car_category_type_id": 1, "lon": 9.131564, "carModelData": [100], "car_name": "Fiat 500", "onClick_disabled": false, "address": "Via Giambellino, 146, 20147 Milano", "lat": 45.445152, "fuel_level": 55}, {"virtual_rental_type_id": 2, "car_plate": "ET846DD", "virtual_rental_id": 374615, "car_category_id": 8, "car_category_type_id": 1, "lon": 9.226329, "carModelData": [100], "car_name": "Fiat 500", "onClick_disabled": false, "address": "SPexSS11, 29, 20131 Milano", "lat": 45.49162, "fuel_level": 69}, {"virtual_rental_type_id": 2, "car_plate": "ET866DD", "virtual_rental_id": 335735, "car_category_id": 8, "car_category_type_id": 1, "lon": 9.220964, "carModelData": [100], "car_name": "Fiat 500", "onClick_disabled": false, "address": "Via Enrico N\u00f6e, 24, 20133 Milano", "lat": 45.47858, "fuel_level": 67}, {"virtual_rental_type_id": 2, "car_plate": "ET868DD", "virtual_rental_id": 330702, "car_category_id": 8, "car_category_type_id": 1, "lon": 9.254566, "carModelData": [100], "car_name": "Fiat 500", "onClick_disabled": false, "address": "Via Rombon, 78, 20134 Milano", "lat": 45.48687, "fuel_level": 96}, {"virtual_rental_type_id": 2, "car_plate": "ET872DD", "virtual_rental_id": 427363, "car_category_id": 8, "car_category_type_id": 1, "lon": 9.259727, "carModelData": [14, 100], "car_name": "Fiat 500", "onClick_disabled": false, "address": "Via Gaudenzio Fantoli, 28, 20138 Milano", "lat": 45.451366, "fuel_level": 100}, {"virtual_rental_type_id": 2, "car_plate": "ET877DD", "virtual_rental_id": 359766, "car_category_id": 8, "car_category_type_id": 1, "lon": 9.101779, "carModelData": [100], "car_name": "Fiat 500", "onClick_disabled": false, "address": "Via Alessandro Manzoni, 9, 20090 Buccinasco MI", "lat": 45.42327, "fuel_level": 100}, {"virtual_rental_type_id": 2, "car_plate": "ET889DD", "virtual_rental_id": 346101, "car_category_id": 8, "car_category_type_id": 1, "lon": 9.241293, "carModelData": [100], "car_name": "Fiat 500", "onClick_disabled": false, "address": "Via Francesco Pizzolpasso, 5, 20138 Milano", "lat": 45.43548, "fuel_level": 70}, {"virtual_rental_type_id": 2, "car_plate": "ET891DD", "virtual_rental_id": 399830, "car_category_id": 8, "car_category_type_id": 1, "lon": 9.224509, "carModelData": [100], "car_name": "Fiat 500", "onClick_disabled": false, "address": "Via S. Giuseppe, 13, 20099 Sesto San Giovanni MI", "lat": 45.53206, "fuel_level": 75}, {"virtual_rental_type_id": 2, "car_plate": "ET895DD", "virtual_rental_id": 324763, "car_category_id": 8, "car_category_type_id": 1, "lon": 9.241495, "carModelData": [100], "car_name": "Fiat 500", "onClick_disabled": false, "address": "Via Giorgio Enrico Falck, 71, 20099 Sesto San Giovanni MI", "lat": 45.538387, "fuel_level": 97}, {"virtual_rental_type_id": 2, "car_plate": "ET903DD", "virtual_rental_id": 358932, "car_category_id": 8, "car_category_type_id": 1, "lon": 9.208611, "carModelData": [100], "car_name": "Fiat 500", "onClick_disabled": false, "address": "Corso Lodi, 34, 20135 Milano", "lat": 45.448185, "fuel_level": 77}, {"virtual_rental_type_id": 2, "car_plate": "ET904DD", "virtual_rental_id": 361130, "car_category_id": 8, "car_category_type_id": 1, "lon": 9.1752825, "carModelData": [100], "car_name": "Fiat 500", "onClick_disabled": false, "address": "Via Costantino Baroni, 1, 20142 Milano", "lat": 45.412663, "fuel_level": 100}, {"virtual_rental_type_id": 2, "car_plate": "ET906DD", "virtual_rental_id": 392104, "car_category_id": 8, "car_category_type_id": 1, "lon": 9.128049, "carModelData": [100], "car_name": "Fiat 500", "onClick_disabled": false, "address": "Via Pier Francesco Cittadini, 2, 20157 Milano", "lat": 45.513733, "fuel_level": 68}, {"virtual_rental_type_id": 2, "car_plate": "ET907DD", "virtual_rental_id": 406396, "car_category_id": 8, "car_category_type_id": 1, "lon": 9.123554, "carModelData": [100], "car_name": "Fiat 500", "onClick_disabled": false, "address": "Via degli Alpini, 14, 20090 Buccinasco MI", "lat": 45.42779, "fuel_level": 93}, {"virtual_rental_type_id": 2, "car_plate": "ET917DD", "virtual_rental_id": 318532, "car_category_id": 8, "car_category_type_id": 1, "lon": 9.232017, "carModelData": [100], "car_name": "Fiat 500", "onClick_disabled": false, "address": "Viale Antonio Gramsci, 20, 20099 Sesto San Giovanni MI", "lat": 45.534866, "fuel_level": 52}, {"virtual_rental_type_id": 2, "car_plate": "ET926DD", "virtual_rental_id": 346602, "car_category_id": 8, "car_category_type_id": 1, "lon": 9.099934, "carModelData": [100], "car_name": "Fiat 500", "onClick_disabled": false, "address": "Via Boccaccio, 20090 Cesano Boscone MI", "lat": 45.438007, "fuel_level": 75}, {"virtual_rental_type_id": 2, "car_plate": "ET056XL", "virtual_rental_id": 362519, "car_category_id": 8, "car_category_type_id": 1, "lon": 9.263827, "carModelData": [100], "car_name": "Fiat 500", "onClick_disabled": false, "address": "Via Elio Vittorini, 233-239, 20138 Milano", "lat": 45.44466, "fuel_level": 47}, {"virtual_rental_type_id": 2, "car_plate": "ET953DD", "virtual_rental_id": 378601, "car_category_id": 8, "car_category_type_id": 1, "lon": 9.14182, "carModelData": [100], "car_name": "Fiat 500", "onClick_disabled": false, "address": "Via Curio Dentato, 5, 20146 Milano", "lat": 45.449074, "fuel_level": 80}, {"virtual_rental_type_id": 2, "car_plate": "ET956DD", "virtual_rental_id": 330197, "car_category_id": 8, "car_category_type_id": 1, "lon": 9.20363, "carModelData": [100], "car_name": "Fiat 500", "onClick_disabled": false, "address": "Via Vittorio Salmini, 3, 20135 Milano", "lat": 45.450443, "fuel_level": 30}, {"virtual_rental_type_id": 2, "car_plate": "ET964DD", "virtual_rental_id": 343710, "car_category_id": 8, "car_category_type_id": 1, "lon": 9.236085, "carModelData": [100], "car_name": "Fiat 500", "onClick_disabled": false, "address": "Via Carlo Boncompagni, 74, 20139 Milano", "lat": 45.436, "fuel_level": 58}, {"virtual_rental_type_id": 2, "car_plate": "ET969DD", "virtual_rental_id": 336602, "car_category_id": 8, "car_category_type_id": 1, "lon": 9.254162, "carModelData": [100], "car_name": "Fiat 500", "onClick_disabled": false, "address": "Via Piero Portaluppi, 9, 20138 Milano", "lat": 45.4542, "fuel_level": 49}, {"virtual_rental_type_id": 2, "car_plate": "ET922DD", "virtual_rental_id": 329148, "car_category_id": 8, "car_category_type_id": 1, "lon": 9.102298, "carModelData": [100], "car_name": "Fiat 500", "onClick_disabled": false, "address": "Via Alessandro Manzoni, 9, 20090 Buccinasco MI", "lat": 45.423225, "fuel_level": 57}, {"virtual_rental_type_id": 2, "car_plate": "ET647XJ", "virtual_rental_id": 339927, "car_category_id": 8, "car_category_type_id": 1, "lon": 9.085293, "carModelData": [], "car_name": "Fiat 500", "onClick_disabled": false, "address": "Via Salvo D'Acquisto, 7, 20090 Cesano Boscone MI", "lat": 45.444138, "fuel_level": 44}, {"virtual_rental_type_id": 2, "car_plate": "ET583XJ", "virtual_rental_id": 349261, "car_category_id": 8, "car_category_type_id": 1, "lon": 9.246645, "carModelData": [100], "car_name": "Fiat 500", "onClick_disabled": false, "address": "Via Adriano, 20, 20128 Milano", "lat": 45.511993, "fuel_level": 74}, {"virtual_rental_type_id": 2, "car_plate": "ET694XJ", "virtual_rental_id": 345359, "car_category_id": 8, "car_category_type_id": 1, "lon": 9.191457, "carModelData": [100], "car_name": "Fiat 500", "onClick_disabled": false, "address": "Via Bernardino Verro, 39, 20141 Milano", "lat": 45.43907, "fuel_level": 78}, {"virtual_rental_type_id": 2, "car_plate": "ET623XJ", "virtual_rental_id": 372737, "car_category_id": 8, "car_category_type_id": 1, "lon": 9.086672, "carModelData": [100], "car_name": "Fiat 500", "onClick_disabled": false, "address": "Via Amerigo Vespucci, 15, 20090 Cesano Boscone MI", "lat": 45.444546, "fuel_level": 53}, {"virtual_rental_type_id": 2, "car_plate": "ET593XJ", "virtual_rental_id": 347735, "car_category_id": 8, "car_category_type_id": 1, "lon": 9.245283, "carModelData": [14, 100], "car_name": "Fiat 500", "onClick_disabled": false, "address": "Viale Italia, 459B, 20099 Sesto San Giovanni MI", "lat": 45.53674, "fuel_level": 38}, {"virtual_rental_type_id": 2, "car_plate": "ET955XK", "virtual_rental_id": 323503, "car_category_id": 8, "car_category_type_id": 1, "lon": 9.106499, "carModelData": [100], "car_name": "Fiat 500", "onClick_disabled": false, "address": "Via Mafalda di Savoia, 20151 Milano", "lat": 45.49374, "fuel_level": 100}, {"virtual_rental_type_id": 2, "car_plate": "ET075XL", "virtual_rental_id": 368694, "car_category_id": 8, "car_category_type_id": 1, "lon": 9.142526, "carModelData": [100], "car_name": "Fiat 500", "onClick_disabled": false, "address": "Largo Antonio Balestra, 20146 Milano", "lat": 45.447945, "fuel_level": 49}, {"virtual_rental_type_id": 2, "car_plate": "ET617XJ", "virtual_rental_id": 357704, "car_category_id": 8, "car_category_type_id": 1, "lon": 9.117836, "carModelData": [100], "car_name": "Fiat 500", "onClick_disabled": false, "address": "Via Due Giugno, 14, 20094 Corsico MI", "lat": 45.43542, "fuel_level": 28}, {"virtual_rental_type_id": 2, "car_plate": "ET596XJ", "virtual_rental_id": 414507, "car_category_id": 8, "car_category_type_id": 1, "lon": 9.249796, "carModelData": [100], "car_name": "Fiat 500", "onClick_disabled": false, "address": "Via Carlo Feltrinelli, 16, 20138 Milano", "lat": 45.433464, "fuel_level": 51}, {"virtual_rental_type_id": 2, "car_plate": "ET610XJ", "virtual_rental_id": 348950, "car_category_id": 8, "car_category_type_id": 1, "lon": 9.140029, "carModelData": [100], "car_name": "Fiat 500", "onClick_disabled": false, "address": "Via Camillo Giussani, 30, 20143 Milano", "lat": 45.440796, "fuel_level": 90}, {"virtual_rental_type_id": 2, "car_plate": "ET631XJ", "virtual_rental_id": 329073, "car_category_id": 8, "car_category_type_id": 1, "lon": 9.225568, "carModelData": [100], "car_name": "Fiat 500", "onClick_disabled": false, "address": "Via Tolmino, 11, 20099 Sesto San Giovanni MI", "lat": 45.52576, "fuel_level": 49}, {"virtual_rental_type_id": 2, "car_plate": "ET642XJ", "virtual_rental_id": 357131, "car_category_id": 8, "car_category_type_id": 1, "lon": 9.178208, "carModelData": [100], "car_name": "Fiat 500", "onClick_disabled": false, "address": "Via Lodovico Montegani, 23, 20141 Milano", "lat": 45.435154, "fuel_level": 34}, {"virtual_rental_type_id": 2, "car_plate": "ET590XJ", "virtual_rental_id": 343211, "car_category_id": 8, "car_category_type_id": 1, "lon": 9.265232, "carModelData": [100], "car_name": "Fiat 500", "onClick_disabled": false, "address": "Via Elio Vittorini, 36, 20138 Milano", "lat": 45.444366, "fuel_level": 65}, {"virtual_rental_type_id": 2, "car_plate": "ET646XJ", "virtual_rental_id": 392538, "car_category_id": 8, "car_category_type_id": 1, "lon": 9.167543, "carModelData": [100], "car_name": "Fiat 500", "onClick_disabled": false, "address": "Via Umbria, 10-18, 20089 Cascina Perseghetto MI", "lat": 45.37398, "fuel_level": 97}, {"virtual_rental_type_id": 2, "car_plate": "ET030XL", "virtual_rental_id": 322515, "car_category_id": 8, "car_category_type_id": 1, "lon": 9.250635, "carModelData": [100], "car_name": "Fiat 500", "onClick_disabled": false, "address": "Via Angelo Rizzoli, 1-7, 20132 Milano", "lat": 45.504913, "fuel_level": 92}, {"virtual_rental_type_id": 2, "car_plate": "ET961XK", "virtual_rental_id": 367999, "car_category_id": 8, "car_category_type_id": 1, "lon": 9.101353, "carModelData": [100], "car_name": "Fiat 500", "onClick_disabled": false, "address": "Via Piave, 24, 20094 Corsico MI", "lat": 45.42695, "fuel_level": 100}, {"virtual_rental_type_id": 2, "car_plate": "ET993XK", "virtual_rental_id": 359109, "car_category_id": 8, "car_category_type_id": 1, "lon": 9.138444, "carModelData": [100], "car_name": "Fiat 500", "onClick_disabled": false, "address": "Via Camillo Giussani, 17-23, 20143 Milano", "lat": 45.440723, "fuel_level": 98}, {"virtual_rental_type_id": 2, "car_plate": "ET618XJ", "virtual_rental_id": 348999, "car_category_id": 8, "car_category_type_id": 1, "lon": 9.126097, "carModelData": [100], "car_name": "Fiat 500", "onClick_disabled": false, "address": "Via Domokos, 1, 20147 Milano", "lat": 45.4684, "fuel_level": 27}, {"virtual_rental_type_id": 2, "car_plate": "ET656XJ", "virtual_rental_id": 388702, "car_category_id": 8, "car_category_type_id": 1, "lon": 9.270279, "carModelData": [100], "car_name": "Fiat 500", "onClick_disabled": false, "address": "Via Agadir, 38, 20097 San Donato Milanese MI", "lat": 45.4221, "fuel_level": 46}, {"virtual_rental_type_id": 2, "car_plate": "ET575XJ", "virtual_rental_id": 397688, "car_category_id": 8, "car_category_type_id": 1, "lon": 9.092378, "carModelData": [100], "car_name": "Fiat 500", "onClick_disabled": false, "address": "Via Masaniello, 9-13, 20152 Milano", "lat": 45.46192, "fuel_level": 88}, {"virtual_rental_type_id": 2, "car_plate": "ET962DD", "virtual_rental_id": 373090, "car_category_id": 8, "car_category_type_id": 1, "lon": 9.210627, "carModelData": [100], "car_name": "Fiat 500", "onClick_disabled": false, "address": "Viale Fulvio Testi, 280, 20126 Milano", "lat": 45.524662, "fuel_level": 35}, {"virtual_rental_type_id": 2, "car_plate": "EX994VG", "virtual_rental_id": 385031, "car_category_id": 8, "car_category_type_id": 1, "lon": 9.276811, "carModelData": [100], "car_name": "Fiat 500", "onClick_disabled": false, "address": "Aeroporto di Milano Linate, Segrate MI", "lat": 45.462517, "fuel_level": 42}, {"virtual_rental_type_id": 2, "car_plate": "EX528VG", "virtual_rental_id": 374162, "car_category_id": 8, "car_category_type_id": 1, "lon": 9.1196165, "carModelData": [100], "car_name": "Fiat 500", "onClick_disabled": false, "address": "Viale Lombardia, 4, 20090 Buccinasco MI", "lat": 45.42154, "fuel_level": 71}, {"virtual_rental_type_id": 2, "car_plate": "EX526VG", "virtual_rental_id": 412418, "car_category_id": 8, "car_category_type_id": 1, "lon": 9.228696, "carModelData": [14, 100], "car_name": "Fiat 500", "onClick_disabled": false, "address": "Via Firenze, 50, 20099 Sesto San Giovanni MI", "lat": 45.532726, "fuel_level": 48}, {"virtual_rental_type_id": 2, "car_plate": "EX524VG", "virtual_rental_id": 412694, "car_category_id": 8, "car_category_type_id": 1, "lon": 9.263625, "carModelData": [], "car_name": "Fiat 500", "onClick_disabled": false, "address": "Via Giacinto Menotti Serrati, 22, 20138 Milano", "lat": 45.44222, "fuel_level": 5}, {"virtual_rental_type_id": 2, "car_plate": "EX989VG", "virtual_rental_id": 333178, "car_category_id": 8, "car_category_type_id": 1, "lon": 9.143886, "carModelData": [100], "car_name": "Fiat 500", "onClick_disabled": false, "address": "Via Brivio, 1, 20156 Milano", "lat": 45.502995, "fuel_level": 87}, {"virtual_rental_type_id": 2, "car_plate": "FA506YY", "virtual_rental_id": 348195, "car_category_id": 8, "car_category_type_id": 1, "lon": 9.108639, "carModelData": [14], "car_name": "Fiat 500", "onClick_disabled": false, "address": "Via Vittorio Emanuele II, 21, 20090 Buccinasco MI", "lat": 45.4191, "fuel_level": 80}, {"virtual_rental_type_id": 2, "car_plate": "EZ183GW", "virtual_rental_id": 352258, "car_category_id": 8, "car_category_type_id": 1, "lon": 9.173926, "carModelData": [], "car_name": "Fiat 500", "onClick_disabled": false, "address": "Via Rimini, 2, 20142 Milano", "lat": 45.44084, "fuel_level": 18}, {"virtual_rental_type_id": 2, "car_plate": "FA471YY", "virtual_rental_id": 370642, "car_category_id": 8, "car_category_type_id": 1, "lon": 9.145382, "carModelData": [], "car_name": "Fiat 500", "onClick_disabled": false, "address": "Via Lodovico Il Moro, 49-53, 20143 Milano", "lat": 45.445515, "fuel_level": 48}, {"virtual_rental_type_id": 2, "car_plate": "FA799WD", "virtual_rental_id": 386426, "car_category_id": 8, "car_category_type_id": 1, "lon": 9.226871, "carModelData": [], "car_name": "Fiat 500", "onClick_disabled": false, "address": "Via Fiume, 24, 20099 Sesto San Giovanni MI", "lat": 45.523567, "fuel_level": 36}, {"virtual_rental_type_id": 2, "car_plate": "FA513YY", "virtual_rental_id": 355914, "car_category_id": 8, "car_category_type_id": 1, "lon": 9.144312, "carModelData": [], "car_name": "Fiat 500", "onClick_disabled": false, "address": "Piazza Carlo Stuparich, 8, 20148 Milano", "lat": 45.483032, "fuel_level": 51}, {"virtual_rental_type_id": 2, "car_plate": "FA426YY", "virtual_rental_id": 340329, "car_category_id": 8, "car_category_type_id": 1, "lon": 9.264348, "carModelData": [], "car_name": "Fiat 500", "onClick_disabled": false, "address": "Via Cesare Battisti, 21, 20097 San Donato Milanese MI", "lat": 45.41716, "fuel_level": 72}, {"virtual_rental_type_id": 2, "car_plate": "FA500YY", "virtual_rental_id": 413206, "car_category_id": 8, "car_category_type_id": 1, "lon": 9.125434, "carModelData": [14], "car_name": "Fiat 500", "onClick_disabled": false, "address": "Via Giuseppe di Vittorio, 13, 20090 Buccinasco MI", "lat": 45.420887, "fuel_level": 75}, {"virtual_rental_type_id": 2, "car_plate": "FB324SM", "virtual_rental_id": 435828, "car_category_id": 8, "car_category_type_id": 1, "lon": 9.240376, "carModelData": [], "car_name": "Fiat 500", "onClick_disabled": false, "address": "Via Cascina Merezzate, 20138 Milano", "lat": 45.44394, "fuel_level": 94}, {"virtual_rental_type_id": 2, "car_plate": "EX990VG", "virtual_rental_id": 365079, "car_category_id": 8, "car_category_type_id": 1, "lon": 9.174099, "carModelData": [100], "car_name": "Fiat 500", "onClick_disabled": false, "address": "Via Giovanni Nicotera, 9-11, 20161 Milano", "lat": 45.511124, "fuel_level": 98}, {"virtual_rental_type_id": 2, "car_plate": "EZ223GW", "virtual_rental_id": 421422, "car_category_id": 8, "car_category_type_id": 1, "lon": 9.270323, "carModelData": [100], "car_name": "Fiat 500", "onClick_disabled": false, "address": "Via Agadir, 38, 20097 San Donato Milanese MI", "lat": 45.422047, "fuel_level": 12}, {"virtual_rental_type_id": 2, "car_plate": "EZ254GW", "virtual_rental_id": 380011, "car_category_id": 8, "car_category_type_id": 1, "lon": 9.2702675, "carModelData": [100], "car_name": "Fiat 500", "onClick_disabled": false, "address": "Via Agadir, 38, 20097 San Donato Milanese MI", "lat": 45.42211, "fuel_level": 100}, {"virtual_rental_type_id": 2, "car_plate": "EZ224GW", "virtual_rental_id": 386712, "car_category_id": 8, "car_category_type_id": 1, "lon": 9.270405, "carModelData": [100], "car_name": "Fiat 500", "onClick_disabled": false, "address": "Via Agadir, 38, 20097 San Donato Milanese MI", "lat": 45.422115, "fuel_level": 47}, {"virtual_rental_type_id": 2, "car_plate": "EZ216GW", "virtual_rental_id": 350647, "car_category_id": 8, "car_category_type_id": 1, "lon": 9.2039175, "carModelData": [14, 100], "car_name": "Fiat 500", "onClick_disabled": false, "address": "Via Carlo Bianconi, 9, 20139 Milano", "lat": 45.434566, "fuel_level": 45}, {"virtual_rental_type_id": 2, "car_plate": "EZ998DF", "virtual_rental_id": 391120, "car_category_id": 8, "car_category_type_id": 1, "lon": 9.264241, "carModelData": [100], "car_name": "Fiat 500", "onClick_disabled": false, "address": "Via Guido Ucelli di Nemi, 5, 20138 Milano", "lat": 45.44275, "fuel_level": 31}, {"virtual_rental_type_id": 2, "car_plate": "EZ285GW", "virtual_rental_id": 359768, "car_category_id": 8, "car_category_type_id": 1, "lon": 9.1105, "carModelData": [100], "car_name": "Fiat 500", "onClick_disabled": false, "address": "Via Antonio Vivaldi, 81, 20090 Buccinasco MI", "lat": 45.417313, "fuel_level": 41}, {"virtual_rental_type_id": 2, "car_plate": "EZ239GW", "virtual_rental_id": 389305, "car_category_id": 8, "car_category_type_id": 1, "lon": 9.273761, "carModelData": [100], "car_name": "Fiat 500", "onClick_disabled": false, "address": "Via Rodolfo Morandi, 26, 20097 San Donato Milanese MI", "lat": 45.411686, "fuel_level": 60}, {"virtual_rental_type_id": 2, "car_plate": "EZ265GW", "virtual_rental_id": 367344, "car_category_id": 8, "car_category_type_id": 1, "lon": 9.23151, "carModelData": [100], "car_name": "Fiat 500", "onClick_disabled": false, "address": "Via Giacomo Venezian, 1, 20133 Milano", "lat": 45.474403, "fuel_level": 96}, {"virtual_rental_type_id": 2, "car_plate": "EZ132GW", "virtual_rental_id": 339447, "car_category_id": 8, "car_category_type_id": 1, "lon": 9.161231, "carModelData": [100], "car_name": "Fiat 500", "onClick_disabled": false, "address": "Via Giuseppe Dezza, 27, 20144 Milano", "lat": 45.460503, "fuel_level": 75}, {"virtual_rental_type_id": 2, "car_plate": "EZ269GW", "virtual_rental_id": 421647, "car_category_id": 8, "car_category_type_id": 1, "lon": 9.185723, "carModelData": [100], "car_name": "Fiat 500", "onClick_disabled": false, "address": "Via Privata Bosisio, 14, 20162 Milano", "lat": 45.517776, "fuel_level": 48}, {"virtual_rental_type_id": 1, "car_plate": "ED04652", "virtual_rental_id": 274831, "car_category_id": 7, "car_category_type_id": 2, "lon": 9.127926, "carModelData": [100], "car_name": "Piaggio MP3", "onClick_disabled": false, "address": "Via Giovanni Battista Grassi, 21, 20157 Milano", "lat": 45.511635, "fuel_level": 100}, {"virtual_rental_type_id": 2, "car_plate": "EZ027TY", "virtual_rental_id": 383750, "car_category_id": 8, "car_category_type_id": 1, "lon": 9.151044, "carModelData": [], "car_name": "Fiat 500", "onClick_disabled": false, "address": "Via Riccione, 14, 20156 Milano", "lat": 45.500706, "fuel_level": 42}, {"virtual_rental_type_id": 2, "car_plate": "EZ031TY", "virtual_rental_id": 327323, "car_category_id": 8, "car_category_type_id": 1, "lon": 9.145602, "carModelData": [], "car_name": "Fiat 500", "onClick_disabled": false, "address": "Via Michele Pericle Negrotto, 31, 20157 Milano", "lat": 45.504448, "fuel_level": 48}, {"virtual_rental_type_id": 2, "car_plate": "FA479YY", "virtual_rental_id": 404786, "car_category_id": 8, "car_category_type_id": 1, "lon": 9.113429, "carModelData": [], "car_name": "Fiat 500", "onClick_disabled": false, "address": "Via Ugo Betti, 18-20, 20151 Milano", "lat": 45.49175, "fuel_level": 54}, {"virtual_rental_type_id": 2, "car_plate": "FA417YY", "virtual_rental_id": 358908, "car_category_id": 8, "car_category_type_id": 1, "lon": 9.171109, "carModelData": [], "car_name": "Fiat 500", "onClick_disabled": false, "address": "Via Privata Uberto dell'Orto, 9, 20161 Milano", "lat": 45.522713, "fuel_level": 91}, {"virtual_rental_type_id": 2, "car_plate": "FA831WD", "virtual_rental_id": 342282, "car_category_id": 8, "car_category_type_id": 1, "lon": 9.070066, "carModelData": [14], "car_name": "Fiat 500", "onClick_disabled": false, "address": "Via Piero Gobetti, 12, 20019 Settimo Milanese MI", "lat": 45.472504, "fuel_level": 60}, {"virtual_rental_type_id": 2, "car_plate": "EZ214TY", "virtual_rental_id": 349862, "car_category_id": 8, "car_category_type_id": 1, "lon": 9.242189, "carModelData": [], "car_name": "Fiat 500", "onClick_disabled": false, "address": "Via Rogoredo, 25, 20138 Milano", "lat": 45.431732, "fuel_level": 100}, {"virtual_rental_type_id": 2, "car_plate": "EZ341GW", "virtual_rental_id": 333915, "car_category_id": 8, "car_category_type_id": 1, "lon": 9.243587, "carModelData": [], "car_name": "Fiat 500", "onClick_disabled": false, "address": "Viale Italia, 452-458, 20099 Sesto San Giovanni MI", "lat": 45.53487, "fuel_level": 45}, {"virtual_rental_type_id": 2, "car_plate": "EZ331GW", "virtual_rental_id": 371951, "car_category_id": 8, "car_category_type_id": 1, "lon": 9.069061, "carModelData": [], "car_name": "Fiat 500", "onClick_disabled": false, "address": "Via Antonio Meucci, 16, 20019 Settimo Milanese MI", "lat": 45.465107, "fuel_level": 53}, {"virtual_rental_type_id": 2, "car_plate": "EZ345GW", "virtual_rental_id": 342530, "car_category_id": 8, "car_category_type_id": 1, "lon": 9.243231, "carModelData": [], "car_name": "Fiat 500", "onClick_disabled": false, "address": "Via Antonio De Curtis, 20128 Milano", "lat": 45.51628, "fuel_level": 94}, {"virtual_rental_type_id": 2, "car_plate": "EZ182GW", "virtual_rental_id": 411239, "car_category_id": 8, "car_category_type_id": 1, "lon": 9.276793, "carModelData": [], "car_name": "Fiat 500", "onClick_disabled": false, "address": "Aeroporto di Milano Linate, Segrate MI", "lat": 45.462517, "fuel_level": 100}, {"virtual_rental_type_id": 2, "car_plate": "EZ177GW", "virtual_rental_id": 360042, "car_category_id": 8, "car_category_type_id": 1, "lon": 9.224444, "carModelData": [], "car_name": "Fiat 500", "onClick_disabled": false, "address": "Viale Puglie, 14, 20139 Milano", "lat": 45.445347, "fuel_level": 70}, {"virtual_rental_type_id": 2, "car_plate": "EZ371GW", "virtual_rental_id": 428370, "car_category_id": 8, "car_category_type_id": 1, "lon": 9.2342, "carModelData": [], "car_name": "Fiat 500", "onClick_disabled": false, "address": "Via Cesare da Sesto, 43, 20099 Sesto San Giovanni MI", "lat": 45.534317, "fuel_level": 52}, {"virtual_rental_type_id": 2, "car_plate": "FA452YY", "virtual_rental_id": 426871, "car_category_id": 8, "car_category_type_id": 1, "lon": 9.283789, "carModelData": [], "car_name": "Fiat 500", "onClick_disabled": false, "address": "Via Felice Maritano, 24, 20097 San Donato Milanese MI", "lat": 45.420315, "fuel_level": 76}, {"virtual_rental_type_id": 2, "car_plate": "FA839WD", "virtual_rental_id": 322423, "car_category_id": 8, "car_category_type_id": 1, "lon": 9.181709, "carModelData": [], "car_name": "Fiat 500", "onClick_disabled": false, "address": "Via Cannero, 3, 20159 Milano", "lat": 45.50484, "fuel_level": 48}, {"virtual_rental_type_id": 2, "car_plate": "FA435YY", "virtual_rental_id": 322397, "car_category_id": 8, "car_category_type_id": 1, "lon": 9.22814, "carModelData": [14], "car_name": "Fiat 500", "onClick_disabled": false, "address": "Via Sulmona, 22, 20139 Milano", "lat": 45.444553, "fuel_level": 26}, {"virtual_rental_type_id": 2, "car_plate": "FA475YY", "virtual_rental_id": 348465, "car_category_id": 8, "car_category_type_id": 1, "lon": 9.125431, "carModelData": [], "car_name": "Fiat 500", "onClick_disabled": false, "address": "Via Pegaso, Milano, MI, Italia", "lat": 45.48127, "fuel_level": 31}, {"virtual_rental_type_id": 2, "car_plate": "ET619XJ", "virtual_rental_id": 353680, "car_category_id": 8, "car_category_type_id": 1, "lon": 9.226063, "carModelData": [100], "car_name": "Fiat 500", "onClick_disabled": false, "address": "Viale Argonne, 7, 20133 Milano", "lat": 45.468166, "fuel_level": 97}, {"virtual_rental_type_id": 2, "car_plate": "EZ018TY", "virtual_rental_id": 387888, "car_category_id": 8, "car_category_type_id": 1, "lon": 9.240801, "carModelData": [], "car_name": "Fiat 500", "onClick_disabled": false, "address": "Via Feltre, 27, 20132 Milano", "lat": 45.491318, "fuel_level": 98}, {"virtual_rental_type_id": 2, "car_plate": "EZ094TY", "virtual_rental_id": 413742, "car_category_id": 8, "car_category_type_id": 1, "lon": 9.086095, "carModelData": [], "car_name": "Fiat 500", "onClick_disabled": false, "address": "Via Castrovillari, 15-19, 20152 Milano", "lat": 45.45705, "fuel_level": 100}, {"virtual_rental_type_id": 2, "car_plate": "EX511VG", "virtual_rental_id": 336701, "car_category_id": 8, "car_category_type_id": 1, "lon": 9.056536, "carModelData": [100], "car_name": "Fiat 500", "onClick_disabled": false, "address": "Via Giuseppe di Vittorio, 7, 20010 Settimo Milanese MI", "lat": 45.486927, "fuel_level": 37}, {"virtual_rental_type_id": 2, "car_plate": "EX997VG", "virtual_rental_id": 353852, "car_category_id": 8, "car_category_type_id": 1, "lon": 9.248983, "carModelData": [100], "car_name": "Fiat 500", "onClick_disabled": false, "address": "Via Zante, 17, 20138 Milano", "lat": 45.456978, "fuel_level": 60}, {"virtual_rental_type_id": 2, "car_plate": "FA834WD", "virtual_rental_id": 328938, "car_category_id": 8, "car_category_type_id": 1, "lon": 9.126316, "carModelData": [], "car_name": "Fiat 500", "onClick_disabled": false, "address": "Via Aldo Moro, 11, 20090 Buccinasco MI", "lat": 45.418457, "fuel_level": 40}, {"virtual_rental_type_id": 2, "car_plate": "EZ765NF", "virtual_rental_id": 367307, "car_category_id": 8, "car_category_type_id": 1, "lon": 9.209165, "carModelData": [], "car_name": "Fiat 500", "onClick_disabled": false, "address": "Via Arcivescovo Calabiana, 11, 20139 Milano", "lat": 45.443047, "fuel_level": 31}, {"virtual_rental_type_id": 2, "car_plate": "EZ394GW", "virtual_rental_id": 327586, "car_category_id": 8, "car_category_type_id": 1, "lon": 9.085792, "carModelData": [], "car_name": "Fiat 500", "onClick_disabled": false, "address": "Via Benedetto Diotti, 55, 20153 Milano", "lat": 45.468697, "fuel_level": 45}, {"virtual_rental_type_id": 2, "car_plate": "EZ139GW", "virtual_rental_id": 328255, "car_category_id": 8, "car_category_type_id": 1, "lon": 9.165938, "carModelData": [], "car_name": "Fiat 500", "onClick_disabled": false, "address": "Via Comasina, 19, 20161 Milano", "lat": 45.52416, "fuel_level": 60}, {"virtual_rental_type_id": 2, "car_plate": "FA503YY", "virtual_rental_id": 350857, "car_category_id": 8, "car_category_type_id": 1, "lon": 9.085469, "carModelData": [], "car_name": "Fiat 500", "onClick_disabled": false, "address": "Via Benedetto Diotti, 59, 20153 Milano", "lat": 45.468555, "fuel_level": 44}, {"virtual_rental_type_id": 2, "car_plate": "FA519YY", "virtual_rental_id": 365411, "car_category_id": 8, "car_category_type_id": 1, "lon": 9.165106, "carModelData": [], "car_name": "Fiat 500", "onClick_disabled": false, "address": "Via Principe Eugenio, 61, 20158 Milano", "lat": 45.495052, "fuel_level": 97}, {"virtual_rental_type_id": 2, "car_plate": "FA414YY", "virtual_rental_id": 348668, "car_category_id": 8, "car_category_type_id": 1, "lon": 9.159864, "carModelData": [], "car_name": "Fiat 500", "onClick_disabled": false, "address": "Via Giuseppe Dezza, 1-15, 20144 Milano", "lat": 45.461826, "fuel_level": 29}, {"virtual_rental_type_id": 2, "car_plate": "EX543VG", "virtual_rental_id": 374831, "car_category_id": 8, "car_category_type_id": 1, "lon": 9.249105, "carModelData": [100], "car_name": "Fiat 500", "onClick_disabled": false, "address": "Via Privata Trasimeno, 32-38, 20128 Milano", "lat": 45.514454, "fuel_level": 42}, {"virtual_rental_type_id": 2, "car_plate": "EX520VG", "virtual_rental_id": 375272, "car_category_id": 8, "car_category_type_id": 1, "lon": 9.109318, "carModelData": [14, 100], "car_name": "Fiat 500", "onClick_disabled": false, "address": "Via Lario, 3, 20090 Buccinasco MI", "lat": 45.422333, "fuel_level": 41}, {"virtual_rental_type_id": 2, "car_plate": "FA431YY", "virtual_rental_id": 358047, "car_category_id": 8, "car_category_type_id": 1, "lon": 9.064419, "carModelData": [], "car_name": "Fiat 500", "onClick_disabled": false, "address": "Via Cesare Pavese, 53-59, 20019 Settimo Milanese MI", "lat": 45.471478, "fuel_level": 97}, {"virtual_rental_type_id": 2, "car_plate": "FA505YY", "virtual_rental_id": 377049, "car_category_id": 8, "car_category_type_id": 1, "lon": 9.087419, "carModelData": [14], "car_name": "Fiat 500", "onClick_disabled": false, "address": "Via Trieste, 23, 20090 Cesano Boscone MI", "lat": 45.44443, "fuel_level": 24}, {"virtual_rental_type_id": 2, "car_plate": "FA820WD", "virtual_rental_id": 347088, "car_category_id": 8, "car_category_type_id": 1, "lon": 9.242014, "carModelData": [14], "car_name": "Fiat 500", "onClick_disabled": false, "address": "Via Toscolano, 6-12, 20138 Milano", "lat": 45.458263, "fuel_level": 17}, {"virtual_rental_type_id": 2, "car_plate": "EX993VG", "virtual_rental_id": 363992, "car_category_id": 8, "car_category_type_id": 1, "lon": 9.225617, "carModelData": [100], "car_name": "Fiat 500", "onClick_disabled": false, "address": "Via Fanfulla da Lodi, 9, 20131 Milano", "lat": 45.491653, "fuel_level": 80}, {"virtual_rental_type_id": 2, "car_plate": "FA803WD", "virtual_rental_id": 339163, "car_category_id": 8, "car_category_type_id": 1, "lon": 9.172355, "carModelData": [], "car_name": "Fiat 500", "onClick_disabled": false, "address": "Via Imperia, 17-19, 20142 Milano", "lat": 45.441853, "fuel_level": 87}, {"virtual_rental_type_id": 2, "car_plate": "EZ374GW", "virtual_rental_id": 376726, "car_category_id": 8, "car_category_type_id": 1, "lon": 9.112181, "carModelData": [], "car_name": "Fiat 500", "onClick_disabled": false, "address": "Via Antonio Vivaldi, 31, 20090 Buccinasco MI", "lat": 45.41368, "fuel_level": 34}, {"virtual_rental_type_id": 2, "car_plate": "EZ134TY", "virtual_rental_id": 325190, "car_category_id": 8, "car_category_type_id": 1, "lon": 9.209377, "carModelData": [14], "car_name": "Fiat 500", "onClick_disabled": false, "address": "Via Privata Passo Pordoi, 5-7, 20139 Milano", "lat": 45.436092, "fuel_level": 29}, {"virtual_rental_type_id": 2, "car_plate": "EZ130TY", "virtual_rental_id": 381009, "car_category_id": 8, "car_category_type_id": 1, "lon": 9.08703, "carModelData": [], "car_name": "Fiat 500", "onClick_disabled": false, "address": "Via S. Carlo, 1, 20090 Cesano Boscone MI", "lat": 45.447514, "fuel_level": 48}, {"virtual_rental_type_id": 3, "car_plate": "ET099XL", "virtual_rental_id": 231867, "car_category_id": 9, "car_category_type_id": 1, "lon": 9.182417, "carModelData": [100], "car_name": "Fiat 500 L", "onClick_disabled": false, "address": "Via Maurizio Quadrio, 19, 20154 Milano", "lat": 45.48377, "fuel_level": 20}, {"virtual_rental_type_id": 3, "car_plate": "ET108XL", "virtual_rental_id": 255899, "car_category_id": 9, "car_category_type_id": 1, "lon": 9.177797, "carModelData": [100], "car_name": "Fiat 500 L", "onClick_disabled": false, "address": "Via Cesare Isotta, 20142 Milano", "lat": 45.42254, "fuel_level": 72}, {"virtual_rental_type_id": 3, "car_plate": "ET100XL", "virtual_rental_id": 214104, "car_category_id": 9, "car_category_type_id": 1, "lon": 9.101543, "carModelData": [100], "car_name": "Fiat 500 L", "onClick_disabled": false, "address": "Via Alessandro Manzoni, 19A, 20090 Buccinasco MI", "lat": 45.42325, "fuel_level": 100}, {"virtual_rental_type_id": 2, "car_plate": "EZ038TY", "virtual_rental_id": 341180, "car_category_id": 8, "car_category_type_id": 1, "lon": 9.264279, "carModelData": [], "car_name": "Fiat 500", "onClick_disabled": false, "address": "Via Ambrosoli, 20097 San Donato Milanese MI", "lat": 45.417236, "fuel_level": 32}, {"virtual_rental_type_id": 2, "car_plate": "EZ037TY", "virtual_rental_id": 337426, "car_category_id": 8, "car_category_type_id": 1, "lon": 9.241362, "carModelData": [], "car_name": "Fiat 500", "onClick_disabled": false, "address": "Via Durazzo, 19, 20134 Milano", "lat": 45.487793, "fuel_level": 72}, {"virtual_rental_type_id": 2, "car_plate": "EZ165TY", "virtual_rental_id": 382474, "car_category_id": 8, "car_category_type_id": 1, "lon": 9.28374, "carModelData": [], "car_name": "Fiat 500", "onClick_disabled": false, "address": "Via Felice Maritano, 24, 20097 San Donato Milanese MI", "lat": 45.420258, "fuel_level": 63}, {"virtual_rental_type_id": 2, "car_plate": "EZ220TY", "virtual_rental_id": 426298, "car_category_id": 8, "car_category_type_id": 1, "lon": 9.121551, "carModelData": [], "car_name": "Fiat 500", "onClick_disabled": false, "address": "Via Giuseppe di Vittorio, 8, 20090 Buccinasco MI", "lat": 45.420982, "fuel_level": 72}, {"virtual_rental_type_id": 2, "car_plate": "EZ213TY", "virtual_rental_id": 334217, "car_category_id": 8, "car_category_type_id": 1, "lon": 9.160972, "carModelData": [], "car_name": "Fiat 500", "onClick_disabled": false, "address": "Via Luigi T\u00fck\u00f6ry, 78, 20161 Milano", "lat": 45.512764, "fuel_level": 7}, {"virtual_rental_type_id": 2, "car_plate": "EZ218TY", "virtual_rental_id": 352111, "car_category_id": 8, "car_category_type_id": 1, "lon": 9.228896, "carModelData": [], "car_name": "Fiat 500", "onClick_disabled": false, "address": "Via Risorgimento, 265, 20099 Sesto San Giovanni MI", "lat": 45.5401, "fuel_level": 47}, {"virtual_rental_type_id": 2, "car_plate": "EZ349GW", "virtual_rental_id": 388050, "car_category_id": 8, "car_category_type_id": 1, "lon": 9.2193, "carModelData": [], "car_name": "Fiat 500", "onClick_disabled": false, "address": "Via Garofalo, 21, 20131 Milano", "lat": 45.47992, "fuel_level": 62}, {"virtual_rental_type_id": 2, "car_plate": "EZ215TY", "virtual_rental_id": 351256, "car_category_id": 8, "car_category_type_id": 1, "lon": 9.270164, "carModelData": [], "car_name": "Fiat 500", "onClick_disabled": false, "address": "Via Agadir, 38, 20097 San Donato Milanese MI", "lat": 45.422977, "fuel_level": 69}, {"virtual_rental_type_id": 2, "car_plate": "EZ200TY", "virtual_rental_id": 360721, "car_category_id": 8, "car_category_type_id": 1, "lon": 9.239545, "carModelData": [], "car_name": "Fiat 500", "onClick_disabled": false, "address": "Via Acciaierie, 78, 20099 Sesto San Giovanni MI", "lat": 45.53956, "fuel_level": 92}, {"virtual_rental_type_id": 2, "car_plate": "FA514YY", "virtual_rental_id": 327471, "car_category_id": 8, "car_category_type_id": 1, "lon": 9.230153, "carModelData": [], "car_name": "Fiat 500", "onClick_disabled": false, "address": "Via Fratelli Bandiera, 13, 20099 Sesto San Giovanni MI", "lat": 45.534576, "fuel_level": 48}, {"virtual_rental_type_id": 2, "car_plate": "FA813WD", "virtual_rental_id": 338494, "car_category_id": 8, "car_category_type_id": 1, "lon": 9.148591, "carModelData": [], "car_name": "Fiat 500", "onClick_disabled": false, "address": "Via Giuseppe Pellizza da Volpedo, 7-39, 20149 Milano", "lat": 45.47357, "fuel_level": 92}, {"virtual_rental_type_id": 2, "car_plate": "FA832WD", "virtual_rental_id": 327607, "car_category_id": 8, "car_category_type_id": 1, "lon": 9.160249, "carModelData": [], "car_name": "Fiat 500", "onClick_disabled": false, "address": "Via Carlo Cicogna Mozzoni, 25, 20161 Milano", "lat": 45.51583, "fuel_level": 83}, {"virtual_rental_type_id": 1, "car_plate": "ED04664", "virtual_rental_id": 369724, "car_category_id": 7, "car_category_type_id": 2, "lon": 9.101841, "carModelData": [100], "car_name": "Piaggio MP3", "onClick_disabled": false, "address": "Via Repubblica, 51, 20090 Cesano Boscone MI", "lat": 45.439674, "fuel_level": 58}, {"virtual_rental_type_id": 2, "car_plate": "EZ365GW", "virtual_rental_id": 333341, "car_category_id": 8, "car_category_type_id": 1, "lon": 9.222994, "carModelData": [], "car_name": "Fiat 500", "onClick_disabled": false, "address": "Via Ilarione Rancati, 5, 20127 Milano", "lat": 45.501255, "fuel_level": 61}, {"virtual_rental_type_id": 2, "car_plate": "EX656VB", "virtual_rental_id": 414591, "car_category_id": 8, "car_category_type_id": 1, "lon": 9.186413, "carModelData": [14, 100], "car_name": "Fiat 500", "onClick_disabled": false, "address": "Via Carlo Farini, 92, 20159 Milano", "lat": 45.496708, "fuel_level": 52}, {"virtual_rental_type_id": 2, "car_plate": "EZ174TY", "virtual_rental_id": 343470, "car_category_id": 8, "car_category_type_id": 1, "lon": 9.108447, "carModelData": [], "car_name": "Fiat 500", "onClick_disabled": false, "address": "Via Valle Antigorio, 20152 Milano", "lat": 45.459328, "fuel_level": 55}, {"virtual_rental_type_id": 2, "car_plate": "EZ212TY", "virtual_rental_id": 369278, "car_category_id": 8, "car_category_type_id": 1, "lon": 9.24307, "carModelData": [], "car_name": "Fiat 500", "onClick_disabled": false, "address": "Piazza Piero Carnelli, 20138 Milano", "lat": 45.45859, "fuel_level": 36}, {"virtual_rental_type_id": 2, "car_plate": "FA826WD", "virtual_rental_id": 342956, "car_category_id": 8, "car_category_type_id": 1, "lon": 9.221875, "carModelData": [], "car_name": "Fiat 500", "onClick_disabled": false, "address": "Viale Monza, 140, 20127 Milano", "lat": 45.503597, "fuel_level": 81}, {"virtual_rental_type_id": 2, "car_plate": "EZ211TY", "virtual_rental_id": 324684, "car_category_id": 8, "car_category_type_id": 1, "lon": 9.2299185, "carModelData": [], "car_name": "Fiat 500", "onClick_disabled": false, "address": "Via Enrico Caviglia, 5, 20139 Milano", "lat": 45.442726, "fuel_level": 96}, {"virtual_rental_type_id": 2, "car_plate": "FA413YY", "virtual_rental_id": 417330, "car_category_id": 8, "car_category_type_id": 1, "lon": 9.243746, "carModelData": [], "car_name": "Fiat 500", "onClick_disabled": false, "address": "Via Antonio De Curtis, 20128 Milano", "lat": 45.516468, "fuel_level": 10}, {"virtual_rental_type_id": 2, "car_plate": "FA408YY", "virtual_rental_id": 394680, "car_category_id": 8, "car_category_type_id": 1, "lon": 9.124006, "carModelData": [14], "car_name": "Fiat 500", "onClick_disabled": false, "address": "Via Lomellina, 16A, 20090 Buccinasco MI", "lat": 45.415977, "fuel_level": 50}, {"virtual_rental_type_id": 2, "car_plate": "FA478YY", "virtual_rental_id": 393064, "car_category_id": 8, "car_category_type_id": 1, "lon": 9.252894, "carModelData": [], "car_name": "Fiat 500", "onClick_disabled": false, "address": "Via Canelli, 27, 20134 Milano", "lat": 45.49101, "fuel_level": 66}, {"virtual_rental_type_id": 2, "car_plate": "FA448YY", "virtual_rental_id": 396750, "car_category_id": 8, "car_category_type_id": 1, "lon": 9.266218, "carModelData": [], "car_name": "Fiat 500", "onClick_disabled": false, "address": "Via Camaldoli, 1-11, 20138 Milano", "lat": 45.44333, "fuel_level": 80}, {"virtual_rental_type_id": 2, "car_plate": "FA449YY", "virtual_rental_id": 327945, "car_category_id": 8, "car_category_type_id": 1, "lon": 9.179143, "carModelData": [], "car_name": "Fiat 500", "onClick_disabled": false, "address": "Via dei Missaglia, 117, 20142 Milano", "lat": 45.408222, "fuel_level": 32}, {"virtual_rental_type_id": 1, "car_plate": "ED04631", "virtual_rental_id": 274863, "car_category_id": 7, "car_category_type_id": 2, "lon": 9.214645, "carModelData": [100], "car_name": "Piaggio MP3", "onClick_disabled": false, "address": "Via Bartolomeo Eustachi, 53, 20129 Milano", "lat": 45.47961, "fuel_level": 58}, {"virtual_rental_type_id": 1, "car_plate": "ED57149", "virtual_rental_id": 274702, "car_category_id": 7, "car_category_type_id": 2, "lon": 9.105714, "carModelData": [100], "car_name": "Piaggio MP3", "onClick_disabled": false, "address": "Via Appennini, 88, 20151 Milano", "lat": 45.50185, "fuel_level": 44}, {"virtual_rental_type_id": 2, "car_plate": "EZ196GW", "virtual_rental_id": 368993, "car_category_id": 8, "car_category_type_id": 1, "lon": 9.14736, "carModelData": [], "car_name": "Fiat 500", "onClick_disabled": false, "address": "Via Mos\u00e8 Bianchi, 60, 20149 Milano", "lat": 45.4739, "fuel_level": 66}, {"virtual_rental_type_id": 2, "car_plate": "EZ328GW", "virtual_rental_id": 330882, "car_category_id": 8, "car_category_type_id": 1, "lon": 9.173991, "carModelData": [14], "car_name": "Fiat 500", "onClick_disabled": false, "address": "Alzaia Naviglio Pavese, 10, 20142 Milano", "lat": 45.43551, "fuel_level": 31}, {"virtual_rental_type_id": 2, "car_plate": "FE804SS", "virtual_rental_id": 368679, "car_category_id": 8, "car_category_type_id": 1, "lon": 9.117911, "carModelData": [14], "car_name": "Fiat 500", "onClick_disabled": false, "address": "Via Dante Alighieri, 101, 20090 Buccinasco MI", "lat": 45.428265, "fuel_level": 60}, {"virtual_rental_type_id": 2, "car_plate": "EZ193GW", "virtual_rental_id": 409296, "car_category_id": 8, "car_category_type_id": 1, "lon": 9.120976, "carModelData": [], "car_name": "Fiat 500", "onClick_disabled": false, "address": "Via Giorgio Stephenson, 81, 20157 Milano", "lat": 45.512028, "fuel_level": 77}, {"virtual_rental_type_id": 1, "car_plate": "ED04638", "virtual_rental_id": 300627, "car_category_id": 7, "car_category_type_id": 2, "lon": 9.198702, "carModelData": [100], "car_name": "Piaggio MP3", "onClick_disabled": false, "address": "Via della Commenda, 1, 20122 Milano", "lat": 45.459694, "fuel_level": 66}, {"virtual_rental_type_id": 2, "car_plate": "EY173WC", "virtual_rental_id": 360101, "car_category_id": 8, "car_category_type_id": 1, "lon": 9.157314, "carModelData": [100], "car_name": "Fiat 500", "onClick_disabled": false, "address": "Via Giotto, 28, 20145 Milano", "lat": 45.46907, "fuel_level": 23}, {"virtual_rental_type_id": 2, "car_plate": "EY169WC", "virtual_rental_id": 431416, "car_category_id": 8, "car_category_type_id": 1, "lon": 9.24777, "carModelData": [100], "car_name": "Fiat 500", "onClick_disabled": false, "address": "Via Caduti di Marcinelle, 4, 20134 Milano", "lat": 45.47979, "fuel_level": 91}, {"virtual_rental_type_id": 1, "car_plate": "ED04632", "virtual_rental_id": 301123, "car_category_id": 7, "car_category_type_id": 2, "lon": 9.085658, "carModelData": [100], "car_name": "Piaggio MP3", "onClick_disabled": false, "address": "Via Salvo D'Acquisto, 20090 Cesano Boscone MI", "lat": 45.443634, "fuel_level": 0}, {"virtual_rental_type_id": 1, "car_plate": "ED57389", "virtual_rental_id": 274656, "car_category_id": 7, "car_category_type_id": 2, "lon": 9.168255, "carModelData": [100], "car_name": "Piaggio MP3", "onClick_disabled": false, "address": "Via Giuseppe Govone, 26, 20154 Milano", "lat": 45.48888, "fuel_level": 92}, {"virtual_rental_type_id": 2, "car_plate": "FA480YY", "virtual_rental_id": 407832, "car_category_id": 8, "car_category_type_id": 1, "lon": 9.15606, "carModelData": [], "car_name": "Fiat 500", "onClick_disabled": false, "address": "Via Valcava, 6, 20155 Milano", "lat": 45.492077, "fuel_level": 73}, {"virtual_rental_type_id": 2, "car_plate": "FA494YY", "virtual_rental_id": 379004, "car_category_id": 8, "car_category_type_id": 1, "lon": 9.276763, "carModelData": [], "car_name": "Fiat 500", "onClick_disabled": false, "address": "Aeroporto Linate - Partenze, Segrate MI", "lat": 45.462517, "fuel_level": 96}, {"virtual_rental_type_id": 1, "car_plate": "ED57071", "virtual_rental_id": 282513, "car_category_id": 7, "car_category_type_id": 2, "lon": 9.109144, "carModelData": [100], "car_name": "Piaggio MP3", "onClick_disabled": false, "address": "Via Castellanza, 2-4, 20151 Milano", "lat": 45.50107, "fuel_level": 85}, {"virtual_rental_type_id": 1, "car_plate": "ED57153", "virtual_rental_id": 275142, "car_category_id": 7, "car_category_type_id": 2, "lon": 9.2645035, "carModelData": [100], "car_name": "Piaggio MP3", "onClick_disabled": false, "address": "Via Guido Ucelli di Nemi, 51, 20138 Milano", "lat": 45.437992, "fuel_level": 12}, {"virtual_rental_type_id": 2, "car_plate": "FA517YY", "virtual_rental_id": 322383, "car_category_id": 8, "car_category_type_id": 1, "lon": 9.094536, "carModelData": [], "car_name": "Fiat 500", "onClick_disabled": false, "address": "Via Rimembranze, 5, 20090 Cesano Boscone MI", "lat": 45.44956, "fuel_level": 42}, {"virtual_rental_type_id": 2, "car_plate": "FA487YY", "virtual_rental_id": 363000, "car_category_id": 8, "car_category_type_id": 1, "lon": 9.098089, "carModelData": [], "car_name": "Fiat 500", "onClick_disabled": false, "address": "Via Palmi, 25, 20152 Milano", "lat": 45.4586, "fuel_level": 25}, {"virtual_rental_type_id": 2, "car_plate": "FA421YY", "virtual_rental_id": 428296, "car_category_id": 8, "car_category_type_id": 1, "lon": 9.139479, "carModelData": [], "car_name": "Fiat 500", "onClick_disabled": false, "address": "Via Parenzo, 4, 20143 Milano", "lat": 45.442898, "fuel_level": 55}, {"virtual_rental_type_id": 2, "car_plate": "FA450YY", "virtual_rental_id": 433158, "car_category_id": 8, "car_category_type_id": 1, "lon": 9.061157, "carModelData": [], "car_name": "Fiat 500", "onClick_disabled": false, "address": "Via Leonardo da Vinci, 56, 20019 Settimo Milanese MI", "lat": 45.469772, "fuel_level": 80}, {"virtual_rental_type_id": 2, "car_plate": "FA842WD", "virtual_rental_id": 432481, "car_category_id": 8, "car_category_type_id": 1, "lon": 9.135699, "carModelData": [], "car_name": "Fiat 500", "onClick_disabled": false, "address": "Largo dei Gelsomini, 3, 20146 Milano", "lat": 45.4491, "fuel_level": 31}, {"virtual_rental_type_id": 2, "car_plate": "EZ337GW", "virtual_rental_id": 388233, "car_category_id": 8, "car_category_type_id": 1, "lon": 9.144777, "carModelData": [], "car_name": "Fiat 500", "onClick_disabled": false, "address": "Via Davide Campari, 13-25, 20142 Milano", "lat": 45.434273, "fuel_level": 95}, {"virtual_rental_type_id": 2, "car_plate": "EZ358GW", "virtual_rental_id": 340533, "car_category_id": 8, "car_category_type_id": 1, "lon": 9.229205, "carModelData": [14], "car_name": "Fiat 500", "onClick_disabled": false, "address": "Via Varsavia, 4, 20137 Milano", "lat": 45.453022, "fuel_level": 48}, {"virtual_rental_type_id": 2, "car_plate": "FA485YY", "virtual_rental_id": 371323, "car_category_id": 8, "car_category_type_id": 1, "lon": 9.123292, "carModelData": [], "car_name": "Fiat 500", "onClick_disabled": false, "address": "Via Passo di Fargorida, 6-10, 20148 Milano", "lat": 45.471523, "fuel_level": 94}, {"virtual_rental_type_id": 2, "car_plate": "FA499YY", "virtual_rental_id": 325167, "car_category_id": 8, "car_category_type_id": 1, "lon": 9.059933, "carModelData": [], "car_name": "Fiat 500", "onClick_disabled": false, "address": "Via Vittorio Alfieri, 35-39, 20019 Settimo Milanese MI", "lat": 45.485645, "fuel_level": 23}, {"virtual_rental_type_id": 2, "car_plate": "EZ192GW", "virtual_rental_id": 396045, "car_category_id": 8, "car_category_type_id": 1, "lon": 9.235736, "carModelData": [], "car_name": "Fiat 500", "onClick_disabled": false, "address": "Via Vittorio Gassman, 3, 20128 Milano", "lat": 45.51478, "fuel_level": 93}, {"virtual_rental_type_id": 1, "car_plate": "ED04657", "virtual_rental_id": 371741, "car_category_id": 7, "car_category_type_id": 2, "lon": 9.236109, "carModelData": [100], "car_name": "Piaggio MP3", "onClick_disabled": false, "address": "Via Palmanova, 65, 20132 Milano", "lat": 45.496487, "fuel_level": 59}, {"virtual_rental_type_id": 1, "car_plate": "ED04635", "virtual_rental_id": 284566, "car_category_id": 7, "car_category_type_id": 2, "lon": 9.121312, "carModelData": [100], "car_name": "Piaggio MP3", "onClick_disabled": false, "address": "Via Bisceglie, 120, 20152 Milano", "lat": 45.44572, "fuel_level": 69}, {"virtual_rental_type_id": 2, "car_plate": "FA502YY", "virtual_rental_id": 422862, "car_category_id": 8, "car_category_type_id": 1, "lon": 9.078316, "carModelData": [], "car_name": "Fiat 500", "onClick_disabled": false, "address": "Via dei Salici, 10, 20152 Milano", "lat": 45.45353, "fuel_level": 76}, {"virtual_rental_type_id": 2, "car_plate": "FA469YY", "virtual_rental_id": 377572, "car_category_id": 8, "car_category_type_id": 1, "lon": 9.131276, "carModelData": [], "car_name": "Fiat 500", "onClick_disabled": false, "address": "Via Privata Capodistria, 9-11, 20151 Milano", "lat": 45.497925, "fuel_level": 100}, {"virtual_rental_type_id": 2, "car_plate": "FA511YY", "virtual_rental_id": 360207, "car_category_id": 8, "car_category_type_id": 1, "lon": 9.097224, "carModelData": [], "car_name": "Fiat 500", "onClick_disabled": false, "address": "Via Appennini, 201, 20151 Milano MI", "lat": 45.505436, "fuel_level": 60}, {"virtual_rental_type_id": 2, "car_plate": "FA501YY", "virtual_rental_id": 349832, "car_category_id": 8, "car_category_type_id": 1, "lon": 9.238068, "carModelData": [], "car_name": "Fiat 500", "onClick_disabled": false, "address": "Via Sangro, 29, 20132 Milano", "lat": 45.493862, "fuel_level": 100}, {"virtual_rental_type_id": 2, "car_plate": "FA848WD", "virtual_rental_id": 358465, "car_category_id": 8, "car_category_type_id": 1, "lon": 9.208884, "carModelData": [], "car_name": "Fiat 500", "onClick_disabled": false, "address": "Via Macconago, 20, 20141 Milano MI", "lat": 45.413616, "fuel_level": 100}, {"virtual_rental_type_id": 2, "car_plate": "EZ187GW", "virtual_rental_id": 433443, "car_category_id": 8, "car_category_type_id": 1, "lon": 9.128489, "carModelData": [], "car_name": "Fiat 500", "onClick_disabled": false, "address": "Via Antonio Gramsci, 6, 20090 Buccinasco MI", "lat": 45.41918, "fuel_level": 83}, {"virtual_rental_type_id": 2, "car_plate": "EZ206TY", "virtual_rental_id": 322498, "car_category_id": 8, "car_category_type_id": 1, "lon": 9.113256, "carModelData": [], "car_name": "Fiat 500", "onClick_disabled": false, "address": "Via Volturno, 2-3, 20090 Buccinasco MI", "lat": 45.423996, "fuel_level": 61}, {"virtual_rental_type_id": 2, "car_plate": "EZ036TY", "virtual_rental_id": 379030, "car_category_id": 8, "car_category_type_id": 1, "lon": 9.13898, "carModelData": [], "car_name": "Fiat 500", "onClick_disabled": false, "address": "Via Alberto Pepere, 5, 20143 Milano", "lat": 45.43864, "fuel_level": 70}, {"virtual_rental_type_id": 2, "car_plate": "FA405YY", "virtual_rental_id": 362570, "car_category_id": 8, "car_category_type_id": 1, "lon": 9.245481, "carModelData": [], "car_name": "Fiat 500", "onClick_disabled": false, "address": "Via Privata Oslavia, 1, 20134 Milano", "lat": 45.48173, "fuel_level": 66}, {"virtual_rental_type_id": 2, "car_plate": "FA508YY", "virtual_rental_id": 327735, "car_category_id": 8, "car_category_type_id": 1, "lon": 9.121494, "carModelData": [], "car_name": "Fiat 500", "onClick_disabled": false, "address": "Via del Ticino, 20153 Milano", "lat": 45.471165, "fuel_level": 55}, {"virtual_rental_type_id": 2, "car_plate": "FA432YY", "virtual_rental_id": 325913, "car_category_id": 8, "car_category_type_id": 1, "lon": 9.249944, "carModelData": [], "car_name": "Fiat 500", "onClick_disabled": false, "address": "Via Privata Trasimeno, 4-8, 20128 Milano", "lat": 45.51161, "fuel_level": 100}, {"virtual_rental_type_id": 2, "car_plate": "EX119TY", "virtual_rental_id": 410118, "car_category_id": 8, "car_category_type_id": 1, "lon": 9.086372, "carModelData": [100], "car_name": "Fiat 500", "onClick_disabled": false, "address": "Via Privata Val Badia, 14, 20152 Milano", "lat": 45.461117, "fuel_level": 36}, {"virtual_rental_type_id": 2, "car_plate": "FA801WD", "virtual_rental_id": 342828, "car_category_id": 8, "car_category_type_id": 1, "lon": 9.127988, "carModelData": [], "car_name": "Fiat 500", "onClick_disabled": false, "address": "Piazzale Giuseppe Perrucchetti, 4610, 20147 Milano", "lat": 45.46526, "fuel_level": 2}, {"virtual_rental_type_id": 2, "car_plate": "EZ355GW", "virtual_rental_id": 331012, "car_category_id": 8, "car_category_type_id": 1, "lon": 9.073811, "carModelData": [], "car_name": "Fiat 500", "onClick_disabled": false, "address": "Via IV Novembre, 96, 20019 Settimo Milanese MI", "lat": 45.466106, "fuel_level": 20}, {"virtual_rental_type_id": 1, "car_plate": "ED04622", "virtual_rental_id": 380743, "car_category_id": 7, "car_category_type_id": 2, "lon": 9.125088, "carModelData": [100], "car_name": "Piaggio MP3", "onClick_disabled": false, "address": "Via Karl Ziegler, 20151 Milano", "lat": 45.489937, "fuel_level": 62}, {"virtual_rental_type_id": 2, "car_plate": "EZ164TY", "virtual_rental_id": 355314, "car_category_id": 8, "car_category_type_id": 1, "lon": 9.256637, "carModelData": [], "car_name": "Fiat 500", "onClick_disabled": false, "address": "Via Gaudenzio Fantoli, 28, 20138 Milano", "lat": 45.453842, "fuel_level": 84}, {"virtual_rental_type_id": 2, "car_plate": "EZ209TY", "virtual_rental_id": 353467, "car_category_id": 8, "car_category_type_id": 1, "lon": 9.1723995, "carModelData": [], "car_name": "Fiat 500", "onClick_disabled": false, "address": "Via Antonio Oroboni, 1, 20161 Milano", "lat": 45.528736, "fuel_level": 55}, {"virtual_rental_type_id": 2, "car_plate": "FA455YY", "virtual_rental_id": 363360, "car_category_id": 8, "car_category_type_id": 1, "lon": 9.162109, "carModelData": [], "car_name": "Fiat 500", "onClick_disabled": false, "address": "Via Assietta, 21, 20161 Milano", "lat": 45.51779, "fuel_level": 32}, {"virtual_rental_type_id": 2, "car_plate": "EZ151GW", "virtual_rental_id": 400399, "car_category_id": 8, "car_category_type_id": 1, "lon": 9.276895, "carModelData": [], "car_name": "Fiat 500", "onClick_disabled": false, "address": "Aeroporto di Milano Linate, Segrate MI", "lat": 45.46254, "fuel_level": 100}, {"virtual_rental_type_id": 1, "car_plate": "ED04661", "virtual_rental_id": 274839, "car_category_id": 7, "car_category_type_id": 2, "lon": 9.20912, "carModelData": [100], "car_name": "Piaggio MP3", "onClick_disabled": false, "address": "Via Melzo, 13, 20129 Milano", "lat": 45.474022, "fuel_level": 55}, {"virtual_rental_type_id": 1, "car_plate": "ED04642", "virtual_rental_id": 275111, "car_category_id": 7, "car_category_type_id": 2, "lon": 9.10858, "carModelData": [100], "car_name": "Piaggio MP3", "onClick_disabled": false, "address": "Via Romagna, 26, 20090 Buccinasco MI", "lat": 45.41581, "fuel_level": 63}, {"virtual_rental_type_id": 1, "car_plate": "ED04656", "virtual_rental_id": 379739, "car_category_id": 7, "car_category_type_id": 2, "lon": 9.111501, "carModelData": [100], "car_name": "Piaggio MP3", "onClick_disabled": false, "address": "Via Antonio Vivaldi, 22, 20090 Buccinasco MI", "lat": 45.415615, "fuel_level": 70}, {"virtual_rental_type_id": 1, "car_plate": "ED57145", "virtual_rental_id": 368122, "car_category_id": 7, "car_category_type_id": 2, "lon": 9.113727, "carModelData": [100], "car_name": "Piaggio MP3", "onClick_disabled": false, "address": "Via Ugo Ojetti, 1, 20151 Milano", "lat": 45.493347, "fuel_level": 94}, {"virtual_rental_type_id": 1, "car_plate": "ED57074", "virtual_rental_id": 285366, "car_category_id": 7, "car_category_type_id": 2, "lon": 9.12957, "carModelData": [100], "car_name": "Piaggio MP3", "onClick_disabled": false, "address": "Via Carlo Osma, 7-9, 20151 Milano", "lat": 45.486343, "fuel_level": 23}, {"virtual_rental_type_id": 1, "car_plate": "ED04640", "virtual_rental_id": 274865, "car_category_id": 7, "car_category_type_id": 2, "lon": 9.167708, "carModelData": [100], "car_name": "Piaggio MP3", "onClick_disabled": false, "address": "Via Umbria, 10-18, 20089 Cascina Perseghetto MI", "lat": 45.37382, "fuel_level": 23}, {"virtual_rental_type_id": 1, "car_plate": "ED04639", "virtual_rental_id": 282494, "car_category_id": 7, "car_category_type_id": 2, "lon": 9.246474, "carModelData": [100], "car_name": "Piaggio MP3", "onClick_disabled": false, "address": "Via Rombon, 53, 20134 Milano", "lat": 45.487118, "fuel_level": 84}, {"virtual_rental_type_id": 1, "car_plate": "ED57142", "virtual_rental_id": 283924, "car_category_id": 7, "car_category_type_id": 2, "lon": 9.188733, "carModelData": [100], "car_name": "Piaggio MP3", "onClick_disabled": false, "address": "Piazza Angelo Sraffa, 11, 20136 Milano", "lat": 45.449406, "fuel_level": 15}, {"virtual_rental_type_id": 1, "car_plate": "ED04634", "virtual_rental_id": 373853, "car_category_id": 7, "car_category_type_id": 2, "lon": 9.145568, "carModelData": [100], "car_name": "Piaggio MP3", "onClick_disabled": false, "address": "Via Varesina, 68, 20156 Milano", "lat": 45.497925, "fuel_level": 100}, {"virtual_rental_type_id": 1, "car_plate": "ED04625", "virtual_rental_id": 284330, "car_category_id": 7, "car_category_type_id": 2, "lon": 9.1782875, "carModelData": [100], "car_name": "Piaggio MP3", "onClick_disabled": false, "address": "Foro Buonaparte, 53, 20121 Milano", "lat": 45.46807, "fuel_level": 0}, {"virtual_rental_type_id": 1, "car_plate": "ED57139", "virtual_rental_id": 274814, "car_category_id": 7, "car_category_type_id": 2, "lon": 9.073672, "carModelData": [100], "car_name": "Piaggio MP3", "onClick_disabled": false, "address": "Via Meriggia, 34, 20019 Settimo Milanese MI", "lat": 45.468204, "fuel_level": 68}, {"virtual_rental_type_id": 1, "car_plate": "ED57067", "virtual_rental_id": 274727, "car_category_id": 7, "car_category_type_id": 2, "lon": 9.253812, "carModelData": [100], "car_name": "Piaggio MP3", "onClick_disabled": false, "address": "Via Piero Portaluppi, 1, 20138 Milano", "lat": 45.454323, "fuel_level": 10}, {"virtual_rental_type_id": 1, "car_plate": "ED57401", "virtual_rental_id": 414705, "car_category_id": 7, "car_category_type_id": 2, "lon": 9.169047, "carModelData": [100], "car_name": "Piaggio MP3", "onClick_disabled": false, "address": "Via Rimini, 29, 20142 Milano", "lat": 45.440685, "fuel_level": 42}, {"virtual_rental_type_id": 1, "car_plate": "ED57065", "virtual_rental_id": 361416, "car_category_id": 7, "car_category_type_id": 2, "lon": 9.236947, "carModelData": [100], "car_name": "Piaggio MP3", "onClick_disabled": false, "address": "Via Ponte Nuovo, 40, 20128 Milano", "lat": 45.507553, "fuel_level": 57}, {"virtual_rental_type_id": 1, "car_plate": "ED57377", "virtual_rental_id": 284253, "car_category_id": 7, "car_category_type_id": 2, "lon": 9.158136, "carModelData": [100], "car_name": "Piaggio MP3", "onClick_disabled": false, "address": "Via Privata Stefano Siccoli, 9, 20156 Milano", "lat": 45.503384, "fuel_level": 0}, {"virtual_rental_type_id": 2, "car_plate": "EX988VG", "virtual_rental_id": 350937, "car_category_id": 8, "car_category_type_id": 1, "lon": 9.251718, "carModelData": [100], "car_name": "Fiat 500", "onClick_disabled": false, "address": "Via Corelli, 35, 20134 Milano", "lat": 45.469112, "fuel_level": 52}, {"virtual_rental_type_id": 2, "car_plate": "FA840WD", "virtual_rental_id": 359322, "car_category_id": 8, "car_category_type_id": 1, "lon": 9.051567, "carModelData": [], "car_name": "Fiat 500", "onClick_disabled": false, "address": "Via della Libert\u00e0, 72, 20019 Settimo Milanese MI", "lat": 45.487823, "fuel_level": 49}, {"virtual_rental_type_id": 2, "car_plate": "FA443YY", "virtual_rental_id": 382112, "car_category_id": 8, "car_category_type_id": 1, "lon": 9.114396, "carModelData": [], "car_name": "Fiat 500", "onClick_disabled": false, "address": "Via Bruno Buozzi, 22, 20090 Buccinasco MI", "lat": 45.425236, "fuel_level": 81}, {"virtual_rental_type_id": 2, "car_plate": "FA491YY", "virtual_rental_id": 355514, "car_category_id": 8, "car_category_type_id": 1, "lon": 9.117104, "carModelData": [], "car_name": "Fiat 500", "onClick_disabled": false, "address": "Via S. Giusto, 70, 20153 Milano", "lat": 45.47154, "fuel_level": 97}, {"virtual_rental_type_id": 2, "car_plate": "FA825WD", "virtual_rental_id": 322137, "car_category_id": 8, "car_category_type_id": 1, "lon": 9.214448, "carModelData": [], "car_name": "Fiat 500", "onClick_disabled": false, "address": "Viale Piero e Alberto Pirelli, 23, 20126 Milano", "lat": 45.52067, "fuel_level": 74}, {"virtual_rental_type_id": 1, "car_plate": "ED57398", "virtual_rental_id": 300709, "car_category_id": 7, "car_category_type_id": 2, "lon": 9.248067, "carModelData": [100], "car_name": "Piaggio MP3", "onClick_disabled": false, "address": "Via Passo Rolle, 43, 20134 Milano", "lat": 45.49007, "fuel_level": 72}, {"virtual_rental_type_id": 1, "car_plate": "ED57395", "virtual_rental_id": 274833, "car_category_id": 7, "car_category_type_id": 2, "lon": 9.187773, "carModelData": [100], "car_name": "Piaggio MP3", "onClick_disabled": false, "address": "Via Solferino, 23, 20121 Milano", "lat": 45.47717, "fuel_level": 77},