{"placemarks": [{"name": "023/EV258TP", "vin": "WME4513341K776025", "coordinates": [11.20429, 43.75964, 0], "smartPhoneRequired": false, "interior": "GOOD", "exterior": "GOOD", "address": "Via di Scandicci, 281-283, 50143 Firenze", "fuel": 100, "engineType": "CE"}, {"name": "065/EV264TT", "vin": "WME4513341K785719", "coordinates": [11.18187, 43.80498, 0], "smartPhoneRequired": false, "interior": "GOOD", "exterior": "GOOD", "address": "Via A. Righi, 4, 50019 Osmannoro FI", "fuel": 100, "engineType": "CE"}, {"name": "092/EV213TT", "vin": "WME4513341K783239", "coordinates": [11.20026, 43.79991, 0], "smartPhoneRequired": false, "interior": "GOOD", "exterior": "GOOD", "address": "Via del Motrone, 48, 50127 Firenze", "fuel": 100, "engineType": "CE"}, {"name": "049/EV284TP", "vin": "WME4513341K774636", "coordinates": [11.24248, 43.80795, 0], "smartPhoneRequired": false, "interior": "GOOD", "exterior": "GOOD", "address": "Via Niccol\u00f2 da Tolentino, 9, 50141 Firenze", "fuel": 100, "engineType": "CE"}, {"name": "079/EV220TT", "vin": "WME4513341K783861", "coordinates": [11.23313, 43.77383, 0], "smartPhoneRequired": false, "interior": "GOOD", "exterior": "GOOD", "address": "Piazza Taddeo Gaddi 24/A R, Firenze", "fuel": 69, "engineType": "CE"}, {"name": "018/EV253TP", "vin": "WME4513341K775462", "coordinates": [11.26267, 43.78915, 0], "smartPhoneRequired": false, "interior": "GOOD", "exterior": "GOOD", "address": "Via Bolognese, 40, 50139 Firenze", "fuel": 78, "engineType": "CE"}, {"name": "180/EX725DK", "vin": "WME4513341K746424", "coordinates": [11.23407, 43.79314, 0], "smartPhoneRequired": false, "interior": "GOOD", "exterior": "GOOD", "address": "Via Antonio Pigafetta, 2, 50127 Firenze", "fuel": 100, "engineType": "CE"}, {"name": "123/EV230TT", "vin": "WME4513341K784450", "coordinates": [11.3055, 43.76772, 0], "smartPhoneRequired": false, "interior": "GOOD", "exterior": "GOOD", "address": "Via di Rocca Tedalda, 54, 50136 Firenze", "fuel": 75, "engineType": "CE"}, {"name": "175/EX583DK", "vin": "WME4513341K747243", "coordinates": [11.24853, 43.78419, 0], "smartPhoneRequired": false, "interior": "GOOD", "exterior": "GOOD", "address": "Via Cosseria, 6, 50129 Firenze", "fuel": 100, "engineType": "CE"}, {"name": "198/EX446DK", "vin": "WME4513341K751252", "coordinates": [11.14081, 43.84629, 0], "smartPhoneRequired": false, "interior": "GOOD", "exterior": "GOOD", "address": "Via Fratelli Cervi, 1500, 50013 Campi Bisenzio FI", "fuel": 100, "engineType": "CE"}, {"name": "130/EV987NS", "vin": "WME4513341K783346", "coordinates": [11.26229, 43.77129, 0], "smartPhoneRequired": false, "interior": "GOOD", "exterior": "GOOD", "address": "Via di S. Pier Maggiore, 2, 50122 Firenze", "fuel": 84, "engineType": "CE"}, {"name": "212/EY593ZW", "vin": "WME4513341K832138", "coordinates": [11.22698, 43.73693, 0], "smartPhoneRequired": false, "interior": "GOOD", "exterior": "GOOD", "address": "Via Alfredo Lensi, 4, 50125 Firenze", "fuel": 57, "engineType": "CE"}, {"name": "026/EV261TP", "vin": "WME4513341K775126", "coordinates": [11.26195, 43.77402, 0], "smartPhoneRequired": false, "interior": "GOOD", "exterior": "GOOD", "address": "Via della Pergola, 44, 50121 Firenze", "fuel": 100, "engineType": "CE"}, {"name": "046/EV281TP", "vin": "WME4513341K776780", "coordinates": [11.26041, 43.76876, 0], "smartPhoneRequired": false, "interior": "GOOD", "exterior": "GOOD", "address": "Via dei Benci, 22, 50122 Firenze", "fuel": 60, "engineType": "CE"}, {"name": "040/EV275TP", "vin": "WME4513341K775402", "coordinates": [11.06737, 43.87679, 0], "smartPhoneRequired": false, "interior": "GOOD", "exterior": "GOOD", "address": "Piazzale Abb\u00e9 Pierre, 59100 Prato", "fuel": 100, "engineType": "CE"}, {"name": "051/EV286TP", "vin": "WME4513341K774981", "coordinates": [11.2353, 43.77366, 0], "smartPhoneRequired": false, "interior": "GOOD", "exterior": "GOOD", "address": "Via Giovanni Antonio Sogliani, 1, 50142 Firenze", "fuel": 45, "engineType": "CE"}, {"name": "106/EV246TT", "vin": "WME4513341K785086", "coordinates": [11.24657, 43.77629, 0], "smartPhoneRequired": false, "interior": "GOOD", "exterior": "GOOD", "address": "Garage la Stazione, via Alamanni 3| 6.00-00.30", "fuel": 69, "engineType": "CE"}, {"name": "201/EY646ZW", "vin": "WME4513341K823210", "coordinates": [11.26362, 43.80185, 0], "smartPhoneRequired": false, "interior": "GOOD", "exterior": "GOOD", "address": "Via del Poggiolino, 11, 50139 Firenze", "fuel": 96, "engineType": "CE"}, {"name": "125/EV231TT", "vin": "WME4513341K784039", "coordinates": [11.22682, 43.78849, 0], "smartPhoneRequired": false, "interior": "GOOD", "exterior": "GOOD", "address": "Via della Villa Demidoff, 40, 50127 Firenze", "fuel": 42, "engineType": "CE"}, {"name": "061/EV200TT", "vin": "WME4513341K783886", "coordinates": [11.24032, 43.79421, 0], "smartPhoneRequired": false, "interior": "GOOD", "exterior": "GOOD", "address": "Via Carlo Bini, 1, 50134 Firenze", "fuel": 100, "engineType": "CE"}, {"name": "006/EV243TP", "vin": "WME4513341K771008", "coordinates": [11.27735, 43.78257, 0], "smartPhoneRequired": false, "interior": "GOOD", "exterior": "GOOD", "address": "Via Nino Bixio, 1, 50131 Firenze", "fuel": 51, "engineType": "CE"}, {"name": "009/EV245TP", "vin": "WME4513341K770995", "coordinates": [11.21902, 43.82018, 0], "smartPhoneRequired": false, "interior": "GOOD", "exterior": "GOOD", "address": "Piazza Roberto Davidsohn 3, 50019 Firenze", "fuel": 100, "engineType": "CE"}, {"name": "016/EV251TP", "vin": "WME4513341K775097", "coordinates": [11.25949, 43.76528, 0], "smartPhoneRequired": false, "interior": "GOOD", "exterior": "GOOD", "address": "Piazza Nicola Demidoff, 23, 50125 Firenze", "fuel": 63, "engineType": "CE"}, {"name": "055/EV290TP", "vin": "WME4513341K775085", "coordinates": [11.22338, 43.73995, 0], "smartPhoneRequired": false, "interior": "GOOD", "exterior": "GOOD", "address": "Via S. Michele delle Campora, 18, 50124 Firenze", "fuel": 100, "engineType": "CE"}, {"name": "073/EV217TT", "vin": "WME4513341K784417", "coordinates": [11.19739, 43.75784, 0], "smartPhoneRequired": false, "interior": "GOOD", "exterior": "GOOD", "address": "Via del Ponte a Greve, 5C, 50018 Scandicci FI", "fuel": 60, "engineType": "CE"}, {"name": "141/EV271TT", "vin": "WME4513341K783594", "coordinates": [11.17952, 43.80813, 0], "smartPhoneRequired": false, "interior": "GOOD", "exterior": "GOOD", "address": "Via del Cantone, 33, 50019 Osmannoro FI", "fuel": 30, "engineType": "CE"}, {"name": "014/EV249TP", "vin": "WME4513341K775112", "coordinates": [11.27622, 43.77488, 0], "smartPhoneRequired": false, "interior": "GOOD", "exterior": "GOOD", "address": "Via Ciro Menotti, 38, 50136 Firenze", "fuel": 100, "engineType": "CE"}, {"name": "181/EX723DK", "vin": "WME4513341K746332", "coordinates": [11.25801, 43.77749, 0], "smartPhoneRequired": false, "interior": "GOOD", "exterior": "GOOD", "address": "Via Camillo Benso Cavour, 46, 50121 Firenze", "fuel": 54, "engineType": "CE"}, {"name": "161/EX717DK", "vin": "WME4513341K748493", "coordinates": [11.2803, 43.77319, 0], "smartPhoneRequired": false, "interior": "GOOD", "exterior": "GOOD", "address": "Via Mannelli, 15R, 50136 Firenze", "fuel": 100, "engineType": "CE"}, {"name": "166/EX646DK", "vin": "WME4513341K747660", "coordinates": [11.23803, 43.76478, 0], "smartPhoneRequired": false, "interior": "GOOD", "exterior": "GOOD", "address": "Via del Casone, 26, 50124 Firenze", "fuel": 45, "engineType": "CE"}, {"name": "145/EV233TT", "vin": "WME4513341K784345", "coordinates": [11.23335, 43.80285, 0], "smartPhoneRequired": false, "interior": "GOOD", "exterior": "GOOD", "address": "Via Vasco de Gama, 195, 50127 Firenze", "fuel": 100, "engineType": "CE"}, {"name": "196/EX477DK", "vin": "WME4513341K751516", "coordinates": [11.27672, 43.76255, 0], "smartPhoneRequired": false, "interior": "GOOD", "exterior": "GOOD", "address": "Via Coluccio Salutati, 70-72, 50126 Firenze", "fuel": 93, "engineType": "CE"}, {"name": "143/EV232TT", "vin": "WME4513341K784358", "coordinates": [11.27307, 43.78871, 0], "smartPhoneRequired": false, "interior": "GOOD", "exterior": "GOOD", "address": "Via Goito, 26-28, 50133 Firenze", "fuel": 63, "engineType": "CE"}, {"name": "088/EV222TT", "vin": "WME4513341K784372", "coordinates": [11.07184, 43.88585, 0], "smartPhoneRequired": false, "interior": "GOOD", "exterior": "GOOD", "address": "Via dell'Alberaccio, 69/v, 59100 Prato PO", "fuel": 75, "engineType": "CE"}, {"name": "037/EV272TP", "vin": "WME4513341K774788", "coordinates": [11.23935, 43.77072, 0], "smartPhoneRequired": false, "interior": "GOOD", "exterior": "GOOD", "address": "Via Provinciale Pisana, 12, 50142 Firenze", "fuel": 96, "engineType": "CE"}, {"name": "033/EV268TP", "vin": "WME4513341K775807", "coordinates": [11.23946, 43.7815, 0], "smartPhoneRequired": false, "interior": "GOOD", "exterior": "GOOD", "address": "Via Alessandro Scarlatti, 2, 50144 Firenze", "fuel": 100, "engineType": "CE"}, {"name": "050/EV285TP", "vin": "WME4513341K774425", "coordinates": [11.24084, 43.76434, 0], "smartPhoneRequired": false, "interior": "GOOD", "exterior": "GOOD", "address": "Viale Francesco Petrarca, 38, 50124 Firenze", "fuel": 72, "engineType": "CE"}, {"name": "124/EV261TT", "vin": "WME4513341K785461", "coordinates": [11.2496, 43.79087, 0], "smartPhoneRequired": false, "interior": "GOOD", "exterior": "GOOD", "address": "Via Atto Vannucci, 17n, 50134 Firenze", "fuel": 48, "engineType": "CE"}, {"name": "197/EX447DK", "vin": "WME4513341K751264", "coordinates": [11.24437, 43.80947, 0], "smartPhoneRequired": false, "interior": "GOOD", "exterior": "GOOD", "address": "Via Gaspare Aselli, 28, 50141 Firenze", "fuel": 36, "engineType": "CE"}, {"name": "098/EV225TT", "vin": "WME4513341K784694", "coordinates": [11.25417, 43.7974, 0], "smartPhoneRequired": false, "interior": "GOOD", "exterior": "GOOD", "address": "Via Cardinale Guglielmo Massaia, 108, 50134 Firenze", "fuel": 45, "engineType": "CE"}, {"name": "063/EV257TT", "vin": "WME4513341K785184", "coordinates": [11.26712, 43.77572, 0], "smartPhoneRequired": false, "interior": "GOOD", "exterior": "GOOD", "address": "Via Giuseppe Giusti, 3, 50121 Firenze", "fuel": 57, "engineType": "CE"}, {"name": "057/EV292TP", "vin": "WME4513341K775051", "coordinates": [11.21865, 43.79721, 0], "smartPhoneRequired": false, "interior": "GOOD", "exterior": "GOOD", "address": "Via di Mugello, 13, 50127 Firenze", "fuel": 57, "engineType": "CE"}, {"name": "107/EV999NS", "vin": "WME4513341K783716", "coordinates": [11.2867, 43.78961, 0], "smartPhoneRequired": false, "interior": "GOOD", "exterior": "GOOD", "address": "Via S. Domenico, 36, 50133 Firenze", "fuel": 33, "engineType": "CE"}, {"name": "138/EV990NS", "vin": "WME4513341K783395", "coordinates": [11.09862, 43.89807, 0], "smartPhoneRequired": false, "interior": "GOOD", "exterior": "GOOD", "address": "Via S. Martino per Galceti, 21, 59100 Prato PO", "fuel": 54, "engineType": "CE"}, {"name": "099/EV204TT", "vin": "WME4513341K784273", "coordinates": [11.30669, 43.77681, 0], "smartPhoneRequired": false, "interior": "GOOD", "exterior": "GOOD", "address": "Via della Torre, 9, 50135 Firenze", "fuel": 39, "engineType": "CE"}, {"name": "025/EV260TP", "vin": "WME4513341K774471", "coordinates": [11.20109, 43.77786, 0], "smartPhoneRequired": false, "interior": "GOOD", "exterior": "GOOD", "address": "Via A. Canova, 29, 50142 Firenze", "fuel": 57, "engineType": "CE"}, {"name": "152/EX647DK", "vin": "WME4513341K747433", "coordinates": [11.08652, 43.89842, 0], "smartPhoneRequired": false, "interior": "GOOD", "exterior": "GOOD", "address": "Via Danubio, 37, 59100 Prato PO", "fuel": 36, "engineType": "CE"}, {"name": "156/EX464XV", "vin": "WME4513341K751101", "coordinates": [11.25867, 43.78651, 0], "smartPhoneRequired": false, "interior": "GOOD", "exterior": "GOOD", "address": "Via IX Febbraio, 10, 50129 Firenze", "fuel": 51, "engineType": "CE"}, {"name": "035/EV270TP", "vin": "WME4513341K774344", "coordinates": [11.18754, 43.80656, 0], "smartPhoneRequired": false, "interior": "GOOD", "exterior": "GOOD", "address": "Via Francesco Redi, 10, 50019 Osmannoro FI", "fuel": 100, "engineType": "CE"}, {"name": "122/EV266TT", "vin": "WME4513341K785685", "coordinates": [11.20131, 43.75813, 0], "smartPhoneRequired": false, "interior": "GOOD", "exterior": "GOOD", "address": "Via di Scandicci, 85, 50018 Scandicci FI", "fuel": 45, "engineType": "CE"}, {"name": "008/EV296TP", "vin": "WME4513341K768098", "coordinates": [11.30178, 43.77808, 0], "smartPhoneRequired": false, "interior": "GOOD", "exterior": "GOOD", "address": "Viale Giovanni Verga, 4, 50135 Firenze", "fuel": 100, "engineType": "CE"}, {"name": "074/EV994NS", "vin": "WME4513341K783452", "coordinates": [11.26543, 43.76459, 0], "smartPhoneRequired": false, "interior": "GOOD", "exterior": "GOOD", "address": "Piazza Giuseppe Poggi, 47, 50125 Firenze", "fuel": 100, "engineType": "CE"}, {"name": "211/EY603ZW", "vin": "WME4513341K827740", "coordinates": [11.22046, 43.78229, 0], "smartPhoneRequired": false, "interior": "GOOD", "exterior": "GOOD", "address": "Via delle Cascine, 11, 50144 Firenze", "fuel": 45, "engineType": "CE"}, {"name": "148/EV235TT", "vin": "WME4513341K784471", "coordinates": [11.23275, 43.79353, 0], "smartPhoneRequired": false, "interior": "GOOD", "exterior": "GOOD", "address": "Via Enrico Forlanini, 142n, 50127 Firenze", "fuel": 69, "engineType": "CE"}, {"name": "086/EV963NS", "vin": "WME4513341K782480", "coordinates": [11.22416, 43.79662, 0], "smartPhoneRequired": false, "interior": "GOOD", "exterior": "GOOD", "address": "Viale Alessandro Guidoni 67, 50127 Firenze", "fuel": 57, "engineType": "CE"}, {"name": "111/EV259TT", "vin": "WME4513341K785171", "coordinates": [11.26337, 43.77265, 0], "smartPhoneRequired": false, "interior": "GOOD", "exterior": "GOOD", "address": "Via Fiesolana, 26, 50121 Firenze", "fuel": 54, "engineType": "CE"}, {"name": "192/EX483DK", "vin": "WME4513341K751599", "coordinates": [11.25955, 43.78569, 0], "smartPhoneRequired": false, "interior": "GOOD", "exterior": "GOOD", "address": "Via XX Settembre, 36, 50129 Firenze", "fuel": 63, "engineType": "CE"}, {"name": "030/EV265TP", "vin": "WME4513341K774940", "coordinates": [11.24053, 43.78586, 0], "smartPhoneRequired": false, "interior": "GOOD", "exterior": "GOOD", "address": "Viale Francesco Redi, 3615, 50144 Firenze", "fuel": 93, "engineType": "CE"}, {"name": "091/EV245TT", "vin": "WME4513341K784286", "coordinates": [11.24626, 43.75661, 0], "smartPhoneRequired": false, "interior": "GOOD", "exterior": "GOOD", "address": "Via Dante da Castiglione, 1-7, 50125 Firenze", "fuel": 87, "engineType": "CE"}, {"name": "013/EV248TP", "vin": "WME4513341K775799", "coordinates": [11.26, 43.75682, 0], "smartPhoneRequired": false, "interior": "GOOD", "exterior": "GOOD", "address": "Via della Torre del Gallo, 3, 50125 Firenze", "fuel": 51, "engineType": "CE"}, {"name": "048/EV283TP", "vin": "WME4513341K774962", "coordinates": [11.20429, 43.75964, 0], "smartPhoneRequired": false, "interior": "GOOD", "exterior": "GOOD", "address": "Via di Scandicci, 281-283, 50143 Firenze", "fuel": 48, "engineType": "CE"}, {"name": "019/EV254TP", "vin": "WME4513341K776611", "coordinates": [11.30986, 43.76451, 0], "smartPhoneRequired": false, "interior": "GOOD", "exterior": "GOOD", "address": "Via Dalla Chiesa Generale Carlo Alberto, 15, 50136 Firenze", "fuel": 100, "engineType": "CE"}, {"name": "193/EX709DK", "vin": "WME4513341K751743", "coordinates": [11.23715, 43.80496, 0], "smartPhoneRequired": false, "interior": "GOOD", "exterior": "GOOD", "address": "Via Vittorio Locchi, 66, 50141 Firenze", "fuel": 100, "engineType": "CE"}, {"name": "082/EV980NS", "vin": "WME4513341K782833", "coordinates": [11.1582, 43.79411, 0], "smartPhoneRequired": false, "interior": "GOOD", "exterior": "GOOD", "address": "Via di Brozzi, 517, 50145 Firenze", "fuel": 78, "engineType": "CE"}, {"name": "171/EX618DK", "vin": "WME4513341K747336", "coordinates": [11.24991, 43.81083, 0], "smartPhoneRequired": false, "interior": "GOOD", "exterior": "GOOD", "address": "Viale Gaetano Pieraccini, 23, 50134 Firenze", "fuel": 100, "engineType": "CE"}, {"name": "052/EV287TP", "vin": "WME4513341K774331", "coordinates": [11.10618, 43.89756, 0], "smartPhoneRequired": false, "interior": "GOOD", "exterior": "GOOD", "address": "Via Alberto Casella, 20, 59100 Prato PO", "fuel": 48, "engineType": "CE"}, {"name": "027/EV262TP", "vin": "WME4513341K776243", "coordinates": [11.27813, 43.76701, 0], "smartPhoneRequired": false, "interior": "GOOD", "exterior": "GOOD", "address": "Via del Campofiore, 36-38, 50136 Firenze", "fuel": 36, "engineType": "CE"}, {"name": "102/EV215TT", "vin": "WME4513341K783405", "coordinates": [11.10133, 43.89044, 0], "smartPhoneRequired": false, "interior": "GOOD", "exterior": "GOOD", "address": "Via Ferdinando Targetti, 14, 59100 Prato PO", "fuel": 27, "engineType": "CE"}, {"name": "028/EV263TP", "vin": "WME4513341K776669", "coordinates": [11.1758, 43.799, 0], "smartPhoneRequired": false, "interior": "GOOD", "exterior": "GOOD", "address": "Via De' Cattani, 184, 50145 Firenze FI", "fuel": 57, "engineType": "CE"}, {"name": "121/EV251TT", "vin": "WME4513341K784879", "coordinates": [11.07926, 43.89293, 0], "smartPhoneRequired": false, "interior": "GOOD", "exterior": "GOOD", "address": "Via del Campaccio, 76, 59100 Prato PO", "fuel": 51, "engineType": "CE"}, {"name": "058/EV293TP", "vin": "WME4513341K774231", "coordinates": [11.22487, 43.78502, 0], "smartPhoneRequired": false, "interior": "GOOD", "exterior": "GOOD", "address": "Via Giovanni Paisiello, 182, 50144 Firenze", "fuel": 100, "engineType": "CE"}, {"name": "127/EV252TT", "vin": "WME4513341K784931", "coordinates": [11.29469, 43.75996, 0], "smartPhoneRequired": false, "interior": "GOOD", "exterior": "GOOD", "address": "Via Filadelfia, 29, 50126 Firenze", "fuel": 100, "engineType": "CE"}, {"name": "003/EV240TP", "vin": "WME4513341K769320", "coordinates": [11.27535, 43.76876, 0], "smartPhoneRequired": false, "interior": "GOOD", "exterior": "GOOD", "address": "Via Giotto, 9, 50121 Firenze", "fuel": 100, "engineType": "CE"}, {"name": "031/EV266TP", "vin": "WME4513341K774275", "coordinates": [11.18762, 43.80653, 0], "smartPhoneRequired": false, "interior": "GOOD", "exterior": "GOOD", "address": "Via Francesco Redi, 10, 50019 Osmannoro FI", "fuel": 100, "engineType": "CE"}, {"name": "024/EV259TP", "vin": "WME4513341K776734", "coordinates": [11.19515, 43.79824, 0], "smartPhoneRequired": false, "interior": "GOOD", "exterior": "GOOD", "address": "Via Mario de Bernardi, 65, 50145 Firenze", "fuel": 72, "engineType": "CE"}, {"name": "022/EV257TP", "vin": "WME4513341K775648", "coordinates": [11.07718, 43.89295, 0], "smartPhoneRequired": false, "interior": "GOOD", "exterior": "GOOD", "address": "Via Alighiero Ceri, 7-9, 59100 Prato PO", "fuel": 87, "engineType": "CE"}, {"name": "128/EV253TT", "vin": "WME4513341K784755", "coordinates": [11.22762, 43.79264, 0], "smartPhoneRequired": false, "interior": "GOOD", "exterior": "GOOD", "address": "Via Tiziano Terzani, 50127 Firenze", "fuel": 100, "engineType": "CE"}, {"name": "054/EV289TP", "vin": "WME4513341K775529", "coordinates": [11.24954, 43.80149, 0], "smartPhoneRequired": false, "interior": "GOOD", "exterior": "GOOD", "address": "Viuzzo del Pergolino, 1/4, 50139 Firenze", "fuel": 84, "engineType": "CE"}, {"name": "087/EV202TT", "vin": "WME4513341K783597", "coordinates": [11.24231, 43.80568, 0], "smartPhoneRequired": false, "interior": "GOOD", "exterior": "GOOD", "address": "Via della Fratellanza, 2, 50141 Firenze", "fuel": 100, "engineType": "CE"}, {"name": "076/EV218TT", "vin": "WME4513341K784340", "coordinates": [11.23998, 43.77015, 0], "smartPhoneRequired": false, "interior": "GOOD", "exterior": "GOOD", "address": "Viale Ludovico Ariosto, 2, 50124 Firenze", "fuel": 63, "engineType": "CE"}, {"name": "017/EV252TP", "vin": "WME4513341K774412", "coordinates": [11.29946, 43.76535, 0], "smartPhoneRequired": false, "interior": "GOOD", "exterior": "GOOD", "address": "Via Fabrizio De Andr\u00e8, 3-6, 50136 Firenze", "fuel": 51, "engineType": "CE"}, {"name": "002/EV328TP", "vin": "WME4513341K769527", "coordinates": [11.24302, 43.80645, 0], "smartPhoneRequired": false, "interior": "GOOD", "exterior": "GOOD", "address": "Via della Fratellanza, 2, 50141 Firenze", "fuel": 100, "engineType": "CE"}, {"name": "131/EV983NS", "vin": "WME4513341K782879", "coordinates": [11.17502, 43.79699, 0], "smartPhoneRequired": false, "interior": "GOOD", "exterior": "GOOD", "address": "Via Don Martini, 8, 50145 Firenze", "fuel": 72, "engineType": "CE"}, {"name": "213/EY584ZW", "vin": "WME4513341K832140", "coordinates": [11.23981, 43.78128, 0], "smartPhoneRequired": false, "interior": "GOOD", "exterior": "GOOD", "address": "Via Alessandro Scarlatti, 2, 50144 Firenze", "fuel": 100, "engineType": "CE"}, {"name": "129/EV921NS", "vin": "WME4513341K783309", "coordinates": [11.27757, 43.78427, 0], "smartPhoneRequired": false, "interior": "GOOD", "exterior": "GOOD", "address": "Via Ottavio Fabrizio Mossotti, 36, 50131 Firenze", "fuel": 54, "engineType": "CE"}, {"name": "184/EX707DK", "vin": "WME4513341K745893", "coordinates": [11.23504, 43.7775, 0], "smartPhoneRequired": false, "interior": "GOOD", "exterior": "GOOD", "address": "Via del Fosso Macinante, 13, 50144 Firenze", "fuel": 100, "engineType": "CE"}, {"name": "117/EV209TT", "vin": "WME4513341K783904", "coordinates": [11.08833, 43.89844, 0], "smartPhoneRequired": false, "interior": "GOOD", "exterior": "GOOD", "address": "Via Tagliamento, 93-109, 59100 Prato PO", "fuel": 96, "engineType": "CE"}, {"name": "100/EV226TT", "vin": "WME4513341K784703", "coordinates": [11.23902, 43.78989, 0], "smartPhoneRequired": false, "interior": "GOOD", "exterior": "GOOD", "address": "Viale Corsica, 44-46, 50127 Firenze", "fuel": 72, "engineType": "CE"}, {"name": "222/EY594ZW", "vin": "WME4513341K832192", "coordinates": [11.1925, 43.83377, 0], "smartPhoneRequired": false, "interior": "GOOD", "exterior": "GOOD", "address": "Piazza Luigi Galvani, 16, 50019 Sesto Fiorentino FI", "fuel": 100, "engineType": "CE"}, {"name": "133/EV270TT", "vin": "WME4513341K782516", "coordinates": [11.29417, 43.78465, 0], "smartPhoneRequired": false, "interior": "GOOD", "exterior": "GOOD", "address": "Viale U. Ojetti, 49, 50137 Firenze", "fuel": 100, "engineType": "CE"}, {"name": "187/EX702DK", "vin": "WME4513341K745575", "coordinates": [11.24353, 43.80838, 0], "smartPhoneRequired": false, "interior": "GOOD", "exterior": "GOOD", "address": "Via Gaspare Aselli, 20, 50141 Firenze", "fuel": 66, "engineType": "CE"}, {"name": "071/EV243TT", "vin": "WME4513341K784642", "coordinates": [11.23437, 43.77365, 0], "smartPhoneRequired": false, "interior": "GOOD", "exterior": "GOOD", "address": "Via della Fonderia, 36, 50142 Firenze", "fuel": 66, "engineType": "CE"}, {"name": "139/EV991NS", "vin": "WME4513341K783041", "coordinates": [11.28925, 43.7765, 0], "smartPhoneRequired": false, "interior": "GOOD", "exterior": "GOOD", "address": "Via Napoleone Bonaparte, 25, 50137 Firenze", "fuel": 54, "engineType": "CE"}, {"name": "223/EY615ZW", "vin": "WME4513341K832194", "coordinates": [11.1917, 43.7838, 0], "smartPhoneRequired": false, "interior": "GOOD", "exterior": "GOOD", "address": "Via dell'Argingrosso, 139, 50142 Firenze", "fuel": 100, "engineType": "CE"}, {"name": "164/EX587DK", "vin": "WME4513341K747860", "coordinates": [11.24068, 43.77705, 0], "smartPhoneRequired": false, "interior": "GOOD", "exterior": "GOOD", "address": "Via Magenta, 31, 50123 Firenze", "fuel": 100, "engineType": "CE"}, {"name": "185/EX706DK", "vin": "WME4513341K745646", "coordinates": [11.14072, 43.84639, 0], "smartPhoneRequired": false, "interior": "GOOD", "exterior": "GOOD", "address": "Via Fratelli Cervi, 1500, 50013 Campi Bisenzio FI", "fuel": 21, "engineType": "CE"}, {"name": "194/EX685DK", "vin": "WME4513341K751723", "coordinates": [11.27857, 43.7711, 0], "smartPhoneRequired": false, "interior": "GOOD", "exterior": "GOOD", "address": "Via Vespasiano da Bisticci, 6, 50136 Firenze", "fuel": 48, "engineType": "CE"}, {"name": "015/EV250TP", "vin": "WME4513341K776622", "coordinates": [11.24898, 43.76757, 0], "smartPhoneRequired": false, "interior": "GOOD", "exterior": "GOOD", "address": "Via del Presto di S. Martino, 2, 50125 Firenze", "fuel": 63, "engineType": "CE"}, {"name": "199/EX714DK", "vin": "WME4513341K751216", "coordinates": [11.28529, 43.8003, 0], "smartPhoneRequired": false, "interior": "GOOD", "exterior": "GOOD", "address": "Via S. Domenico, 3453, 50133 Firenze", "fuel": 100, "engineType": "CE"}, {"name": "090/EV223TT", "vin": "WME4513341K784328", "coordinates": [11.24964, 43.76088, 0], "smartPhoneRequired": false, "interior": "GOOD", "exterior": "GOOD", "address": "Via del Baluardo, 26-34, 50125 Firenze", "fuel": 69, "engineType": "CE"}, {"name": "221/EY582ZW", "vin": "WME4513341K832190", "coordinates": [11.23978, 43.79291, 0], "smartPhoneRequired": false, "interior": "GOOD", "exterior": "GOOD", "address": "Viale Corsica, 100, 50127 Firenze", "fuel": 100, "engineType": "CE"}, {"name": "215/EY577ZW", "vin": "WME4513341K832159", "coordinates": [11.24053, 43.77752, 0], "smartPhoneRequired": false, "interior": "GOOD", "exterior": "GOOD", "address": "Via Il Prato, 90, 50123 Firenze", "fuel": 72, "engineType": "CE"}, {"name": "140/EV984NS", "vin": "WME4513341K782813", "coordinates": [11.2765, 43.77223, 0], "smartPhoneRequired": false, "interior": "GOOD", "exterior": "GOOD", "address": "Via Capo di Mondo, 38R, 50136 Firenze", "fuel": 100, "engineType": "CE"}, {"name": "159/EX719DK", "vin": "WME4513341K748999", "coordinates": [11.27855, 43.77499, 0], "smartPhoneRequired": false, "interior": "GOOD", "exterior": "GOOD", "address": "Via Mannelli, 85, 50136 Firenze", "fuel": 100, "engineType": "CE"}, {"name": "224/EY579ZW", "vin": "WME4513341K832197", "coordinates": [11.28343, 43.78602, 0], "smartPhoneRequired": false, "interior": "GOOD", "exterior": "GOOD", "address": "Via Augusto Baldesi, 16-18, 50131 Firenze", "fuel": 69, "engineType": "CE"}, {"name": "209/EY632ZW", "vin": "WME4513341K824794", "coordinates": [11.20898, 43.7661, 0], "smartPhoneRequired": false, "interior": "GOOD", "exterior": "GOOD", "address": "Via del Ronco Corto, 25-27, 50143 Firenze", "fuel": 57, "engineType": "CE"}, {"name": "116/EV208TT", "vin": "WME4513341K783698", "coordinates": [11.27207, 43.77714, 0], "smartPhoneRequired": false, "interior": "GOOD", "exterior": "GOOD", "address": "Via Francesco Domenico Guerrazzi, 38, 50132 Firenze", "fuel": 81, "engineType": "CE"}, {"name": "083/EV995NS", "vin": "WME4513341K783461", "coordinates": [11.22499, 43.785, 0], "smartPhoneRequired": false, "interior": "GOOD", "exterior": "GOOD", "address": "Via Giovanni Paisiello, 182, 50144 Firenze", "fuel": 100, "engineType": "CE"}, {"name": "134/EV988NS", "vin": "WME4513341K783159", "coordinates": [11.20723, 43.82068, 0], "smartPhoneRequired": false, "interior": "GOOD", "exterior": "GOOD", "address": "Via P.P. Pasolini, 265, 50019 Sesto Fiorentino FI", "fuel": 45, "engineType": "CE"}, {"name": "039/EV274TP", "vin": "WME4513341K774401", "coordinates": [11.26698, 43.76618, 0], "smartPhoneRequired": false, "interior": "GOOD", "exterior": "GOOD", "address": "Lungarno della Zecca Vecchia, 14, 50122 Firenze", "fuel": 100, "engineType": "CE"}, {"name": "070/EV201TT", "vin": "WME4513341K783726", "coordinates": [11.27434, 43.78892, 0], "smartPhoneRequired": false, "interior": "GOOD", "exterior": "GOOD", "address": "Via Brunetto Latini, 68, 50133 Firenze", "fuel": 81, "engineType": "CE"}, {"name": "182/EX722DK", "vin": "WME4513341K746318", "coordinates": [11.22626, 43.79615, 0], "smartPhoneRequired": false, "interior": "GOOD", "exterior": "GOOD", "address": "Viale Alessandro Guidoni, 61-73, 50127 Firenze", "fuel": 100, "engineType": "CE"}, {"name": "170/EX619DK", "vin": "WME4513341K747362", "coordinates": [11.25222, 43.79123, 0], "smartPhoneRequired": false, "interior": "GOOD", "exterior": "GOOD", "address": "Via Alfredo Oriani, 10, 50134 Firenze", "fuel": 100, "engineType": "CE"}, {"name": "151/EX654DK", "vin": "WME4513341K747524", "coordinates": [11.2245, 43.78505, 0], "smartPhoneRequired": false, "interior": "GOOD", "exterior": "GOOD", "address": "Via delle Cascine, 8, 50144 Firenze", "fuel": 87, "engineType": "CE"}, {"name": "043/EV278TP", "vin": "WME4513341K775005", "coordinates": [11.19343, 43.8334, 0], "smartPhoneRequired": false, "interior": "GOOD", "exterior": "GOOD", "address": "Via del Trebbio, 9-58, 50019 Sesto Fiorentino FI", "fuel": 75, "engineType": "CE"}, {"name": "119/EV920NS", "vin": "WME4513341K783513", "coordinates": [11.30893, 43.7655, 0], "smartPhoneRequired": false, "interior": "GOOD", "exterior": "GOOD", "address": "Via Vittorio Emanuele Orlando, 5, 50136 Firenze", "fuel": 57, "engineType": "CE"}, {"name": "183/EX708DK", "vin": "WME4513341K746044", "coordinates": [11.29826, 43.76596, 0], "smartPhoneRequired": false, "interior": "GOOD", "exterior": "GOOD", "address": "Via di Varlungo, 6, 50136 Firenze", "fuel": 81, "engineType": "CE"}, {"name": "012/EV247TP", "vin": "WME4513341K775509", "coordinates": [11.2802, 43.78169, 0], "smartPhoneRequired": false, "interior": "GOOD", "exterior": "GOOD", "address": "Via dei Sette Santi, 47, 50131 Firenze", "fuel": 54, "engineType": "CE"}, {"name": "011/EV246TP", "vin": "WME4513341K774902", "coordinates": [11.27248, 43.77441, 0], "smartPhoneRequired": false, "interior": "GOOD", "exterior": "GOOD", "address": "Viale Giuseppe Mazzini, 32, 50136 Firenze", "fuel": 100, "engineType": "CE"}, {"name": "214/EY563ZW", "vin": "WME4513341K832147", "coordinates": [11.20107, 43.75802, 0], "smartPhoneRequired": false, "interior": "GOOD", "exterior": "GOOD", "address": "Via di Scandicci, 69, 50143 Firenze", "fuel": 33, "engineType": "CE"}, {"name": "060/EV262TT", "vin": "WME4513341K785695", "coordinates": [11.28089, 43.76154, 0], "smartPhoneRequired": false, "interior": "GOOD", "exterior": "GOOD", "address": "Via Bartolomeo Scala, 42, 50126 Firenze", "fuel": 39, "engineType": "CE"}, {"name": "053/EV288TP", "vin": "WME4513341K775477", "coordinates": [11.24163, 43.77637, 0], "smartPhoneRequired": false, "interior": "GOOD", "exterior": "GOOD", "address": "Via Il Prato, 64R, 50123 Firenze", "fuel": 100, "engineType": "CE"}, {"name": "158/EX701DK", "vin": "WME4513341K749525", "coordinates": [11.27071, 43.77435, 0], "smartPhoneRequired": false, "interior": "GOOD", "exterior": "GOOD", "address": "Viale Antonio Gramsci, 47, 50121 Firenze", "fuel": 66, "engineType": "CE"}, {"name": "186/EX705DK", "vin": "WME4513341K745636", "coordinates": [11.21954, 43.82031, 0], "smartPhoneRequired": false, "interior": "GOOD", "exterior": "GOOD", "address": "Piazza Roberto Davidsohn 3, 50019 Firenze", "fuel": 100, "engineType": "CE"}, {"name": "177/EX728DK", "vin": "WME4513341K746992", "coordinates": [11.1427, 43.77145, 0], "smartPhoneRequired": false, "interior": "GOOD", "exterior": "GOOD", "address": "Viale Europa, 51, 50018 Scandicci FI", "fuel": 100, "engineType": "CE"}, {"name": "068/EV242TT", "vin": "WME4513341K784840", "coordinates": [11.26699, 43.76622, 0], "smartPhoneRequired": false, "interior": "GOOD", "exterior": "GOOD", "address": "Lungarno della Zecca Vecchia, 14, 50122 Firenze", "fuel": 54, "engineType": "CE"}, {"name": "137/EV989NS", "vin": "WME4513341K783079", "coordinates": [11.14071, 43.84636, 0], "smartPhoneRequired": false, "interior": "GOOD", "exterior": "GOOD", "address": "Via Fratelli Cervi, 1500, 50013 Campi Bisenzio FI", "fuel": 66, "engineType": "CE"}, {"name": "169/EX620DK", "vin": "WME4513341K747419", "coordinates": [11.23904, 43.78261, 0], "smartPhoneRequired": false, "interior": "GOOD", "exterior": "GOOD", "address": "Via Domenico Cimarosa, 4, 50144 Firenze", "fuel": 100, "engineType": "CE"}, {"name": "202/EY633ZW", "vin": "WME4513341K823267", "coordinates": [11.27728, 43.78415, 0], "smartPhoneRequired": false, "interior": "GOOD", "exterior": "GOOD", "address": "Via Luigi Galvani, 14, 50131 Firenze", "fuel": 48, "engineType": "CE"}, {"name": "034/EV269TP", "vin": "WME4513341K775519", "coordinates": [11.2673, 43.76614, 0], "smartPhoneRequired": false, "interior": "GOOD", "exterior": "GOOD", "address": "Lungarno della Zecca Vecchia, 14, 50122 Firenze", "fuel": 100, "engineType": "CE"}, {"name": "132/EV978NS", "vin": "WME4513341K782314", "coordinates": [11.2686, 43.80321, 0], "smartPhoneRequired": false, "interior": "GOOD", "exterior": "GOOD", "address": "Via Bolognese, 169, 50139 Firenze", "fuel": 100, "engineType": "CE"}, {"name": "178/EX727DK", "vin": "WME4513341K746894", "coordinates": [11.22285, 43.80194, 0], "smartPhoneRequired": false, "interior": "GOOD", "exterior": "GOOD", "address": "Via Mario Fabiani, 2-10, 50127 Firenze", "fuel": 63, "engineType": "CE"}, {"name": "067/EV241TT", "vin": "WME4513341K784889", "coordinates": [11.21771, 43.79625, 0], "smartPhoneRequired": false, "interior": "GOOD", "exterior": "GOOD", "address": "Via Casentino, 2-4, 50127 Firenze", "fuel": 36, "engineType": "CE"}, {"name": "093/EV224TT", "vin": "WME4513341K784352", "coordinates": [11.2622, 43.79016, 0], "smartPhoneRequired": false, "interior": "GOOD", "exterior": "GOOD", "address": "Via Bolognese, 37, 50139 Firenze", "fuel": 45, "engineType": "CE"}, {"name": "089/EV982NS", "vin": "WME4513341K782942", "coordinates": [11.28813, 43.78229, 0], "smartPhoneRequired": false, "interior": "GOOD", "exterior": "GOOD", "address": "Via Pietro Maroncelli, 6-18, 50137 Firenze", "fuel": 51, "engineType": "CE"}, {"name": "101/EV227TT", "vin": "WME4513341K784534", "coordinates": [11.07266, 43.88895, 0], "smartPhoneRequired": false, "interior": "GOOD", "exterior": "GOOD", "address": "Via Tomaso Albinoni, 12-24, 59100 Prato PO", "fuel": 100, "engineType": "CE"}, {"name": "097/EV214TT", "vin": "WME4513341K783523", "coordinates": [11.28153, 43.786, 0], "smartPhoneRequired": false, "interior": "GOOD", "exterior": "GOOD", "address": "Via Antonio Cocchi, 16-18, 50131 Firenze", "fuel": 100, "engineType": "CE"}, {"name": "095/EV997NS", "vin": "WME4513341K783210", "coordinates": [11.24311, 43.77098, 0], "smartPhoneRequired": false, "interior": "GOOD", "exterior": "GOOD", "address": "Lungarno Soderini, 19, 50124 Firenze", "fuel": 96, "engineType": "CE"}, {"name": "218/EY647ZW", "vin": "WME4513341K832178", "coordinates": [11.21936, 43.79577, 0], "smartPhoneRequired": false, "interior": "GOOD", "exterior": "GOOD", "address": "Via del Giardino della Bizzarria, 39, 50127 Firenze", "fuel": 100, "engineType": "CE"}, {"name": "072/EV244TT", "vin": "WME4513341K784772", "coordinates": [11.28526, 43.79998, 0], "smartPhoneRequired": false, "interior": "GOOD", "exterior": "GOOD", "address": "Via S. Domenico, 3453, 50133 Firenze", "fuel": 100, "engineType": "CE"}, {"name": "154/EX704DK", "vin": "WME4513341K745612", "coordinates": [11.21758, 43.79281, 0], "smartPhoneRequired": false, "interior": "GOOD", "exterior": "GOOD", "address": "Via Ruggero Bardazzi, 29, 50127 Firenze", "fuel": 100, "engineType": "CE"}, {"name": "217/EY591ZW", "vin": "WME4513341K832174", "coordinates": [11.20099, 43.78222, 0], "smartPhoneRequired": false, "interior": "GOOD", "exterior": "GOOD", "address": "Via Assisi, 9, 50142 Firenze", "fuel": 84, "engineType": "CE"}, {"name": "094/EV996NS", "vin": "WME4513341K783292", "coordinates": [11.28716, 43.76271, 0], "smartPhoneRequired": false, "interior": "GOOD", "exterior": "GOOD", "address": "Via Niccol\u00f2 da Uzzano, 36, 50126 Firenze", "fuel": 96, "engineType": "CE"}, {"name": "188/EX614DK", "vin": "WME4513341K745521", "coordinates": [11.21929, 43.79143, 0], "smartPhoneRequired": false, "interior": "GOOD", "exterior": "GOOD", "address": "Via Giannotto Bastianelli, 4, 50127 Firenze", "fuel": 66, "engineType": "CE"}, {"name": "007/EV244TP", "vin": "WME4513341K769333", "coordinates": [11.27101, 43.77934, 0], "smartPhoneRequired": false, "interior": "GOOD", "exterior": "GOOD", "address": "Via Giambologna, 19-29, 50132 Firenze", "fuel": 100, "engineType": "CE"}, {"name": "220/EY560ZW", "vin": "WME4513341K832185", "coordinates": [11.28531, 43.80047, 0], "smartPhoneRequired": false, "interior": "GOOD", "exterior": "GOOD", "address": "Via S. Domenico, 3453, 50133 Firenze", "fuel": 51, "engineType": "CE"}, {"name": "120/EV250TT", "vin": "WME4513341K784845", "coordinates": [11.27781, 43.78328, 0], "smartPhoneRequired": false, "interior": "GOOD", "exterior": "GOOD", "address": "Via Goffredo Mameli, 52, 50131 Firenze", "fuel": 81, "engineType": "CE"}, {"name": "174/EX443DK", "vin": "WME4513341K747277", "coordinates": [11.13988, 43.81906, 0], "smartPhoneRequired": false, "interior": "GOOD", "exterior": "GOOD", "address": "Via Masaccio, 6, 50013 Campi Bisenzio FI", "fuel": 100, "engineType": "CE"}, {"name": "203/EY106ZY", "vin": "WME4513341K823397", "coordinates": [11.23717, 43.77932, 0], "smartPhoneRequired": false, "interior": "GOOD", "exterior": "GOOD", "address": "Via Giovanni Michelucci 2, 50144 Firenze", "fuel": 54, "engineType": "CE"}, {"name": "172/EX418DK", "vin": "WME4513341K747325", "coordinates": [11.2109, 43.76714, 0], "smartPhoneRequired": false, "interior": "GOOD", "exterior": "GOOD", "address": "Via Andrea da Pontedera, 41, 50143 Firenze", "fuel": 39, "engineType": "CE"}, {"name": "010/EV297TP", "vin": "WME4513341K768078", "coordinates": [11.25111, 43.79102, 0], "smartPhoneRequired": false, "interior": "GOOD", "exterior": "GOOD", "address": "Via Celestino Bianchi, 12, 50134 Firenze", "fuel": 66, "engineType": "CE"}, {"name": "155/EX600DK", "vin": "WME4513341K745140", "coordinates": [11.24318, 43.76342, 0], "smartPhoneRequired": false, "interior": "GOOD", "exterior": "GOOD", "address": "Via dei Serragli, 142, 50124 Firenze", "fuel": 54, "engineType": "CE"}, {"name": "146/EV234TT", "vin": "WME4513341K784336", "coordinates": [11.27115, 43.7769, 0], "smartPhoneRequired": false, "interior": "GOOD", "exterior": "GOOD", "address": "Via Nardi Jacopo, 19, 50132 Firenze", "fuel": 100, "engineType": "CE"}, {"name": "045/EV280TP", "vin": "WME4513341K775357", "coordinates": [11.2904, 43.78224, 0], "smartPhoneRequired": false, "interior": "GOOD", "exterior": "GOOD", "address": "Via Giuseppe Sirtori, 46-58, 50137 Firenze", "fuel": 78, "engineType": "CE"}, {"name": "208/EY634ZW", "vin": "WME4513341K824758", "coordinates": [11.19368, 43.83397, 0], "smartPhoneRequired": false, "interior": "GOOD", "exterior": "GOOD", "address": "Via Giuseppe Garibaldi, 158-160, 50019 Sesto Fiorentino FI", "fuel": 66, "engineType": "CE"}, {"name": "085/EV986NS", "vin": "WME4513341K783202", "coordinates": [11.24604, 43.77384, 0], "smartPhoneRequired": false, "interior": "GOOD", "exterior": "GOOD", "address": "Via Palazzuolo, 43, 50123 Firenze", "fuel": 36, "engineType": "CE"}, {"name": "075/EV979NS", "vin": "WME4513341K782987", "coordinates": [11.29001, 43.77943, 0], "smartPhoneRequired": false, "interior": "GOOD", "exterior": "GOOD", "address": "Viale Terenzio Mamiani, 7, 50137 Firenze", "fuel": 90, "engineType": "CE"}, {"name": "173/EX170DK", "vin": "WME4513341K747303", "coordinates": [11.20301, 43.75965, 0], "smartPhoneRequired": false, "interior": "GOOD", "exterior": "GOOD", "address": "Via di Scandicci, 320, 50143 Firenze", "fuel": 100, "engineType": "CE"}, {"name": "168/EX651DK", "vin": "WME4513341K747493", "coordinates": [11.23119, 43.79582, 0], "smartPhoneRequired": false, "interior": "GOOD", "exterior": "GOOD", "address": "Via Carlo del Prete, 105, 50127 Firenze", "fuel": 100, "engineType": "CE"}, {"name": "191/EX593DK", "vin": "WME4513341K744781", "coordinates": [11.22077, 43.80693, 0], "smartPhoneRequired": false, "interior": "GOOD", "exterior": "GOOD", "address": "Via Famiglia Benini 13, 50127 Firenze", "fuel": 39, "engineType": "CE"}, {"name": "216/EY587ZW", "vin": "WME4513341K832168", "coordinates": [11.10685, 43.87791, 0], "smartPhoneRequired": false, "interior": "GOOD", "exterior": "GOOD", "address": "Via Giacomo Matteotti, 67, 59100 Prato PO", "fuel": 100, "engineType": "CE"}, {"name": "096/EV203TT", "vin": "WME4513341K783266", "coordinates": [11.24394, 43.76336, 0], "smartPhoneRequired": false, "interior": "GOOD", "exterior": "GOOD", "address": "Via Serumido, 6n, 50125 Firenze", "fuel": 93, "engineType": "CE"}, {"name": "167/EX653DK", "vin": "WME4513341K747504", "coordinates": [11.27107, 43.76307, 0], "smartPhoneRequired": false, "interior": "GOOD", "exterior": "GOOD", "address": "Via Ser Ventura Monachi, 11, 50125 Firenze", "fuel": 42, "engineType": "CE"}, {"name": "179/EX726DK", "vin": "WME4513341K746788", "coordinates": [11.27396, 43.77989, 0], "smartPhoneRequired": false, "interior": "GOOD", "exterior": "GOOD", "address": "Via Mannelli, 159, 50132 Firenze", "fuel": 45, "engineType": "CE"}, {"name": "038/EV273TP", "vin": "WME4513341K774920", "coordinates": [11.27198, 43.79015, 0], "smartPhoneRequired": false, "interior": "GOOD", "exterior": "GOOD", "address": "Via Sercambi, 4R, 50133 Firenze", "fuel": 42, "engineType": "CE"}, {"name": "115/EV207TT", "vin": "WME4513341K783642", "coordinates": [11.21901, 43.79323, 0], "smartPhoneRequired": false, "interior": "GOOD", "exterior": "GOOD", "address": "Via Nicola Tagliaferri, 35-43, 50127 Firenze", "fuel": 24, "engineType": "CE"}, {"name": "135/EV923NS", "vin": "WME4513341K783441", "coordinates": [11.28833, 43.79024, 0], "smartPhoneRequired": false, "interior": "GOOD", "exterior": "GOOD", "address": "Via del Frullino, 5, 50133 Firenze", "fuel": 57, "engineType": "CE"}, {"name": "047/EV282TP", "vin": "WME4513341K774327", "coordinates": [11.1964, 43.8331, 0], "smartPhoneRequired": false, "interior": "GOOD", "exterior": "GOOD", "address": "Via Aurelio Saffi, 64, 50019 Sesto Fiorentino FI", "fuel": 100, "engineType": "CE"}, {"name": "064/EV263TT", "vin": "WME4513341K785644", "coordinates": [11.23856, 43.79231, 0], "smartPhoneRequired": false, "interior": "GOOD", "exterior": "GOOD", "address": "Viale Corsica, 76, 50127 Firenze", "fuel": 45, "engineType": "CE"}, {"name": "205/EY104ZY", "vin": "WME4513341K823536", "coordinates": [11.30433, 43.77005, 0], "smartPhoneRequired": false, "interior": "GOOD", "exterior": "GOOD", "address": "Via Nicola Ottokar, 2, 50135 Firenze", "fuel": 100, "engineType": "CE"}, {"name": "109/EV248TT", "vin": "WME4513341K785122", "coordinates": [11.2393, 43.77408, 0], "smartPhoneRequired": false, "interior": "GOOD", "exterior": "GOOD", "address": "Lungarno Amerigo Vespucci, 50, 50123 Firenze", "fuel": 66, "engineType": "CE"}, {"name": "162/EX716DK", "vin": "WME4513341K748012", "coordinates": [11.08395, 43.88599, 0], "smartPhoneRequired": false, "interior": "GOOD", "exterior": "GOOD", "address": "Via Pistoiese, 199, 59100 Prato PO", "fuel": 75, "engineType": "CE"}, {"name": "004/EV241TP", "vin": "WME4513341K770752", "coordinates": [11.28554, 43.8012, 0], "smartPhoneRequired": false, "interior": "GOOD", "exterior": "GOOD", "address": "Piazza S. Domenico, 4-6, 50014 Fiesole FI", "fuel": 69, "engineType": "CE"}, {"name": "126/EV210TT", "vin": "WME4513341K784004", "coordinates": [11.24209, 43.75765, 0], "smartPhoneRequired": false, "interior": "GOOD", "exterior": "GOOD", "address": "Via Dante da Castiglione, 16, 50125 Firenze", "fuel": 33, "engineType": "CE"}]}