{"placemarks": [{"name": "B-GO3795", "vin": "WME4533421K036826", "coordinates": [10.09574, 53.65185, 0], "smartPhoneRequired": true, "interior": "GOOD", "exterior": "GOOD", "address": "Langenst\u00fccken 3, 22393 Hamburg", "fuel": 100, "engineType": "CE"}, {"name": "B-GO4250", "vin": "WME4533421K064894", "coordinates": [9.90099, 53.5547, 0], "smartPhoneRequired": true, "interior": "GOOD", "exterior": "GOOD", "address": "Asklepios Altona", "fuel": 68, "engineType": "CE"}, {"name": "B-GO4527", "vin": "WME4533421K071208", "coordinates": [10.05609, 53.60862, 0], "smartPhoneRequired": true, "interior": "GOOD", "exterior": "GOOD", "address": "Steilshooper Allee 44, 22309 Hamburg", "fuel": 62, "engineType": "CE"}, {"name": "B-GO3142", "vin": "WME4533421K037168", "coordinates": [9.94446, 53.5734, 0], "smartPhoneRequired": true, "interior": "GOOD", "exterior": "GOOD", "address": "Faberstra\u00dfe 2, 20257 Hamburg", "fuel": 43, "engineType": "CE"}, {"name": "B-GO1042", "vin": "WME4533421K040051", "coordinates": [9.95249, 53.61202, 0], "smartPhoneRequired": true, "interior": "GOOD", "exterior": "GOOD", "address": "MB Kollaustra\u00dfe (Werkstatt)", "fuel": 100, "engineType": "CE"}, {"name": "B-GO5695", "vin": "WDC1569431J301858", "coordinates": [9.79333, 53.56262, 0], "smartPhoneRequired": true, "interior": "GOOD", "exterior": "GOOD", "address": "Falkentaler Weg 12, 22587 Hamburg", "fuel": 98, "engineType": "CE"}, {"name": "B-GO1067", "vin": "WME4533421K040125", "coordinates": [9.80064, 53.5614, 0], "smartPhoneRequired": true, "interior": "GOOD", "exterior": "GOOD", "address": "Wilmans Park 5-7, 22587 Hamburg", "fuel": 34, "engineType": "CE"}, {"name": "B-GO5647", "vin": "WDD1760121J523765", "coordinates": [10.06273, 53.59429, 0], "smartPhoneRequired": true, "interior": "GOOD", "exterior": "GOOD", "address": "Ilenkruut 50, 22179 Hamburg", "fuel": 48, "engineType": "CE"}, {"name": "B-GO5616", "vin": "WDC1569431J292449", "coordinates": [10.10573, 53.56974, 0], "smartPhoneRequired": true, "interior": "GOOD", "exterior": "GOOD", "address": "Holstenhofweg 81, 22043 Hamburg", "fuel": 84, "engineType": "CE"}, {"name": "B-GO5609", "vin": "WDC1569431J292058", "coordinates": [10.0039, 53.59826, 0], "smartPhoneRequired": true, "interior": "GOOD", "exterior": "GOOD", "address": "Bussestra\u00dfe 52, 22299 Hamburg", "fuel": 98, "engineType": "CE"}, {"name": "B-GO5606", "vin": "WDC1569431J291466", "coordinates": [10.03249, 53.61979, 0], "smartPhoneRequired": true, "interior": "GOOD", "exterior": "GOOD", "address": "Alsterdorfer Str. 571, 22337 Hamburg", "fuel": 98, "engineType": "CE"}, {"name": "B-GO5604", "vin": "WDC1569431J291857", "coordinates": [10.21891, 53.48482, 0], "smartPhoneRequired": true, "interior": "GOOD", "exterior": "GOOD", "address": "Holtenklinker Str. 11, 21029 Hamburg", "fuel": 84, "engineType": "CE"}, {"name": "B-GO5603", "vin": "WDC1569431J292322", "coordinates": [10.01614, 53.62567, 0], "smartPhoneRequired": true, "interior": "GOOD", "exterior": "GOOD", "address": "Eschenweg 1, 22335 Hamburg", "fuel": 66, "engineType": "CE"}, {"name": "B-GO5598", "vin": "WDD1760431J509386", "coordinates": [10.05144, 53.56698, 0], "smartPhoneRequired": true, "interior": "GOOD", "exterior": "GOOD", "address": "Tonistra\u00dfe 4, 22089 Hamburg", "fuel": 92, "engineType": "CE"}, {"name": "B-GO5596", "vin": "WDD1760431J509991", "coordinates": [10.00661, 53.54952, 0], "smartPhoneRequired": true, "interior": "GOOD", "exterior": "GOOD", "address": "Klosterwall 15, 20095 Hamburg", "fuel": 88, "engineType": "CE"}, {"name": "B-GO5542", "vin": "WDC1569431J292612", "coordinates": [9.90407, 53.55282, 0], "smartPhoneRequired": true, "interior": "GOOD", "exterior": "GOOD", "address": "Stiegkamp 1, 22763 Hamburg", "fuel": 58, "engineType": "CE"}, {"name": "B-GO8222", "vin": "WME4533421K087429", "coordinates": [10.00722, 53.6342, 0], "smartPhoneRequired": true, "interior": "GOOD", "exterior": "GOOD", "address": "HH Flughafen P2 Bereich B", "fuel": 68, "engineType": "CE"}, {"name": "B-GO3741", "vin": "WME4533421K149409", "coordinates": [10.0591, 53.58083, 0], "smartPhoneRequired": true, "interior": "GOOD", "exterior": "GOOD", "address": "Metzer Str. 3, 22049 Hamburg", "fuel": 62, "engineType": "CE"}, {"name": "B-GO5538", "vin": "WDC1569121J300409", "coordinates": [10.02788, 53.56507, 0], "smartPhoneRequired": true, "interior": "GOOD", "exterior": "GOOD", "address": "Uhlandstra\u00dfe 36A, 22087 Hamburg", "fuel": 56, "engineType": "CE"}, {"name": "B-GO5636", "vin": "WDD1760121J523326", "coordinates": [9.80028, 53.56109, 0], "smartPhoneRequired": true, "interior": "GOOD", "exterior": "GOOD", "address": "Wilmans Park 2, 22587 Hamburg", "fuel": 54, "engineType": "CE"}, {"name": "B-GO5637", "vin": "WDD1760121J522792", "coordinates": [9.93817, 53.55578, 0], "smartPhoneRequired": true, "interior": "GOOD", "exterior": "GOOD", "address": "Goetheallee 19, 22765 Hamburg", "fuel": 36, "engineType": "CE"}, {"name": "B-GO5627", "vin": "WDD1760121J523880", "coordinates": [10.06927, 53.58129, 0], "smartPhoneRequired": true, "interior": "GOOD", "exterior": "GOOD", "address": "Eulenkamp 31, 22049 Hamburg", "fuel": 56, "engineType": "CE"}, {"name": "B-GO5586", "vin": "WDD1760431J521607", "coordinates": [10.06493, 53.5811, 0], "smartPhoneRequired": true, "interior": "GOOD", "exterior": "GOOD", "address": "Tiroler Str. 5, 22049 Hamburg", "fuel": 44, "engineType": "CE"}, {"name": "B-GO5561", "vin": "WDD1760121J520819", "coordinates": [10.04673, 53.58918, 0], "smartPhoneRequired": true, "interior": "GOOD", "exterior": "GOOD", "address": "Schwalbenstra\u00dfe 19, 22305 Hamburg", "fuel": 42, "engineType": "CE"}, {"name": "B-GO5574", "vin": "WDD1760431J521715", "coordinates": [10.00722, 53.6342, 0], "smartPhoneRequired": true, "interior": "GOOD", "exterior": "GOOD", "address": "HH Flughafen P2 Bereich B", "fuel": 50, "engineType": "CE"}, {"name": "B-GO5546", "vin": "WDD1760121J520274", "coordinates": [10.12585, 53.58416, 0], "smartPhoneRequired": true, "interior": "GOOD", "exterior": "GOOD", "address": "Studio Hamburg", "fuel": 26, "engineType": "CE"}, {"name": "B-GO5543", "vin": "WDC1569431J293156", "coordinates": [9.88017, 53.54709, 0], "smartPhoneRequired": true, "interior": "GOOD", "exterior": "GOOD", "address": "Parkstra\u00dfe 87, 22605 Hamburg", "fuel": 90, "engineType": "CE"}, {"name": "B-GO1004", "vin": "WME4533421K039950", "coordinates": [10.05282, 53.58538, 0], "smartPhoneRequired": true, "interior": "GOOD", "exterior": "GOOD", "address": "Krausestra\u00dfe 14, 22305 Hamburg", "fuel": 100, "engineType": "CE"}, {"name": "B-GO3710", "vin": "WME4533421K038242", "coordinates": [10.01174, 53.54501, 0], "smartPhoneRequired": true, "interior": "GOOD", "exterior": "GOOD", "address": "Banksstra\u00dfe 32, 20097 Hamburg", "fuel": 78, "engineType": "CE"}, {"name": "B-GO5553", "vin": "WDD1760121J521540", "coordinates": [9.92337, 53.58473, 0], "smartPhoneRequired": true, "interior": "GOOD", "exterior": "GOOD", "address": "F\u00f6rsterweg 104A, 22525 Hamburg", "fuel": 38, "engineType": "CE"}, {"name": "B-GO5532", "vin": "WDD1760431J517235", "coordinates": [10.07089, 53.60531, 0], "smartPhoneRequired": true, "interior": "GOOD", "exterior": "GOOD", "address": "Bramfelder Chaussee 156, 22177 Hamburg", "fuel": 20, "engineType": "CE"}, {"name": "B-GO5530", "vin": "WDD1760431J517564", "coordinates": [9.79069, 53.56008, 0], "smartPhoneRequired": true, "interior": "GOOD", "exterior": "GOOD", "address": "Falkentaler Weg 4, 22587 Hamburg", "fuel": 76, "engineType": "CE"}, {"name": "B-GO5581", "vin": "WDD1760431J520390", "coordinates": [9.94592, 53.58018, 0], "smartPhoneRequired": true, "interior": "GOOD", "exterior": "GOOD", "address": "Luruper Weg 4, 20257 Hamburg", "fuel": 94, "engineType": "CE"}, {"name": "B-GO5607", "vin": "WDC1569431J291175", "coordinates": [10.01612, 53.6165, 0], "smartPhoneRequired": true, "interior": "GOOD", "exterior": "GOOD", "address": "Sengelmannstra\u00dfe 89, 22335 Hamburg", "fuel": 90, "engineType": "CE"}, {"name": "B-GO5640", "vin": "WDD1760121J523097", "coordinates": [10.00722, 53.6342, 0], "smartPhoneRequired": true, "interior": "GOOD", "exterior": "GOOD", "address": "HH Flughafen P2 Bereich B", "fuel": 74, "engineType": "CE"}, {"name": "B-GO5697", "vin": "WDC1569431J301878", "coordinates": [10.00248, 53.54819, 0], "smartPhoneRequired": true, "interior": "GOOD", "exterior": "GOOD", "address": "Pumpen 8, 20095 Hamburg", "fuel": 62, "engineType": "CE"}, {"name": "B-GO5576", "vin": "WDD1760431J521369", "coordinates": [10.00722, 53.6342, 0], "smartPhoneRequired": true, "interior": "GOOD", "exterior": "GOOD", "address": "HH Flughafen P2 Bereich B", "fuel": 98, "engineType": "CE"}, {"name": "B-GO5575", "vin": "WDD1760431J521030", "coordinates": [10.00242, 53.54862, 0], "smartPhoneRequired": true, "interior": "GOOD", "exterior": "GOOD", "address": "Burchardstra\u00dfe 2-13, 20095 Hamburg", "fuel": 16, "engineType": "CE"}, {"name": "B-GO5554", "vin": "WDD1760121J522054", "coordinates": [9.95474, 53.62134, 0], "smartPhoneRequired": true, "interior": "GOOD", "exterior": "GOOD", "address": "Garstedter Weg 14, 22453 Hamburg", "fuel": 28, "engineType": "CE"}, {"name": "B-GO4748", "vin": "WME4533421K071011", "coordinates": [10.04517, 53.57762, 0], "smartPhoneRequired": true, "interior": "GOOD", "exterior": "GOOD", "address": "Wohldorfer Str. 57-59, 22081 Hamburg", "fuel": 59, "engineType": "CE"}, {"name": "B-GO5544", "vin": "WDD1760121J519777", "coordinates": [10.05024, 53.61093, 0], "smartPhoneRequired": true, "interior": "GOOD", "exterior": "GOOD", "address": "Fritz-Flinte-Ring 4, 22309 Hamburg", "fuel": 22, "engineType": "CE"}, {"name": "B-GO5540", "vin": "WDC1569121J301101", "coordinates": [10.0591, 53.58675, 0], "smartPhoneRequired": true, "interior": "GOOD", "exterior": "GOOD", "address": "Pfauenweg 47-48, 22305 Hamburg", "fuel": 100, "engineType": "CE"}, {"name": "B-GO3792", "vin": "WME4533421K039762", "coordinates": [9.9763, 53.56981, 0], "smartPhoneRequired": true, "interior": "GOOD", "exterior": "GOOD", "address": "Monetastra\u00dfe 4-6, 20146 Hamburg", "fuel": 71, "engineType": "CE"}, {"name": "B-GO3806", "vin": "WME4533421K038492", "coordinates": [10.00722, 53.6342, 0], "smartPhoneRequired": true, "interior": "GOOD", "exterior": "GOOD", "address": "HH Flughafen P2 Bereich B", "fuel": 59, "engineType": "CE"}, {"name": "B-GO5485", "vin": "WDD1760431J517036", "coordinates": [10.00175, 53.5487, 0], "smartPhoneRequired": true, "interior": "GOOD", "exterior": "GOOD", "address": "Fischertwiete 2, 20095 Hamburg", "fuel": 86, "engineType": "CE"}, {"name": "B-GO5537", "vin": "WDD1760431J517142", "coordinates": [9.98482, 53.60078, 0], "smartPhoneRequired": true, "interior": "GOOD", "exterior": "GOOD", "address": "Erikastra\u00dfe 167, 20251 Hamburg", "fuel": 56, "engineType": "CE"}, {"name": "B-GO5516", "vin": "WDD1760431J516811", "coordinates": [9.95112, 53.61298, 0], "smartPhoneRequired": true, "interior": "GOOD", "exterior": "GOOD", "address": "Mercedes Benz Kollaustra\u00dfe", "fuel": 16, "engineType": "CE"}, {"name": "B-GO5517", "vin": "WDC1569121J296940", "coordinates": [10.07253, 53.57711, 0], "smartPhoneRequired": true, "interior": "GOOD", "exterior": "GOOD", "address": "Wendemuthstra\u00dfe 41, 22041 Hamburg", "fuel": 100, "engineType": "CE"}, {"name": "B-GO4732", "vin": "WME4533421K069945", "coordinates": [9.94971, 53.55093, 0], "smartPhoneRequired": true, "interior": "GOOD", "exterior": "GOOD", "address": "Louise-Schroeder-Stra\u00dfe 27, 22767 Hamburg", "fuel": 68, "engineType": "CE"}, {"name": "B-GO5612", "vin": "WDC1569431J291094", "coordinates": [10.03118, 53.54849, 0], "smartPhoneRequired": true, "interior": "GOOD", "exterior": "GOOD", "address": "Wendenstra\u00dfe 120, 20537 Hamburg", "fuel": 80, "engineType": "CE"}, {"name": "B-GO5511", "vin": "WDD1760431J515808", "coordinates": [9.92753, 53.56943, 0], "smartPhoneRequired": true, "interior": "GOOD", "exterior": "GOOD", "address": "Am Diebsteich 40, 22761 Hamburg", "fuel": 78, "engineType": "CE"}, {"name": "B-GO5711", "vin": "WDC1569431J302391", "coordinates": [10.03569, 53.58328, 0], "smartPhoneRequired": true, "interior": "GOOD", "exterior": "GOOD", "address": "Brucknerstra\u00dfe 22, 22083 Hamburg", "fuel": 98, "engineType": "CE"}, {"name": "B-GO8092", "vin": "WME4533421K087468", "coordinates": [10.10013, 53.57645, 0], "smartPhoneRequired": true, "interior": "GOOD", "exterior": "GOOD", "address": "Ziethenstra\u00dfe 16-18, 22041 Hamburg", "fuel": 50, "engineType": "CE"}, {"name": "B-GO4785", "vin": "WME4533421K070893", "coordinates": [9.98164, 53.46304, 0], "smartPhoneRequired": true, "interior": "GOOD", "exterior": "GOOD", "address": "Schlo\u00dfm\u00fchlendamm 23, 21073 Hamburg", "fuel": 68, "engineType": "CE"}, {"name": "B-GO5707", "vin": "WDC1569431J302504", "coordinates": [9.94213, 53.57734, 0], "smartPhoneRequired": true, "interior": "GOOD", "exterior": "GOOD", "address": "Lappenbergsallee 42, 20257 Hamburg", "fuel": 28, "engineType": "CE"}, {"name": "B-GO8186", "vin": "WME4533421K086749", "coordinates": [10.00722, 53.6342, 0], "smartPhoneRequired": true, "interior": "GOOD", "exterior": "GOOD", "address": "HH Flughafen P2 Bereich B", "fuel": 65, "engineType": "CE"}, {"name": "B-GO4539", "vin": "WME4533421K071870", "coordinates": [10.00722, 53.6342, 0], "smartPhoneRequired": true, "interior": "GOOD", "exterior": "GOOD", "address": "HH Flughafen P2 Bereich B", "fuel": 56, "engineType": "CE"}, {"name": "B-GO4756", "vin": "WME4533421K071538", "coordinates": [9.94735, 53.62133, 0], "smartPhoneRequired": true, "interior": "GOOD", "exterior": "GOOD", "address": "Max-Zelck-Stra\u00dfe 10, 22459 Hamburg", "fuel": 100, "engineType": "CE"}, {"name": "B-GO5486", "vin": "WDD1760431J513541", "coordinates": [10.05682, 53.6056, 0], "smartPhoneRequired": true, "interior": "GOOD", "exterior": "GOOD", "address": "Georg-Raloff-Ring 40-46, 22309 Hamburg", "fuel": 90, "engineType": "CE"}, {"name": "B-GO5685", "vin": "WDD1760431J524356", "coordinates": [9.97571, 53.5832, 0], "smartPhoneRequired": true, "interior": "GOOD", "exterior": "GOOD", "address": "Eppendorfer Weg 244, 20251 Hamburg", "fuel": 24, "engineType": "CE"}, {"name": "B-GO5684", "vin": "WDD1760431J524079", "coordinates": [10.01672, 53.57946, 0], "smartPhoneRequired": true, "interior": "GOOD", "exterior": "GOOD", "address": "Grillparzerstra\u00dfe 27-29, 22085 Hamburg", "fuel": 40, "engineType": "CE"}, {"name": "B-GO3793", "vin": "WME4533421K035968", "coordinates": [10.01161, 53.60819, 0], "smartPhoneRequired": true, "interior": "GOOD", "exterior": "GOOD", "address": "Hindenburgstra\u00dfe 91, 22297 Hamburg", "fuel": 100, "engineType": "CE"}, {"name": "B-GO5682", "vin": "WDD1760431J522220", "coordinates": [10.08848, 53.57771, 0], "smartPhoneRequired": true, "interior": "GOOD", "exterior": "GOOD", "address": "Eichtalstra\u00dfe 2, 22041 Hamburg", "fuel": 24, "engineType": "CE"}, {"name": "B-GO5672", "vin": "WDD1760431J524528", "coordinates": [10.06168, 53.55858, 0], "smartPhoneRequired": true, "interior": "GOOD", "exterior": "GOOD", "address": "Caspar-Voght-Stra\u00dfe 26, 20535 Hamburg", "fuel": 82, "engineType": "CE"}, {"name": "B-GO5670", "vin": "WDD1760431J522958", "coordinates": [10.01679, 53.55024, 0], "smartPhoneRequired": true, "interior": "GOOD", "exterior": "GOOD", "address": "Nagelsweg 19, 20097 Hamburg", "fuel": 46, "engineType": "CE"}, {"name": "B-GO4679", "vin": "WME4533421K069745", "coordinates": [10.06622, 53.60003, 0], "smartPhoneRequired": true, "interior": "GOOD", "exterior": "GOOD", "address": "Buschrosenweg 19, 22177 Hamburg", "fuel": 40, "engineType": "CE"}, {"name": "B-GO4547", "vin": "WME4533421K072522", "coordinates": [10.05224, 53.56865, 0], "smartPhoneRequired": true, "interior": "GOOD", "exterior": "GOOD", "address": "Wandsbeker Chaussee 207, 22089 Hamburg", "fuel": 62, "engineType": "CE"}, {"name": "B-GO5669", "vin": "WDD1760431J522901", "coordinates": [10.06929, 53.58387, 0], "smartPhoneRequired": true, "interior": "GOOD", "exterior": "GOOD", "address": "K\u00f6nigsh\u00fctter Str. 12, 22049 Hamburg", "fuel": 94, "engineType": "CE"}, {"name": "B-GO5654", "vin": "WDD1760121J523091", "coordinates": [10.12234, 53.58658, 0], "smartPhoneRequired": true, "interior": "GOOD", "exterior": "GOOD", "address": "Stein-Hardenberg-Stra\u00dfe 65, 22045 Hamburg", "fuel": 42, "engineType": "CE"}, {"name": "B-GO5650", "vin": "WDD1760121J523425", "coordinates": [9.92145, 53.59129, 0], "smartPhoneRequired": true, "interior": "GOOD", "exterior": "GOOD", "address": "Volksparkstra\u00dfe 55, 22525 Hamburg", "fuel": 90, "engineType": "CE"}, {"name": "B-GO5502", "vin": "WDD1760431J514710", "coordinates": [9.97538, 53.57153, 0], "smartPhoneRequired": true, "interior": "GOOD", "exterior": "GOOD", "address": "Kleiner Kielort 9, 20144 Hamburg", "fuel": 58, "engineType": "CE"}, {"name": "B-GO8113", "vin": "WME4533421K088924", "coordinates": [9.8002, 53.56101, 0], "smartPhoneRequired": true, "interior": "GOOD", "exterior": "GOOD", "address": "Wilmans Park 2, 22587 Hamburg", "fuel": 56, "engineType": "CE"}, {"name": "B-GO5478", "vin": "WDD1760431J516176", "coordinates": [10.00722, 53.6342, 0], "smartPhoneRequired": true, "interior": "GOOD", "exterior": "GOOD", "address": "HH Flughafen P2 Bereich B", "fuel": 70, "engineType": "CE"}, {"name": "B-GO5475", "vin": "WDD1760431J515425", "coordinates": [10.02406, 53.61195, 0], "smartPhoneRequired": true, "interior": "GOOD", "exterior": "GOOD", "address": "Alsterdorfer Markt 6, 22297 Hamburg", "fuel": 62, "engineType": "CE"}, {"name": "B-GO5470", "vin": "WDD1760431J515103", "coordinates": [10.04157, 53.55798, 0], "smartPhoneRequired": true, "interior": "GOOD", "exterior": "GOOD", "address": "Bethesdastra\u00dfe 56, 20535 Hamburg", "fuel": 22, "engineType": "CE"}, {"name": "B-GO5702", "vin": "WDC1569431J301551", "coordinates": [10.12016, 53.58648, 0], "smartPhoneRequired": true, "interior": "GOOD", "exterior": "GOOD", "address": "Eckenerstra\u00dfe 3, 22045 Hamburg", "fuel": 78, "engineType": "CE"}, {"name": "B-GO5671", "vin": "WDD1760431J523176", "coordinates": [9.9228, 53.57147, 0], "smartPhoneRequired": true, "interior": "GOOD", "exterior": "GOOD", "address": "Ruhrstra\u00dfe 150, 22761 Hamburg", "fuel": 78, "engineType": "CE"}, {"name": "B-GO5709", "vin": "WDC1569431J302165", "coordinates": [10.07723, 53.59971, 0], "smartPhoneRequired": true, "interior": "GOOD", "exterior": "GOOD", "address": "Otto Hermes", "fuel": 62, "engineType": "CE"}, {"name": "B-GO8177", "vin": "WME4533421K085884", "coordinates": [10.09391, 53.65456, 0], "smartPhoneRequired": true, "interior": "GOOD", "exterior": "GOOD", "address": "car2go AEZ", "fuel": 68, "engineType": "CE"}, {"name": "B-GO5566", "vin": "WDD1760121J521826", "coordinates": [10.01801, 53.65227, 0], "smartPhoneRequired": true, "interior": "GOOD", "exterior": "GOOD", "address": "Tangstedter Landstra\u00dfe 81, 22415 Hamburg", "fuel": 100, "engineType": "CE"}, {"name": "B-GO5458", "vin": "WDD1760431J512718", "coordinates": [10.09199, 53.58664, 0], "smartPhoneRequired": true, "interior": "GOOD", "exterior": "GOOD", "address": "Helbingstra\u00dfe 47, 22047 Hamburg", "fuel": 42, "engineType": "CE"}, {"name": "B-GO5509", "vin": "WDD1760431J516145", "coordinates": [9.89524, 53.55496, 0], "smartPhoneRequired": true, "interior": "GOOD", "exterior": "GOOD", "address": "R\u00f6pers Weide 19, 22605 Hamburg", "fuel": 20, "engineType": "CE"}, {"name": "B-GO5506", "vin": "WDD1760431J516476", "coordinates": [10.0223, 53.61504, 0], "smartPhoneRequired": true, "interior": "GOOD", "exterior": "GOOD", "address": "Alsterdorfer Str. 444, 22297 Hamburg", "fuel": 76, "engineType": "CE"}, {"name": "B-GO8165", "vin": "WME4533421K088584", "coordinates": [10.04054, 53.60285, 0], "smartPhoneRequired": true, "interior": "GOOD", "exterior": "GOOD", "address": "Fuhlsb\u00fcttler Str. 399, 22309 Hamburg", "fuel": 100, "engineType": "CE"}, {"name": "B-GO3579", "vin": "WME4533421K036932", "coordinates": [9.97575, 53.56553, 0], "smartPhoneRequired": true, "interior": "GOOD", "exterior": "GOOD", "address": "Brockmannsweg 5, 20146 Hamburg", "fuel": 93, "engineType": "CE"}, {"name": "B-GO5474", "vin": "WDD1760431J516206", "coordinates": [10.00722, 53.6342, 0], "smartPhoneRequired": true, "interior": "GOOD", "exterior": "GOOD", "address": "HH Flughafen P2 Bereich B", "fuel": 96, "engineType": "CE"}, {"name": "B-GO5678", "vin": "WDD1760431J522550", "coordinates": [10.12585, 53.58416, 0], "smartPhoneRequired": true, "interior": "GOOD", "exterior": "GOOD", "address": "Studio Hamburg", "fuel": 88, "engineType": "CE"}, {"name": "B-GO5570", "vin": "WDD1760431J522022", "coordinates": [9.97818, 53.45983, 0], "smartPhoneRequired": true, "interior": "GOOD", "exterior": "GOOD", "address": "Julius-Ludowieg-Stra\u00dfe 20, 21073 Hamburg", "fuel": 66, "engineType": "CE"}, {"name": "B-GO8131", "vin": "WME4533421K087220", "coordinates": [10.01385, 53.5689, 0], "smartPhoneRequired": true, "interior": "GOOD", "exterior": "GOOD", "address": "Sch\u00f6ne Aussicht 12-13, 22085 Hamburg", "fuel": 37, "engineType": "CE"}, {"name": "B-GO8769", "vin": "WME4533421K149511", "coordinates": [9.98605, 53.59493, 0], "smartPhoneRequired": true, "interior": "GOOD", "exterior": "GOOD", "address": "Lokstedter Weg 9-27, 20251 Hamburg", "fuel": 100, "engineType": "CE"}, {"name": "B-GO8770", "vin": "WME4533421K149796", "coordinates": [10.01763, 53.61305, 0], "smartPhoneRequired": true, "interior": "GOOD", "exterior": "GOOD", "address": "Alsterdorfer Str. 379A, 22297 Hamburg", "fuel": 96, "engineType": "CE"}, {"name": "B-GO8768", "vin": "WME4533421K149539", "coordinates": [9.86907, 53.56944, 0], "smartPhoneRequired": true, "interior": "GOOD", "exterior": "GOOD", "address": "Ostermeyerstra\u00dfe 23, 22607 Hamburg", "fuel": 100, "engineType": "CE"}, {"name": "B-GO8767", "vin": "WME4533421K149429", "coordinates": [10.0567, 53.5714, 0], "smartPhoneRequired": true, "interior": "GOOD", "exterior": "GOOD", "address": "R\u00fcckertstra\u00dfe 16-18, 22089 Hamburg", "fuel": 100, "engineType": "CE"}, {"name": "B-GO3691", "vin": "WME4533421K038354", "coordinates": [9.93731, 53.58237, 0], "smartPhoneRequired": true, "interior": "GOOD", "exterior": "GOOD", "address": "Steenwisch 5-11, 22527 Hamburg", "fuel": 81, "engineType": "CE"}, {"name": "B-GO8764", "vin": "WME4533421K149584", "coordinates": [10.08007, 53.57091, 0], "smartPhoneRequired": true, "interior": "GOOD", "exterior": "GOOD", "address": "Bahng\u00e4rten 11, 22041 Hamburg", "fuel": 53, "engineType": "CE"}, {"name": "B-GO8754", "vin": "WME4533421K149978", "coordinates": [10.04538, 53.58368, 0], "smartPhoneRequired": true, "interior": "GOOD", "exterior": "GOOD", "address": "Flachsland 10, 22083 Hamburg", "fuel": 56, "engineType": "CE"}, {"name": "B-GO8753", "vin": "WME4533421K149933", "coordinates": [9.97976, 53.55083, 0], "smartPhoneRequired": true, "interior": "GOOD", "exterior": "GOOD", "address": "Gro\u00dfneumarkt 24A, 20459 Hamburg", "fuel": 100, "engineType": "CE"}, {"name": "B-GO4813", "vin": "WME4533421K073264", "coordinates": [10.09913, 53.54305, 0], "smartPhoneRequired": true, "interior": "GOOD", "exterior": "GOOD", "address": "Hauskoppel 8, 22111 Hamburg", "fuel": 59, "engineType": "CE"}, {"name": "B-GO8751", "vin": "WME4533421K149568", "coordinates": [9.94022, 53.54732, 0], "smartPhoneRequired": true, "interior": "GOOD", "exterior": "GOOD", "address": "Professor-Brix-Weg 6, 22767 Hamburg", "fuel": 50, "engineType": "CE"}, {"name": "B-GO8737", "vin": "WME4533421K149486", "coordinates": [10.04639, 53.57185, 0], "smartPhoneRequired": true, "interior": "GOOD", "exterior": "GOOD", "address": "Eilbektal 11, 22089 Hamburg", "fuel": 100, "engineType": "CE"}, {"name": "B-GO8735", "vin": "WME4533421K149676", "coordinates": [10.1165, 53.5866, 0], "smartPhoneRequired": true, "interior": "GOOD", "exterior": "GOOD", "address": "H\u00fcnefeldstra\u00dfe 2, 22045 Hamburg", "fuel": 37, "engineType": "CE"}, {"name": "B-GO8722", "vin": "WME4533421K149680", "coordinates": [10.05519, 53.59767, 0], "smartPhoneRequired": true, "interior": "GOOD", "exterior": "GOOD", "address": "Oertzweg 35-37, 22307 Hamburg", "fuel": 40, "engineType": "CE"}, {"name": "B-GO8709", "vin": "WME4533421K149989", "coordinates": [9.9667, 53.59306, 0], "smartPhoneRequired": true, "interior": "GOOD", "exterior": "GOOD", "address": "Lokstedter Steindamm 42, 22529 Hamburg", "fuel": 90, "engineType": "CE"}, {"name": "B-GO8705", "vin": "WME4533421K150106", "coordinates": [10.0234, 53.57404, 0], "smartPhoneRequired": true, "interior": "GOOD", "exterior": "GOOD", "address": "Shell-Station, Winterhuder Weg 72, 22085 Hamburg", "fuel": 100, "engineType": "CE"}, {"name": "B-GO8702", "vin": "WME4533421K149517", "coordinates": [10.03306, 53.62157, 0], "smartPhoneRequired": true, "interior": "GOOD", "exterior": "GOOD", "address": "Fuhlsb\u00fcttler Str. 775, 22337 Hamburg", "fuel": 25, "engineType": "CE"}, {"name": "B-GO8699", "vin": "WME4533421K149636", "coordinates": [10.03657, 53.57436, 0], "smartPhoneRequired": true, "interior": "GOOD", "exterior": "GOOD", "address": "Wagnerstra\u00dfe 20, 22081 Hamburg", "fuel": 25, "engineType": "CE"}, {"name": "B-GO8694", "vin": "WME4533421K149731", "coordinates": [10.01274, 53.55927, 0], "smartPhoneRequired": true, "interior": "GOOD", "exterior": "GOOD", "address": "Koppel 92, 20099 Hamburg", "fuel": 100, "engineType": "CE"}, {"name": "B-GO8685", "vin": "WME4533421K149478", "coordinates": [9.97428, 53.45453, 0], "smartPhoneRequired": true, "interior": "GOOD", "exterior": "GOOD", "address": "Baererstra\u00dfe 86, 21073 Hamburg", "fuel": 100, "engineType": "CE"}, {"name": "B-GO8676", "vin": "WME4533421K149781", "coordinates": [10.05883, 53.58033, 0], "smartPhoneRequired": true, "interior": "GOOD", "exterior": "GOOD", "address": "Stra\u00dfburger Str. 6, 22049 Hamburg", "fuel": 25, "engineType": "CE"}, {"name": "B-GO8673", "vin": "WME4533421K149435", "coordinates": [9.97329, 53.46217, 0], "smartPhoneRequired": true, "interior": "GOOD", "exterior": "GOOD", "address": "Bennigsenstra\u00dfe 36, 21073 Hamburg", "fuel": 46, "engineType": "CE"}, {"name": "B-GO8675", "vin": "WME4533421K149900", "coordinates": [9.94477, 53.56409, 0], "smartPhoneRequired": true, "interior": "GOOD", "exterior": "GOOD", "address": "Kieler Str. 9, 22769 Hamburg", "fuel": 65, "engineType": "CE"}, {"name": "B-GO1149", "vin": "WME4533421K149652", "coordinates": [9.93946, 53.57981, 0], "smartPhoneRequired": true, "interior": "GOOD", "exterior": "GOOD", "address": "Langenfelder Damm 35, 20257 Hamburg", "fuel": 56, "engineType": "CE"}, {"name": "B-GO8771", "vin": "WME4533421K149424", "coordinates": [10.03145, 53.62781, 0], "smartPhoneRequired": true, "interior": "GOOD", "exterior": "GOOD", "address": "Struckholt 22-24, 22337 Hamburg", "fuel": 84, "engineType": "CE"}, {"name": "B-GO8096", "vin": "WME4533421K088402", "coordinates": [10.01144, 53.54702, 0], "smartPhoneRequired": true, "interior": "GOOD", "exterior": "GOOD", "address": "H\u00f6gerdamm 15, 20097 Hamburg", "fuel": 96, "engineType": "CE"}, {"name": "B-GO3926", "vin": "WME4533421K150102", "coordinates": [10.00206, 53.54897, 0], "smartPhoneRequired": true, "interior": "GOOD", "exterior": "GOOD", "address": "Burchardstra\u00dfe 5, 20095 Hamburg", "fuel": 100, "engineType": "CE"}, {"name": "B-GO8091", "vin": "WME4533421K087485", "coordinates": [10.04505, 53.57062, 0], "smartPhoneRequired": true, "interior": "GOOD", "exterior": "GOOD", "address": "Auenstra\u00dfe 2, 22089 Hamburg", "fuel": 100, "engineType": "CE"}, {"name": "B-GO1146", "vin": "WME4533421K149380", "coordinates": [9.96004, 53.60994, 0], "smartPhoneRequired": true, "interior": "GOOD", "exterior": "GOOD", "address": "Gro\u00df Borsteler Str. 8-10, 22453 Hamburg", "fuel": 50, "engineType": "CE"}, {"name": "B-GO1129", "vin": "WME4533421K149712", "coordinates": [9.92288, 53.57128, 0], "smartPhoneRequired": true, "interior": "GOOD", "exterior": "GOOD", "address": "Ruhrstra\u00dfe 146, 22761 Hamburg", "fuel": 100, "engineType": "CE"}, {"name": "B-GO1121", "vin": "WME4533421K149403", "coordinates": [10.09658, 53.65344, 0], "smartPhoneRequired": true, "interior": "GOOD", "exterior": "GOOD", "address": "Langenst\u00fccken 21, 22393 Hamburg", "fuel": 65, "engineType": "CE"}, {"name": "B-GO4016", "vin": "WME4533421K149552", "coordinates": [10.00722, 53.6342, 0], "smartPhoneRequired": true, "interior": "GOOD", "exterior": "GOOD", "address": "HH Flughafen P2 Bereich B", "fuel": 65, "engineType": "CE"}, {"name": "B-GO4003", "vin": "WME4533421K149605", "coordinates": [10.0589, 53.59016, 0], "smartPhoneRequired": true, "interior": "GOOD", "exterior": "GOOD", "address": "Habichtstra\u00dfe 30, 22305 Hamburg", "fuel": 28, "engineType": "CE"}, {"name": "B-GO3242", "vin": "WME4533421K149501", "coordinates": [10.0908, 53.65115, 0], "smartPhoneRequired": true, "interior": "GOOD", "exterior": "GOOD", "address": "Grotenbleken 5, 22391 Hamburg", "fuel": 31, "engineType": "CE"}, {"name": "B-GO3186", "vin": "WME4533421K149525", "coordinates": [10.03301, 53.62161, 0], "smartPhoneRequired": true, "interior": "GOOD", "exterior": "GOOD", "address": "Fuhlsb\u00fcttler Str. 775, 22337 Hamburg", "fuel": 71, "engineType": "CE"}, {"name": "B-GO3324", "vin": "WME4533421K149952", "coordinates": [9.97243, 53.61084, 0], "smartPhoneRequired": true, "interior": "GOOD", "exterior": "GOOD", "address": "Borsteler Bogen 5-7, 22453 Hamburg", "fuel": 21, "engineType": "CE"}, {"name": "B-GO8068", "vin": "WME4533421K085177", "coordinates": [10.07238, 53.55636, 0], "smartPhoneRequired": true, "interior": "GOOD", "exterior": "GOOD", "address": "Snitgerreihe 32, 22111 Hamburg", "fuel": 62, "engineType": "CE"}, {"name": "B-GO3815", "vin": "WME4533421K037783", "coordinates": [9.97342, 53.61341, 0], "smartPhoneRequired": true, "interior": "GOOD", "exterior": "GOOD", "address": "Borsteler Chaussee 286, 22453 Hamburg", "fuel": 100, "engineType": "CE"}, {"name": "B-GO4766", "vin": "WME4533421K072270", "coordinates": [10.0787, 53.60453, 0], "smartPhoneRequired": true, "interior": "GOOD", "exterior": "GOOD", "address": "Hegholt 37-43, 22179 Hamburg", "fuel": 37, "engineType": "CE"}, {"name": "B-GO1020", "vin": "WME4533421K039975", "coordinates": [10.09391, 53.65456, 0], "smartPhoneRequired": true, "interior": "GOOD", "exterior": "GOOD", "address": "car2go AEZ", "fuel": 100, "engineType": "CE"}, {"name": "B-GO3463", "vin": "WME4533421K036741", "coordinates": [10.07048, 53.58797, 0], "smartPhoneRequired": true, "interior": "GOOD", "exterior": "GOOD", "address": "Alter Teichweg 167, 22049 Hamburg", "fuel": 100, "engineType": "CE"}, {"name": "B-GO5691", "vin": "WDD1760431J523405", "coordinates": [10.01962, 53.6099, 0], "smartPhoneRequired": true, "interior": "GOOD", "exterior": "GOOD", "address": "Blaukissenstieg 16, 22297 Hamburg", "fuel": 72, "engineType": "CE"}, {"name": "B-GO5473", "vin": "WDD1760431J515863", "coordinates": [10.04587, 53.56264, 0], "smartPhoneRequired": true, "interior": "GOOD", "exterior": "GOOD", "address": "Ritterstra\u00dfe 95, 20535 Hamburg", "fuel": 58, "engineType": "CE"}, {"name": "B-GO5469", "vin": "WDD1760431J514632", "coordinates": [10.06313, 53.57376, 0], "smartPhoneRequired": true, "interior": "GOOD", "exterior": "GOOD", "address": "Wandsbeker K\u00f6nigstra\u00dfe 35, 22041 Hamburg", "fuel": 24, "engineType": "CE"}, {"name": "B-GO4812", "vin": "WME4533421K073501", "coordinates": [10.12389, 53.58869, 0], "smartPhoneRequired": true, "interior": "GOOD", "exterior": "GOOD", "address": "Sonnenweg 15, 22045 Hamburg", "fuel": 87, "engineType": "CE"}, {"name": "B-GO5681", "vin": "WDD1760431J524558", "coordinates": [10.10233, 53.58101, 0], "smartPhoneRequired": true, "interior": "GOOD", "exterior": "GOOD", "address": "\u00d6lm\u00fchlenweg 4, 22047 Hamburg", "fuel": 20, "engineType": "CE"}, {"name": "B-GO4778", "vin": "WME4533421K070760", "coordinates": [10.04261, 53.58942, 0], "smartPhoneRequired": true, "interior": "GOOD", "exterior": "GOOD", "address": "Hufnerstra\u00dfe 103, 22305 Hamburg", "fuel": 34, "engineType": "CE"}, {"name": "B-GO5665", "vin": "WDD1760121J522269", "coordinates": [10.00722, 53.6342, 0], "smartPhoneRequired": true, "interior": "GOOD", "exterior": "GOOD", "address": "HH Flughafen P2 Bereich B", "fuel": 42, "engineType": "CE"}, {"name": "B-GO5619", "vin": "WDC1569121J303199", "coordinates": [10.0722, 53.58475, 0], "smartPhoneRequired": true, "interior": "GOOD", "exterior": "GOOD", "address": "Tarnowitzer Weg 14, 22049 Hamburg", "fuel": 76, "engineType": "CE"}, {"name": "B-GO8182", "vin": "WME4533421K086499", "coordinates": [10.04745, 53.56605, 0], "smartPhoneRequired": true, "interior": "GOOD", "exterior": "GOOD", "address": "Kerstensweg 5, 22089 Hamburg", "fuel": 65, "engineType": "CE"}, {"name": "B-GO3674", "vin": "WME4533421K037703", "coordinates": [10.06535, 53.55464, 0], "smartPhoneRequired": true, "interior": "GOOD", "exterior": "GOOD", "address": "Hammer Berg 34, 20535 Hamburg", "fuel": 100, "engineType": "CE"}, {"name": "B-GO7124", "vin": "WME4533421K087998", "coordinates": [10.09645, 53.57218, 0], "smartPhoneRequired": true, "interior": "GOOD", "exterior": "GOOD", "address": "Rauchstra\u00dfe 88, 22043 Hamburg", "fuel": 18, "engineType": "CE"}, {"name": "B-GO3688", "vin": "WME4533421K037428", "coordinates": [9.92214, 53.56464, 0], "smartPhoneRequired": true, "interior": "GOOD", "exterior": "GOOD", "address": "Beerenweg 8-10, 22761 Hamburg", "fuel": 100, "engineType": "CE"}, {"name": "B-GO3572", "vin": "WME4533421K036309", "coordinates": [10.06325, 53.55861, 0], "smartPhoneRequired": true, "interior": "GOOD", "exterior": "GOOD", "address": "Chapeaurougeweg 22-27, 20535 Hamburg", "fuel": 96, "engineType": "CE"}, {"name": "B-GO5522", "vin": "WDC1569431J294555", "coordinates": [9.943, 53.57767, 0], "smartPhoneRequired": true, "interior": "GOOD", "exterior": "GOOD", "address": "Methfesselstra\u00dfe 26A, 20257 Hamburg", "fuel": 86, "engineType": "CE"}, {"name": "B-GO3148", "vin": "WME4533421K036890", "coordinates": [10.10294, 53.53892, 0], "smartPhoneRequired": true, "interior": "GOOD", "exterior": "GOOD", "address": "Geesthang 8, 22111 Hamburg", "fuel": 81, "engineType": "CE"}, {"name": "B-GO5657", "vin": "WDD1760121J523161", "coordinates": [9.9297, 53.64856, 0], "smartPhoneRequired": true, "interior": "GOOD", "exterior": "GOOD", "address": "Wunderbrunnen 1, 22457 Hamburg", "fuel": 18, "engineType": "CE"}, {"name": "B-GO4822", "vin": "WME4533421K073804", "coordinates": [9.96741, 53.57989, 0], "smartPhoneRequired": true, "interior": "GOOD", "exterior": "GOOD", "address": "Kottwitzstra\u00dfe 46, 20253 Hamburg", "fuel": 28, "engineType": "CE"}, {"name": "B-GO5589", "vin": "WDD1760431J520061", "coordinates": [9.92566, 53.58485, 0], "smartPhoneRequired": true, "interior": "GOOD", "exterior": "GOOD", "address": "Schmalenbrook 5B, 22525 Hamburg", "fuel": 52, "engineType": "CE"}, {"name": "B-GO5679", "vin": "WDD1760431J522308", "coordinates": [10.02733, 53.58513, 0], "smartPhoneRequired": true, "interior": "GOOD", "exterior": "GOOD", "address": "Gro\u00dfheidestra\u00dfe 7, 22303 Hamburg", "fuel": 46, "engineType": "CE"}, {"name": "B-GO8140", "vin": "WME4533421K088382", "coordinates": [10.09449, 53.58121, 0], "smartPhoneRequired": true, "interior": "GOOD", "exterior": "GOOD", "address": "Bei der Hopfenkarre 6-8, 22047 Hamburg", "fuel": 53, "engineType": "CE"}, {"name": "B-GO8217", "vin": "WME4533421K086777", "coordinates": [10.1086, 53.58209, 0], "smartPhoneRequired": true, "interior": "GOOD", "exterior": "GOOD", "address": "Ahrensburger Str. 156, 22045 Hamburg", "fuel": 28, "engineType": "CE"}, {"name": "B-GO5690", "vin": "WDD1760431J524302", "coordinates": [10.02649, 53.549, 0], "smartPhoneRequired": true, "interior": "GOOD", "exterior": "GOOD", "address": "Frankenstra\u00dfe 27-29, 20097 Hamburg", "fuel": 22, "engineType": "CE"}, {"name": "B-GO4754", "vin": "WME4533421K071467", "coordinates": [10.00722, 53.6342, 0], "smartPhoneRequired": true, "interior": "GOOD", "exterior": "GOOD", "address": "HH Flughafen P2 Bereich B", "fuel": 87, "engineType": "CE"}, {"name": "B-GO4260", "vin": "WME4533421K065800", "coordinates": [10.01615, 53.56866, 0], "smartPhoneRequired": true, "interior": "GOOD", "exterior": "GOOD", "address": "Herbert-Weichmann-Stra\u00dfe 2, 22085 Hamburg", "fuel": 31, "engineType": "CE"}, {"name": "B-GO4763", "vin": "WME4533421K072643", "coordinates": [10.0315, 53.55656, 0], "smartPhoneRequired": true, "interior": "GOOD", "exterior": "GOOD", "address": "Burggarten 6-8, 20535 Hamburg", "fuel": 71, "engineType": "CE"}, {"name": "B-GO5595", "vin": "WDD1760431J509752", "coordinates": [10.10098, 53.57653, 0], "smartPhoneRequired": true, "interior": "GOOD", "exterior": "GOOD", "address": "Ziethenstra\u00dfe 18, 22041 Hamburg", "fuel": 90, "engineType": "CE"}, {"name": "B-GO4744", "vin": "WME4533421K070460", "coordinates": [10.02369, 53.57097, 0], "smartPhoneRequired": true, "interior": "GOOD", "exterior": "GOOD", "address": "Averhoffstra\u00dfe 15, 22085 Hamburg", "fuel": 100, "engineType": "CE"}, {"name": "B-GO3658", "vin": "WME4533421K037290", "coordinates": [10.03656, 53.60234, 0], "smartPhoneRequired": true, "interior": "GOOD", "exterior": "GOOD", "address": "Andreas-Knack-Ring 12, 22307 Hamburg", "fuel": 28, "engineType": "CE"}, {"name": "B-GO4708", "vin": "WME4533421K070586", "coordinates": [10.00722, 53.6342, 0], "smartPhoneRequired": true, "interior": "GOOD", "exterior": "GOOD", "address": "HH Flughafen P2 Bereich B", "fuel": 100, "engineType": "CE"}, {"name": "B-GO3803", "vin": "WME4533421K039405", "coordinates": [9.96274, 53.56891, 0], "smartPhoneRequired": true, "interior": "GOOD", "exterior": "GOOD", "address": "Bellealliancestra\u00dfe 67, 20259 Hamburg", "fuel": 100, "engineType": "CE"}, {"name": "B-GO8196", "vin": "WME4533421K088025", "coordinates": [10.00187, 53.54182, 0], "smartPhoneRequired": true, "interior": "GOOD", "exterior": "GOOD", "address": "Hongkongstra\u00dfe 10, 20457 Hamburg", "fuel": 62, "engineType": "CE"}, {"name": "B-GO5710", "vin": "WDC1569431J302231", "coordinates": [9.87153, 53.56153, 0], "smartPhoneRequired": true, "interior": "GOOD", "exterior": "GOOD", "address": "M\u00fcllenhoffweg 60, 22607 Hamburg", "fuel": 20, "engineType": "CE"}, {"name": "B-GO3831", "vin": "WME4533421K039072", "coordinates": [9.96134, 53.61265, 0], "smartPhoneRequired": true, "interior": "GOOD", "exterior": "GOOD", "address": "Papenreye 21, 22453 Hamburg", "fuel": 50, "engineType": "CE"}, {"name": "B-GO5482", "vin": "WDD1760431J516666", "coordinates": [10.00722, 53.6342, 0], "smartPhoneRequired": true, "interior": "GOOD", "exterior": "GOOD", "address": "HH Flughafen P2 Bereich B", "fuel": 64, "engineType": "CE"}, {"name": "B-GO8706", "vin": "WME4533421K147046", "coordinates": [10.00722, 53.6342, 0], "smartPhoneRequired": true, "interior": "GOOD", "exterior": "GOOD", "address": "HH Flughafen P2 Bereich B", "fuel": 40, "engineType": "CE"}, {"name": "B-GO4524", "vin": "WME4533421K070269", "coordinates": [10.0579, 53.59307, 0], "smartPhoneRequired": true, "interior": "GOOD", "exterior": "GOOD", "address": "Bramfelder Str. 151, 22305 Hamburg", "fuel": 43, "engineType": "CE"}, {"name": "B-GO4733", "vin": "WME4533421K069938", "coordinates": [10.01108, 53.60933, 0], "smartPhoneRequired": true, "interior": "GOOD", "exterior": "GOOD", "address": "Alsterdorfer Str. 303, 22297 Hamburg", "fuel": 68, "engineType": "CE"}, {"name": "B-GO3542", "vin": "WME4533421K037196", "coordinates": [9.97029, 53.45831, 0], "smartPhoneRequired": true, "interior": "GOOD", "exterior": "GOOD", "address": "Julius-Ludowieg-Stra\u00dfe 81, 21073 Hamburg", "fuel": 100, "engineType": "CE"}, {"name": "B-GO5463", "vin": "WDD1760431J514679", "coordinates": [10.04807, 53.56533, 0], "smartPhoneRequired": true, "interior": "GOOD", "exterior": "GOOD", "address": "Papenstra\u00dfe 99C, 22089 Hamburg", "fuel": 64, "engineType": "CE"}, {"name": "B-GO8173", "vin": "WME4533421K085581", "coordinates": [9.9296, 53.64825, 0], "smartPhoneRequired": true, "interior": "GOOD", "exterior": "GOOD", "address": "Wunderbrunnen 1, 22457 Hamburg", "fuel": 100, "engineType": "CE"}, {"name": "B-GO3824", "vin": "WME4533421K039639", "coordinates": [9.91923, 53.5539, 0], "smartPhoneRequired": true, "interior": "GOOD", "exterior": "GOOD", "address": "Behringstra\u00dfe 47, 22763 Hamburg", "fuel": 59, "engineType": "CE"}, {"name": "B-GO5620", "vin": "WDC1569121J301706", "coordinates": [9.95822, 53.46435, 0], "smartPhoneRequired": true, "interior": "GOOD", "exterior": "GOOD", "address": "Heimfelder Str. 34, 21075 Hamburg", "fuel": 92, "engineType": "CE"}, {"name": "B-GO8749", "vin": "WME4533421K149249", "coordinates": [9.92235, 53.58661, 0], "smartPhoneRequired": true, "interior": "GOOD", "exterior": "GOOD", "address": "F\u00f6rsterweg 144, 22525 Hamburg", "fuel": 93, "engineType": "CE"}, {"name": "B-GO5675", "vin": "WDD1760431J523990", "coordinates": [9.97784, 53.6095, 0], "smartPhoneRequired": true, "interior": "GOOD", "exterior": "GOOD", "address": "Koldeweystra\u00dfe 14-18, 22453 Hamburg", "fuel": 96, "engineType": "CE"}, {"name": "B-GO5644", "vin": "WDD1760121J524321", "coordinates": [10.01218, 53.62327, 0], "smartPhoneRequired": true, "interior": "GOOD", "exterior": "GOOD", "address": "Philips", "fuel": 86, "engineType": "CE"}, {"name": "B-GO3614", "vin": "WME4533421K035808", "coordinates": [10.00722, 53.6342, 0], "smartPhoneRequired": true, "interior": "GOOD", "exterior": "GOOD", "address": "HH Flughafen P2 Bereich B", "fuel": 34, "engineType": "CE"}, {"name": "B-GO5714", "vin": "WDC1569431J301745", "coordinates": [9.97253, 53.45794, 0], "smartPhoneRequired": true, "interior": "GOOD", "exterior": "GOOD", "address": "Marienstra\u00dfe 54, 21073 Hamburg", "fuel": 84, "engineType": "CE"}, {"name": "B-GO4626", "vin": "WME4533421K071262", "coordinates": [10.04052, 53.56137, 0], "smartPhoneRequired": true, "interior": "GOOD", "exterior": "GOOD", "address": "Marienthaler Str. 30, 20535 Hamburg", "fuel": 100, "engineType": "CE"}, {"name": "B-GO6729", "vin": "WME4533421K147833", "coordinates": [9.80375, 53.5597, 0], "smartPhoneRequired": true, "interior": "GOOD", "exterior": "GOOD", "address": "Blankeneser Hauptstra\u00dfe 46, 22587 Hamburg", "fuel": 93, "engineType": "CE"}, {"name": "B-GO3543", "vin": "WME4533421K036540", "coordinates": [10.00205, 53.5488, 0], "smartPhoneRequired": true, "interior": "GOOD", "exterior": "GOOD", "address": "Burchardstra\u00dfe 5, 20095 Hamburg", "fuel": 46, "engineType": "CE"}, {"name": "B-GO4284", "vin": "WME4533421K065109", "coordinates": [9.96171, 53.46275, 0], "smartPhoneRequired": true, "interior": "GOOD", "exterior": "GOOD", "address": "Haakestra\u00dfe 41, 21075 Hamburg", "fuel": 28, "engineType": "CE"}, {"name": "B-GO5568", "vin": "WDD1760431J522086", "coordinates": [9.95534, 53.59112, 0], "smartPhoneRequired": true, "interior": "GOOD", "exterior": "GOOD", "address": "Lohkoppelweg 11, 22529 Hamburg", "fuel": 64, "engineType": "CE"}, {"name": "B-GO4719", "vin": "WME4533421K071319", "coordinates": [10.00722, 53.6342, 0], "smartPhoneRequired": true, "interior": "GOOD", "exterior": "GOOD", "address": "HH Flughafen P2 Bereich B", "fuel": 25, "engineType": "CE"}, {"name": "B-GO8748", "vin": "WME4533421K149125", "coordinates": [9.94002, 53.58326, 0], "smartPhoneRequired": true, "interior": "GOOD", "exterior": "GOOD", "address": "Jaguarstieg 17, 22527 Hamburg", "fuel": 100, "engineType": "CE"}, {"name": "B-GO3532", "vin": "WME4533421K035447", "coordinates": [10.06749, 53.61617, 0], "smartPhoneRequired": true, "interior": "GOOD", "exterior": "GOOD", "address": "Borchertring 4, 22309 Hamburg", "fuel": 40, "engineType": "CE"}, {"name": "B-GO3685", "vin": "WME4533421K038756", "coordinates": [10.02083, 53.56743, 0], "smartPhoneRequired": true, "interior": "GOOD", "exterior": "GOOD", "address": "Erlenkamp 8, 22087 Hamburg", "fuel": 78, "engineType": "CE"}, {"name": "B-GO8070", "vin": "WME4533421K088037", "coordinates": [10.10571, 53.56979, 0], "smartPhoneRequired": true, "interior": "GOOD", "exterior": "GOOD", "address": "Holstenhofweg 81, 22043 Hamburg", "fuel": 96, "engineType": "CE"}, {"name": "B-GO4836", "vin": "WME4533421K076044", "coordinates": [10.02386, 53.56545, 0], "smartPhoneRequired": true, "interior": "GOOD", "exterior": "GOOD", "address": "Armgartstra\u00dfe 28, 22087 Hamburg", "fuel": 37, "engineType": "CE"}, {"name": "B-GO1063", "vin": "WME4533421K040109", "coordinates": [9.81493, 53.56276, 0], "smartPhoneRequired": true, "interior": "GOOD", "exterior": "GOOD", "address": "Ole Hoop 2, 22587 Hamburg", "fuel": 100, "engineType": "CE"}, {"name": "B-GO4825", "vin": "WME4533421K075014", "coordinates": [9.92732, 53.6472, 0], "smartPhoneRequired": true, "interior": "GOOD", "exterior": "GOOD", "address": "IKEA Schnelsen - Parkbereich A3", "fuel": 62, "engineType": "CE"}, {"name": "B-GO5653", "vin": "WDD1760121J523930", "coordinates": [9.96601, 53.57574, 0], "smartPhoneRequired": true, "interior": "GOOD", "exterior": "GOOD", "address": "Goebenstra\u00dfe 3, 20253 Hamburg", "fuel": 66, "engineType": "CE"}, {"name": "B-GO5489", "vin": "WDD1760431J513858", "coordinates": [9.92125, 53.47198, 0], "smartPhoneRequired": true, "interior": "GOOD", "exterior": "GOOD", "address": "Am Radeland 124, 21079 Hamburg", "fuel": 18, "engineType": "CE"}, {"name": "B-GO1084", "vin": "WME4533421K040362", "coordinates": [10.03977, 53.55794, 0], "smartPhoneRequired": true, "interior": "GOOD", "exterior": "GOOD", "address": "Bethesdastra\u00dfe 46, 20535 Hamburg", "fuel": 100, "engineType": "CE"}, {"name": "B-GO5556", "vin": "WDD1760121J521307", "coordinates": [10.21234, 53.48671, 0], "smartPhoneRequired": true, "interior": "GOOD", "exterior": "GOOD", "address": "Bergedorfer Str. 128, 21029 Hamburg", "fuel": 80, "engineType": "CE"}, {"name": "B-GO5648", "vin": "WDD1760121J524067", "coordinates": [9.976, 53.45841, 0], "smartPhoneRequired": true, "interior": "GOOD", "exterior": "GOOD", "address": "Marienstra\u00dfe 28-30, 21073 Hamburg", "fuel": 98, "engineType": "CE"}, {"name": "B-GO8198", "vin": "WME4533421K088080", "coordinates": [9.89857, 53.57176, 0], "smartPhoneRequired": true, "interior": "GOOD", "exterior": "GOOD", "address": "August-Kirch-Stra\u00dfe 6, 22525 Hamburg", "fuel": 40, "engineType": "CE"}, {"name": "B-GO4279", "vin": "WME4533421K063139", "coordinates": [9.91492, 53.54424, 0], "smartPhoneRequired": true, "interior": "GOOD", "exterior": "GOOD", "address": "Neum\u00fchlen 51, 22763 Hamburg", "fuel": 100, "engineType": "CE"}, {"name": "B-GO1126", "vin": "WME4533421K149351", "coordinates": [9.92367, 53.58662, 0], "smartPhoneRequired": true, "interior": "GOOD", "exterior": "GOOD", "address": "F\u00f6rsterweg 118C, 22525 Hamburg", "fuel": 100, "engineType": "CE"}, {"name": "B-GO8105", "vin": "WME4533421K084964", "coordinates": [10.01913, 53.56592, 0], "smartPhoneRequired": true, "interior": "GOOD", "exterior": "GOOD", "address": "Hartwicusstra\u00dfe 7, 22087 Hamburg", "fuel": 50, "engineType": "CE"}, {"name": "B-GO8168", "vin": "WME4533421K088491", "coordinates": [10.00722, 53.6342, 0], "smartPhoneRequired": true, "interior": "GOOD", "exterior": "GOOD", "address": "HH Flughafen P2 Bereich B", "fuel": 68, "engineType": "CE"}, {"name": "B-GO8089", "vin": "WME4533421K087246", "coordinates": [10.11712, 53.58576, 0], "smartPhoneRequired": true, "interior": "GOOD", "exterior": "GOOD", "address": "Sonnenredder 18, 22045 Hamburg", "fuel": 50, "engineType": "CE"}, {"name": "B-GO3784", "vin": "WME4533421K039738", "coordinates": [9.94728, 53.62131, 0], "smartPhoneRequired": true, "interior": "GOOD", "exterior": "GOOD", "address": "Max-Zelck-Stra\u00dfe 10, 22459 Hamburg", "fuel": 71, "engineType": "CE"}, {"name": "B-GO5535", "vin": "WDD1760431J516634", "coordinates": [10.10283, 53.57341, 0], "smartPhoneRequired": true, "interior": "GOOD", "exterior": "GOOD", "address": "Rauchstra\u00dfe 124, 22043 Hamburg", "fuel": 94, "engineType": "CE"}, {"name": "B-GO8216", "vin": "WME4533421K086439", "coordinates": [9.79313, 53.56256, 0], "smartPhoneRequired": true, "interior": "GOOD", "exterior": "GOOD", "address": "Falkentaler Weg 12, 22587 Hamburg", "fuel": 75, "engineType": "CE"}, {"name": "B-GO1049", "vin": "WME4533421K040075", "coordinates": [10.05624, 53.58609, 0], "smartPhoneRequired": true, "interior": "GOOD", "exterior": "GOOD", "address": "Dohlenweg 17, 22305 Hamburg", "fuel": 87, "engineType": "CE"}, {"name": "B-GO5583", "vin": "WDD1760431J521443", "coordinates": [10.05285, 53.60583, 0], "smartPhoneRequired": true, "interior": "GOOD", "exterior": "GOOD", "address": "Hermann-Buck-Weg 8-10, 22309 Hamburg", "fuel": 54, "engineType": "CE"}, {"name": "B-GO4659", "vin": "WME4533421K070887", "coordinates": [9.9649, 53.59978, 0], "smartPhoneRequired": true, "interior": "GOOD", "exterior": "GOOD", "address": "Osterfeldstra\u00dfe 88, 22529 Hamburg", "fuel": 50, "engineType": "CE"}, {"name": "B-GO4823", "vin": "WME4533421K074352", "coordinates": [10.07214, 53.55639, 0], "smartPhoneRequired": true, "interior": "GOOD", "exterior": "GOOD", "address": "Snitgerreihe 32, 22111 Hamburg", "fuel": 100, "engineType": "CE"}, {"name": "B-GO8729", "vin": "WME4533421K148042", "coordinates": [10.01877, 53.56158, 0], "smartPhoneRequired": true, "interior": "GOOD", "exterior": "GOOD", "address": "Ackermannstra\u00dfe 18-20, 22087 Hamburg", "fuel": 50, "engineType": "CE"}, {"name": "B-GO4796", "vin": "WME4533421K072594", "coordinates": [10.04357, 53.61197, 0], "smartPhoneRequired": true, "interior": "GOOD", "exterior": "GOOD", "address": "Kerbelweg 36, 22337 Hamburg", "fuel": 34, "engineType": "CE"}, {"name": "B-GO1019", "vin": "WME4533421K039971", "coordinates": [9.94598, 53.56937, 0], "smartPhoneRequired": true, "interior": "GOOD", "exterior": "GOOD", "address": "\u00d6velg\u00f6nner Str. 26-28, 20257 Hamburg", "fuel": 100, "engineType": "CE"}, {"name": "B-GO5453", "vin": "WDD1760121J515185", "coordinates": [10.03305, 53.62751, 0], "smartPhoneRequired": true, "interior": "GOOD", "exterior": "GOOD", "address": "Wellingsb\u00fctteler Landstra\u00dfe 41, 22337 Hamburg", "fuel": 60, "engineType": "CE"}, {"name": "B-GO3638", "vin": "WME4533421K036790", "coordinates": [9.92175, 53.472, 0], "smartPhoneRequired": true, "interior": "GOOD", "exterior": "GOOD", "address": "Am Radeland 124, 21079 Hamburg", "fuel": 62, "engineType": "CE"}, {"name": "B-GO3798", "vin": "WME4533421K037874", "coordinates": [10.12208, 53.58647, 0], "smartPhoneRequired": true, "interior": "GOOD", "exterior": "GOOD", "address": "Stein-Hardenberg-Stra\u00dfe 65, 22045 Hamburg", "fuel": 100, "engineType": "CE"}, {"name": "B-GO8128", "vin": "WME4533421K086946", "coordinates": [10.00722, 53.6342, 0], "smartPhoneRequired": true, "interior": "GOOD", "exterior": "GOOD", "address": "HH Flughafen P2 Bereich B", "fuel": 100, "engineType": "CE"}, {"name": "B-GO5641", "vin": "WDD1760121J523590", "coordinates": [9.98751, 53.57886, 0], "smartPhoneRequired": true, "interior": "GOOD", "exterior": "GOOD", "address": "Innocentiastra\u00dfe 10, 20149 Hamburg", "fuel": 92, "engineType": "CE"}, {"name": "B-GO5496", "vin": "WDD1760431J515511", "coordinates": [10.00722, 53.6342, 0], "smartPhoneRequired": true, "interior": "GOOD", "exterior": "GOOD", "address": "HH Flughafen P2 Bereich B", "fuel": 34, "engineType": "CE"}, {"name": "B-GO4967", "vin": "WME4533421K075734", "coordinates": [10.10262, 53.57004, 0], "smartPhoneRequired": true, "interior": "GOOD", "exterior": "GOOD", "address": "Rodigallee 68, 22043 Hamburg", "fuel": 81, "engineType": "CE"}, {"name": "B-GO4725", "vin": "WME4533421K071926", "coordinates": [10.00722, 53.6342, 0], "smartPhoneRequired": true, "interior": "GOOD", "exterior": "GOOD", "address": "HH Flughafen P2 Bereich B", "fuel": 56, "engineType": "CE"}, {"name": "B-GO5602", "vin": "WDC1569431J292350", "coordinates": [9.80005, 53.56103, 0], "smartPhoneRequired": true, "interior": "GOOD", "exterior": "GOOD", "address": "Wilmans Park 2, 22587 Hamburg", "fuel": 76, "engineType": "CE"}, {"name": "B-GO5634", "vin": "WDD1760121J522232", "coordinates": [9.96084, 53.59384, 0], "smartPhoneRequired": true, "interior": "GOOD", "exterior": "GOOD", "address": "Brunsberg 37, 22529 Hamburg", "fuel": 72, "engineType": "CE"}, {"name": "B-GO5656", "vin": "WDD1760121J522729", "coordinates": [10.03837, 53.61554, 0], "smartPhoneRequired": true, "interior": "GOOD", "exterior": "GOOD", "address": "Ilandkoppel 68, 22337 Hamburg", "fuel": 14, "engineType": "CE"}, {"name": "B-GO5660", "vin": "WDD1760121J523692", "coordinates": [10.06631, 53.60274, 0], "smartPhoneRequired": true, "interior": "GOOD", "exterior": "GOOD", "address": "Teerosenweg 38, 22177 Hamburg", "fuel": 28, "engineType": "CE"}, {"name": "B-GO4788", "vin": "WME4533421K071435", "coordinates": [10.08752, 53.58673, 0], "smartPhoneRequired": true, "interior": "GOOD", "exterior": "GOOD", "address": "Friedrich-Ebert-Damm 74, 22047 Hamburg", "fuel": 100, "engineType": "CE"}, {"name": "B-GO5673", "vin": "WDD1760431J524578", "coordinates": [10.0607, 53.59482, 0], "smartPhoneRequired": true, "interior": "GOOD", "exterior": "GOOD", "address": "Bramfelder Chaussee 28, 22177 Hamburg", "fuel": 88, "engineType": "CE"}, {"name": "B-GO5617", "vin": "WDC1569121J301762", "coordinates": [10.09351, 53.58825, 0], "smartPhoneRequired": true, "interior": "GOOD", "exterior": "GOOD", "address": "Friedrich-Ebert-Damm 117, 22047 Hamburg", "fuel": 80, "engineType": "CE"}, {"name": "B-GO5613", "vin": "WDC1569431J291578", "coordinates": [10.02566, 53.55562, 0], "smartPhoneRequired": true, "interior": "GOOD", "exterior": "GOOD", "address": "Bei der Hauptfeuerwache 1, 20099 Hamburg", "fuel": 94, "engineType": "CE"}, {"name": "B-GO5663", "vin": "WDD1760121J523535", "coordinates": [10.09833, 53.56587, 0], "smartPhoneRequired": true, "interior": "GOOD", "exterior": "GOOD", "address": "Oktaviostra\u00dfe 99-102, 22043 Hamburg", "fuel": 76, "engineType": "CE"}, {"name": "B-GO8201", "vin": "WME4533421K087991", "coordinates": [9.93412, 53.54935, 0], "smartPhoneRequired": true, "interior": "GOOD", "exterior": "GOOD", "address": "Braunschweiger Str. 8, 22765 Hamburg", "fuel": 62, "engineType": "CE"}, {"name": "B-GO4526", "vin": "WME4533421K070909", "coordinates": [10.0445, 53.59919, 0], "smartPhoneRequired": true, "interior": "GOOD", "exterior": "GOOD", "address": "Langenfort 48, 22307 Hamburg", "fuel": 100, "engineType": "CE"}, {"name": "B-GO8122", "vin": "WME4533421K086582", "coordinates": [10.09498, 53.6533, 0], "smartPhoneRequired": true, "interior": "GOOD", "exterior": "GOOD", "address": "Langenst\u00fccken 19, 22393 Hamburg", "fuel": 40, "engineType": "CE"}, {"name": "B-GO5558", "vin": "WDD1760121J520642", "coordinates": [10.06596, 53.59515, 0], "smartPhoneRequired": true, "interior": "GOOD", "exterior": "GOOD", "address": "Sauerampferweg 6, 22179 Hamburg", "fuel": 86, "engineType": "CE"}, {"name": "B-GO3672", "vin": "WME4533421K036986", "coordinates": [10.04393, 53.59902, 0], "smartPhoneRequired": true, "interior": "GOOD", "exterior": "GOOD", "address": "Langenfort 12, 22307 Hamburg", "fuel": 100, "engineType": "CE"}, {"name": "B-GO1034", "vin": "WME4533421K040014", "coordinates": [9.93883, 53.58181, 0], "smartPhoneRequired": true, "interior": "GOOD", "exterior": "GOOD", "address": "H\u00f6genstra\u00dfe 60, 22527 Hamburg", "fuel": 100, "engineType": "CE"}, {"name": "B-GO3832", "vin": "WME4533421K037953", "coordinates": [10.09318, 53.54076, 0], "smartPhoneRequired": true, "interior": "GOOD", "exterior": "GOOD", "address": "Kolumbusstra\u00dfe 12, 22113 Hamburg", "fuel": 100, "engineType": "CE"}, {"name": "B-GO5590", "vin": "WDD1760431J520353", "coordinates": [10.12393, 53.58913, 0], "smartPhoneRequired": true, "interior": "GOOD", "exterior": "GOOD", "address": "Sonnenweg 28, 22045 Hamburg", "fuel": 14, "engineType": "CE"}, {"name": "B-GO8219", "vin": "WME4533421K086962", "coordinates": [10.02756, 53.57535, 0], "smartPhoneRequired": true, "interior": "GOOD", "exterior": "GOOD", "address": "Beim Alten Sch\u00fctzenhof 3, 22083 Hamburg", "fuel": 87, "engineType": "CE"}, {"name": "B-GO5585", "vin": "WDD1760431J521937", "coordinates": [10.06525, 53.57478, 0], "smartPhoneRequired": true, "interior": "GOOD", "exterior": "GOOD", "address": "Von-Hein-Stra\u00dfe 34, 22041 Hamburg", "fuel": 98, "engineType": "CE"}, {"name": "B-GO4548", "vin": "WME4533421K072231", "coordinates": [9.92001, 53.56265, 0], "smartPhoneRequired": true, "interior": "GOOD", "exterior": "GOOD", "address": "Daimlerstra\u00dfe 71-73, 22761 Hamburg", "fuel": 100, "engineType": "CE"}, {"name": "B-GO8078", "vin": "WME4533421K086216", "coordinates": [10.02973, 53.54516, 0], "smartPhoneRequired": true, "interior": "GOOD", "exterior": "GOOD", "address": "S\u00fcderstra\u00dfe 83, 20097 Hamburg", "fuel": 100, "engineType": "CE"}, {"name": "B-GO8094", "vin": "WME4533421K087268", "coordinates": [10.03256, 53.55828, 0], "smartPhoneRequired": true, "interior": "GOOD", "exterior": "GOOD", "address": "Hinrichsenstra\u00dfe 1, 20535 Hamburg", "fuel": 100, "engineType": "CE"}, {"name": "B-GO5518", "vin": "WDC1569121J297184", "coordinates": [9.79323, 53.56249, 0], "smartPhoneRequired": true, "interior": "GOOD", "exterior": "GOOD", "address": "Falkentaler Weg 12, 22587 Hamburg", "fuel": 28, "engineType": "CE"}, {"name": "B-GO5621", "vin": "WDC1569121J301628", "coordinates": [9.95099, 53.45986, 0], "smartPhoneRequired": true, "interior": "GOOD", "exterior": "GOOD", "address": "Ei\u00dfendorfer Pferdeweg 69, 21075 Hamburg", "fuel": 48, "engineType": "CE"}, {"name": "B-GO3809", "vin": "WME4533421K039860", "coordinates": [9.96148, 53.55851, 0], "smartPhoneRequired": true, "interior": "GOOD", "exterior": "GOOD", "address": "Lerchenstra\u00dfe 76, 22767 Hamburg", "fuel": 100, "engineType": "CE"}, {"name": "B-GO4334", "vin": "WME4533421K063299", "coordinates": [10.068, 53.58318, 0], "smartPhoneRequired": true, "interior": "GOOD", "exterior": "GOOD", "address": "Oberschlesische Str. 28A, 22049 Hamburg", "fuel": 62, "engineType": "CE"}, {"name": "B-GO1132", "vin": "WME4533421K150183", "coordinates": [10.10922, 53.54332, 0], "smartPhoneRequired": true, "interior": "GOOD", "exterior": "GOOD", "address": "Gothaer Weg 12, 22119 Hamburg", "fuel": 31, "engineType": "CE"}, {"name": "B-GO3518", "vin": "WME4533421K035384", "coordinates": [9.91522, 53.54601, 0], "smartPhoneRequired": true, "interior": "GOOD", "exterior": "GOOD", "address": "Elbchaussee 133, 22763 Hamburg", "fuel": 18, "engineType": "CE"}, {"name": "B-GO8223", "vin": "WME4533421K088128", "coordinates": [9.90099, 53.5547, 0], "smartPhoneRequired": true, "interior": "GOOD", "exterior": "GOOD", "address": "Asklepios Altona", "fuel": 34, "engineType": "CE"}, {"name": "B-GO3465", "vin": "WME4533421K035523", "coordinates": [10.06677, 53.60562, 0], "smartPhoneRequired": true, "interior": "GOOD", "exterior": "GOOD", "address": "Fabriciusstra\u00dfe 149-151, 22177 Hamburg", "fuel": 100, "engineType": "CE"}, {"name": "B-GO8101", "vin": "WME4533421K088607", "coordinates": [9.924, 53.56929, 0], "smartPhoneRequired": true, "interior": "GOOD", "exterior": "GOOD", "address": "Ruhrstra\u00dfe 116, 22761 Hamburg", "fuel": 84, "engineType": "CE"}, {"name": "B-GO4331", "vin": "WME4533421K065826", "coordinates": [9.96854, 53.584, 0], "smartPhoneRequired": true, "interior": "GOOD", "exterior": "GOOD", "address": "G\u00e4rtnerstra\u00dfe 16, 20253 Hamburg", "fuel": 53, "engineType": "CE"}, {"name": "B-GO4557", "vin": "WME4533421K070768", "coordinates": [9.932, 53.54721, 0], "smartPhoneRequired": true, "interior": "GOOD", "exterior": "GOOD", "address": "Klopstockpl. 11, 22765 Hamburg", "fuel": 18, "engineType": "CE"}, {"name": "B-GO4278", "vin": "WME4533421K063130", "coordinates": [9.98115, 53.57143, 0], "smartPhoneRequired": true, "interior": "GOOD", "exterior": "GOOD", "address": "Heinrich-Barth-Stra\u00dfe 18, 20146 Hamburg", "fuel": 46, "engineType": "CE"}, {"name": "B-GO5635", "vin": "WDD1760121J522503", "coordinates": [9.94306, 53.62275, 0], "smartPhoneRequired": true, "interior": "GOOD", "exterior": "GOOD", "address": "Bindfeldweg 13, 22459 Hamburg", "fuel": 42, "engineType": "CE"}, {"name": "B-GO5567", "vin": "WDD1760121J520235", "coordinates": [10.03904, 53.55873, 0], "smartPhoneRequired": true, "interior": "GOOD", "exterior": "GOOD", "address": "Burgstra\u00dfe 49, 20535 Hamburg", "fuel": 100, "engineType": "CE"}, {"name": "B-GO5704", "vin": "WDC1569431J302479", "coordinates": [9.99485, 53.60097, 0], "smartPhoneRequired": true, "interior": "GOOD", "exterior": "GOOD", "address": "switchh Lattenkamp", "fuel": 98, "engineType": "CE"}, {"name": "B-GO8054", "vin": "WME4533421K086511", "coordinates": [10.01513, 53.62697, 0], "smartPhoneRequired": true, "interior": "GOOD", "exterior": "GOOD", "address": "Ratsm\u00fchlendamm 67, 22335 Hamburg", "fuel": 96, "engineType": "CE"}, {"name": "B-GO4639", "vin": "WME4533421K072411", "coordinates": [9.98718, 53.57431, 0], "smartPhoneRequired": true, "interior": "GOOD", "exterior": "GOOD", "address": "Hansastra\u00dfe 26, 20149 Hamburg", "fuel": 18, "engineType": "CE"}, {"name": "B-GO8121", "vin": "WME4533421K086259", "coordinates": [9.97164, 53.59928, 0], "smartPhoneRequired": true, "interior": "GOOD", "exterior": "GOOD", "address": "Offakamp 3, 22529 Hamburg", "fuel": 100, "engineType": "CE"}, {"name": "B-GO4504", "vin": "WME4533421K071403", "coordinates": [9.89523, 53.55505, 0], "smartPhoneRequired": true, "interior": "GOOD", "exterior": "GOOD", "address": "R\u00f6pers Weide 19, 22605 Hamburg", "fuel": 56, "engineType": "CE"}, {"name": "B-GO5683", "vin": "WDD1760431J524263", "coordinates": [10.00156, 53.54381, 0], "smartPhoneRequired": true, "interior": "GOOD", "exterior": "GOOD", "address": "Shanghaiallee 7, 20457 Hamburg", "fuel": 40, "engineType": "CE"}, {"name": "B-GO4336", "vin": "WME4533421K063007", "coordinates": [9.97117, 53.5859, 0], "smartPhoneRequired": true, "interior": "GOOD", "exterior": "GOOD", "address": "Falkenried 88E, 20251 Hamburg", "fuel": 12, "engineType": "CE"}, {"name": "B-GO4502", "vin": "WME4533421K071712", "coordinates": [10.09397, 53.58781, 0], "smartPhoneRequired": true, "interior": "GOOD", "exterior": "GOOD", "address": "Friedrich-Ebert-Damm 120, 22047 Hamburg", "fuel": 59, "engineType": "CE"}, {"name": "B-GO4658", "vin": "WME4533421K070961", "coordinates": [10.00473, 53.60137, 0], "smartPhoneRequired": true, "interior": "GOOD", "exterior": "GOOD", "address": "Dreist\u00fccken 9, 22297 Hamburg", "fuel": 59, "engineType": "CE"}, {"name": "B-GO4814", "vin": "WME4533421K073596", "coordinates": [10.02263, 53.5915, 0], "smartPhoneRequired": true, "interior": "GOOD", "exterior": "GOOD", "address": "S\u00fcdring 40, 22303 Hamburg", "fuel": 96, "engineType": "CE"}, {"name": "B-GO3549", "vin": "WME4533421K037576", "coordinates": [10.05939, 53.55228, 0], "smartPhoneRequired": true, "interior": "GOOD", "exterior": "GOOD", "address": "H\u00fcbbesweg 29, 20537 Hamburg", "fuel": 34, "engineType": "CE"}, {"name": "B-GO5512", "vin": "WDD1760431J516299", "coordinates": [10.0455, 53.56439, 0], "smartPhoneRequired": true, "interior": "GOOD", "exterior": "GOOD", "address": "Ritterstra\u00dfe 61, 22089 Hamburg", "fuel": 28, "engineType": "CE"}, {"name": "B-GO5664", "vin": "WDD1760121J524010", "coordinates": [9.92934, 53.5734, 0], "smartPhoneRequired": true, "interior": "GOOD", "exterior": "GOOD", "address": "Marlowring 21, 22525 Hamburg", "fuel": 100, "engineType": "CE"}, {"name": "B-GO4834", "vin": "WME4533421K076007", "coordinates": [10.06513, 53.55477, 0], "smartPhoneRequired": true, "interior": "GOOD", "exterior": "GOOD", "address": "Hammer Berg 36, 20535 Hamburg", "fuel": 84, "engineType": "CE"}, {"name": "B-GO4843", "vin": "WME4533421K073087", "coordinates": [9.94909, 53.62319, 0], "smartPhoneRequired": true, "interior": "GOOD", "exterior": "GOOD", "address": "Max-Zelck-Stra\u00dfe 28, 22459 Hamburg", "fuel": 62, "engineType": "CE"}, {"name": "B-GO4689", "vin": "WME4533421K071066", "coordinates": [9.91621, 53.5656, 0], "smartPhoneRequired": true, "interior": "GOOD", "exterior": "GOOD", "address": "Valparaisostra\u00dfe 12, 22761 Hamburg", "fuel": 93, "engineType": "CE"}, {"name": "B-GO4283", "vin": "WME4533421K064495", "coordinates": [10.05471, 53.60144, 0], "smartPhoneRequired": true, "interior": "GOOD", "exterior": "GOOD", "address": "Richeystra\u00dfe 55, 22309 Hamburg", "fuel": 43, "engineType": "CE"}, {"name": "B-GO5536", "vin": "WDD1760431J517876", "coordinates": [9.99899, 53.54437, 0], "smartPhoneRequired": true, "interior": "GOOD", "exterior": "GOOD", "address": "Brooktorkai 18, 20457 Hamburg", "fuel": 44, "engineType": "CE"}, {"name": "B-GO3141", "vin": "WME4533421K036603", "coordinates": [10.06589, 53.55637, 0], "smartPhoneRequired": true, "interior": "GOOD", "exterior": "GOOD", "address": "Mettlerkampsweg 8, 20535 Hamburg", "fuel": 100, "engineType": "CE"}, {"name": "B-GO3362", "vin": "WME4533421K150223", "coordinates": [10.00722, 53.6342, 0], "smartPhoneRequired": true, "interior": "GOOD", "exterior": "GOOD", "address": "HH Flughafen P2 Bereich B", "fuel": 87, "engineType": "CE"}, {"name": "B-GO1097", "vin": "WME4533421K146910", "coordinates": [10.0326, 53.61542, 0], "smartPhoneRequired": true, "interior": "GOOD", "exterior": "GOOD", "address": "R\u00fcbenkamp 334, 22337 Hamburg", "fuel": 37, "engineType": "CE"}, {"name": "B-GO1116", "vin": "WME4533421K147894", "coordinates": [10.08997, 53.6511, 0], "smartPhoneRequired": true, "interior": "GOOD", "exterior": "GOOD", "address": "Grotenbleken 7, 22391 Hamburg", "fuel": 31, "engineType": "CE"}, {"name": "B-GO1134", "vin": "WME4533421K150370", "coordinates": [10.01524, 53.61232, 0], "smartPhoneRequired": true, "interior": "GOOD", "exterior": "GOOD", "address": "Alsterdorfer Str. 365, 22297 Hamburg", "fuel": 100, "engineType": "CE"}, {"name": "B-GO1143", "vin": "WME4533421K149245", "coordinates": [10.11893, 53.58722, 0], "smartPhoneRequired": true, "interior": "GOOD", "exterior": "GOOD", "address": "Sonnenredder 40, 22045 Hamburg", "fuel": 71, "engineType": "CE"}, {"name": "B-GO6723", "vin": "WME4533421K147558", "coordinates": [9.97716, 53.45814, 0], "smartPhoneRequired": true, "interior": "GOOD", "exterior": "GOOD", "address": "Asbeckstra\u00dfe 8, 21073 Hamburg", "fuel": 93, "engineType": "CE"}, {"name": "B-GO6726", "vin": "WME4533421K150360", "coordinates": [10.02372, 53.55915, 0], "smartPhoneRequired": true, "interior": "GOOD", "exterior": "GOOD", "address": "Bozenhardweg 3, 22087 Hamburg", "fuel": 87, "engineType": "CE"}, {"name": "B-GO6727", "vin": "WME4533421K148549", "coordinates": [9.9166, 53.55515, 0], "smartPhoneRequired": true, "interior": "GOOD", "exterior": "GOOD", "address": "Germerring 9, 22763 Hamburg", "fuel": 71, "engineType": "CE"}, {"name": "B-GO8772", "vin": "WME4533421K149074", "coordinates": [10.09244, 53.6539, 0], "smartPhoneRequired": true, "interior": "GOOD", "exterior": "GOOD", "address": "Heegbarg 14, 22391 Hamburg", "fuel": 71, "engineType": "CE"}, {"name": "B-GO3598", "vin": "WME4533421K036583", "coordinates": [9.97708, 53.58121, 0], "smartPhoneRequired": true, "interior": "GOOD", "exterior": "GOOD", "address": "Stra\u00dfenbahnring 2-8, 20251 Hamburg", "fuel": 100, "engineType": "CE"}, {"name": "B-GO8680", "vin": "WME4533421K148609", "coordinates": [10.00722, 53.6342, 0], "smartPhoneRequired": true, "interior": "GOOD", "exterior": "GOOD", "address": "HH Flughafen P2 Bereich B", "fuel": 40, "engineType": "CE"}, {"name": "B-GO8692", "vin": "WME4533421K148991", "coordinates": [9.90099, 53.5547, 0], "smartPhoneRequired": true, "interior": "GOOD", "exterior": "GOOD", "address": "Asklepios Altona", "fuel": 100, "engineType": "CE"}, {"name": "B-GO8698", "vin": "WME4533421K149223", "coordinates": [10.00722, 53.6342, 0], "smartPhoneRequired": true, "interior": "GOOD", "exterior": "GOOD", "address": "HH Flughafen P2 Bereich B", "fuel": 62, "engineType": "CE"}, {"name": "B-GO8700", "vin": "WME4533421K149095", "coordinates": [9.92186, 53.47199, 0], "smartPhoneRequired": true, "interior": "GOOD", "exterior": "GOOD", "address": "Am Radeland 124, 21079 Hamburg", "fuel": 81, "engineType": "CE"}, {"name": "B-GO8701", "vin": "WME4533421K149165", "coordinates": [9.92404, 53.56924, 0], "smartPhoneRequired": true, "interior": "GOOD", "exterior": "GOOD", "address": "Ruhrstra\u00dfe 116, 22761 Hamburg", "fuel": 53, "engineType": "CE"}, {"name": "B-GO8704", "vin": "WME4533421K149171", "coordinates": [10.05336, 53.58901, 0], "smartPhoneRequired": true, "interior": "GOOD", "exterior": "GOOD", "address": "Bramfelder Str. 97A, 22305 Hamburg", "fuel": 37, "engineType": "CE"}, {"name": "B-GO8713", "vin": "WME4533421K150353", "coordinates": [10.06905, 53.56606, 0], "smartPhoneRequired": true, "interior": "GOOD", "exterior": "GOOD", "address": "Trauns Allee 6, 22043 Hamburg", "fuel": 40, "engineType": "CE"}, {"name": "B-GO8717", "vin": "WME4533421K149155", "coordinates": [10.02357, 53.56332, 0], "smartPhoneRequired": true, "interior": "GOOD", "exterior": "GOOD", "address": "Ifflandstra\u00dfe 82, 22087 Hamburg", "fuel": 93, "engineType": "CE"}, {"name": "B-GO8715", "vin": "WME4533421K148520", "coordinates": [9.92015, 53.5676, 0], "smartPhoneRequired": true, "interior": "GOOD", "exterior": "GOOD", "address": "Leunastra\u00dfe 67, 22761 Hamburg", "fuel": 62, "engineType": "CE"}, {"name": "B-GO3810", "vin": "WME4533421K038970", "coordinates": [9.98192, 53.57605, 0], "smartPhoneRequired": true, "interior": "GOOD", "exterior": "GOOD", "address": "Brahmsallee 44, 20144 Hamburg", "fuel": 15, "engineType": "CE"}, {"name": "B-GO8130", "vin": "WME4533421K087550", "coordinates": [9.914, 53.56106, 0], "smartPhoneRequired": true, "interior": "GOOD", "exterior": "GOOD", "address": "Gasstra\u00dfe 12, 22761 Hamburg", "fuel": 50, "engineType": "CE"}, {"name": "B-GO8721", "vin": "WME4533421K149272", "coordinates": [9.97674, 53.45515, 0], "smartPhoneRequired": true, "interior": "GOOD", "exterior": "GOOD", "address": "Bremer Str. 65, 21073 Hamburg", "fuel": 78, "engineType": "CE"}, {"name": "B-GO8726", "vin": "WME4533421K150314", "coordinates": [10.10244, 53.54238, 0], "smartPhoneRequired": true, "interior": "GOOD", "exterior": "GOOD", "address": "Schiffbeker Weg 19-27, 22111 Hamburg", "fuel": 59, "engineType": "CE"}, {"name": "B-GO8727", "vin": "WME4533421K150179", "coordinates": [10.05837, 53.60032, 0], "smartPhoneRequired": true, "interior": "GOOD", "exterior": "GOOD", "address": "Maybachstra\u00dfe 29-33, 22177 Hamburg", "fuel": 68, "engineType": "CE"}, {"name": "B-GO5624", "vin": "WDC1569121J302757", "coordinates": [10.00184, 53.60102, 0], "smartPhoneRequired": true, "interior": "GOOD", "exterior": "GOOD", "address": "Braamkamp 44, 22297 Hamburg", "fuel": 22, "engineType": "CE"}, {"name": "B-GO4808", "vin": "WME4533421K073233", "coordinates": [10.03737, 53.57737, 0], "smartPhoneRequired": true, "interior": "GOOD", "exterior": "GOOD", "address": "Fe\u00dflerstra\u00dfe 11B, 22083 Hamburg", "fuel": 100, "engineType": "CE"}, {"name": "B-GO8728", "vin": "WME4533421K150193", "coordinates": [10.02015, 53.56821, 0], "smartPhoneRequired": true, "interior": "GOOD", "exterior": "GOOD", "address": "Erlenkamp 19-21, 22087 Hamburg", "fuel": 81, "engineType": "CE"}, {"name": "B-GO8731", "vin": "WME4533421K146978", "coordinates": [10.10015, 53.57753, 0], "smartPhoneRequired": true, "interior": "GOOD", "exterior": "GOOD", "address": "Wi\u00dfmannstra\u00dfe 13, 22041 Hamburg", "fuel": 31, "engineType": "CE"}, {"name": "B-GO1041", "vin": "WME4533421K040046", "coordinates": [10.01535, 53.58568, 0], "smartPhoneRequired": true, "interior": "GOOD", "exterior": "GOOD", "address": "Semperstra\u00dfe 40, 22303 Hamburg", "fuel": 100, "engineType": "CE"}, {"name": "B-GO1059", "vin": "WME4533421K040103", "coordinates": [10.00722, 53.6342, 0], "smartPhoneRequired": true, "interior": "GOOD", "exterior": "GOOD", "address": "HH Flughafen P2 Bereich B", "fuel": 100, "engineType": "CE"}, {"name": "B-GO8739", "vin": "WME4533421K147776", "coordinates": [9.88327, 53.54808, 0], "smartPhoneRequired": true, "interior": "GOOD", "exterior": "GOOD", "address": "Bernadottestra\u00dfe 232-234, 22605 Hamburg", "fuel": 59, "engineType": "CE"}, {"name": "B-GO3796", "vin": "WME4533421K035500", "coordinates": [9.97431, 53.61274, 0], "smartPhoneRequired": true, "interior": "GOOD", "exterior": "GOOD", "address": "Spreenende 12, 22453 Hamburg", "fuel": 100, "engineType": "CE"}, {"name": "B-GO8742", "vin": "WME4533421K150304", "coordinates": [10.05537, 53.59884, 0], "smartPhoneRequired": true, "interior": "GOOD", "exterior": "GOOD", "address": "Middendorfstra\u00dfe 8, 22307 Hamburg", "fuel": 56, "engineType": "CE"}, {"name": "B-GO8743", "vin": "WME4533421K150204", "coordinates": [10.08876, 53.58678, 0], "smartPhoneRequired": true, "interior": "GOOD", "exterior": "GOOD", "address": "Friedrich-Ebert-Damm 84, 22047 Hamburg", "fuel": 100, "engineType": "CE"}, {"name": "B-GO8098", "vin": "WME4533421K087708", "coordinates": [9.94925, 53.62333, 0], "smartPhoneRequired": true, "interior": "GOOD", "exterior": "GOOD", "address": "Max-Zelck-Stra\u00dfe 31, 22459 Hamburg", "fuel": 62, "engineType": "CE"}, {"name": "B-GO3841", "vin": "WME4533421K037867", "coordinates": [10.04067, 53.6028, 0], "smartPhoneRequired": true, "interior": "GOOD", "exterior": "GOOD", "address": "Fuhlsb\u00fcttler Str. 399, 22309 Hamburg", "fuel": 68, "engineType": "CE"}, {"name": "B-GO8756", "vin": "WME4533421K150252", "coordinates": [10.06628, 53.60039, 0], "smartPhoneRequired": true, "interior": "GOOD", "exterior": "GOOD", "address": "Buschrosenweg 21, 22177 Hamburg", "fuel": 100, "engineType": "CE"}, {"name": "B-GO8759", "vin": "WME4533421K147678", "coordinates": [10.0234, 53.57404, 0], "smartPhoneRequired": true, "interior": "GOOD", "exterior": "GOOD", "address": "Shell-Station, Winterhuder Weg 72, 22085 Hamburg", "fuel": 90, "engineType": "CE"}, {"name": "B-GO8760", "vin": "WME4533421K149207", "coordinates": [10.07339, 53.57317, 0], "smartPhoneRequired": true, "interior": "GOOD", "exterior": "GOOD", "address": "Witth\u00f6fftstra\u00dfe 2, 22041 Hamburg", "fuel": 31, "engineType": "CE"}, {"name": "B-GO8763", "vin": "WME4533421K149083", "coordinates": [9.94709, 53.62253, 0], "smartPhoneRequired": true, "interior": "GOOD", "exterior": "GOOD", "address": "Bindfeldweg 30-32, 22459 Hamburg", "fuel": 28, "engineType": "CE"}, {"name": "B-GO8192", "vin": "WME4533421K087441", "coordinates": [10.02514, 53.55498, 0], "smartPhoneRequired": true, "interior": "GOOD", "exterior": "GOOD", "address": "Westphalensweg 1, 20099 Hamburg", "fuel": 31, "engineType": "CE"}, {"name": "B-GO8197", "vin": "WME4533421K087937", "coordinates": [10.00852, 53.60854, 0], "smartPhoneRequired": true, "interior": "GOOD", "exterior": "GOOD", "address": "Heubergredder 18, 22297 Hamburg", "fuel": 100, "engineType": "CE"}, {"name": "B-GO4538", "vin": "WME4533421K071759", "coordinates": [10.03435, 53.55713, 0], "smartPhoneRequired": true, "interior": "GOOD", "exterior": "GOOD", "address": "Malzweg 10, 20535 Hamburg", "fuel": 100, "engineType": "CE"}, {"name": "B-GO8125", "vin": "WME4533421K086772", "coordinates": [10.00722, 53.6342, 0], "smartPhoneRequired": true, "interior": "GOOD", "exterior": "GOOD", "address": "HH Flughafen P2 Bereich B", "fuel": 46, "engineType": "CE"}, {"name": "B-GO4811", "vin": "WME4533421K073309", "coordinates": [10.01074, 53.55699, 0], "smartPhoneRequired": true, "interior": "GOOD", "exterior": "GOOD", "address": "Lange Reihe 41-43, 20099 Hamburg", "fuel": 46, "engineType": "CE"}, {"name": "B-GO1093", "vin": "WME4533421K150379", "coordinates": [10.02609, 53.56876, 0], "smartPhoneRequired": true, "interior": "GOOD", "exterior": "GOOD", "address": "Ulmenau 21, 22087 Hamburg", "fuel": 93, "engineType": "CE"}, {"name": "B-GO4841", "vin": "WME4533421K073027", "coordinates": [10.02597, 53.61652, 0], "smartPhoneRequired": true, "interior": "GOOD", "exterior": "GOOD", "address": "Elisabeth-Fl\u00fcgge-Stra\u00dfe 13, 22337 Hamburg", "fuel": 62, "engineType": "CE"}, {"name": "B-GO4675", "vin": "WME4533421K072305", "coordinates": [9.93162, 53.56874, 0], "smartPhoneRequired": true, "interior": "GOOD", "exterior": "GOOD", "address": "Am Diebsteich 7, 22761 Hamburg", "fuel": 100, "engineType": "CE"}, {"name": "B-GO4672", "vin": "WME4533421K072544", "coordinates": [10.04107, 53.59863, 0], "smartPhoneRequired": true, "interior": "GOOD", "exterior": "GOOD", "address": "Lauensteinstra\u00dfe 1, 22307 Hamburg", "fuel": 40, "engineType": "CE"}, {"name": "B-GO4833", "vin": "WME4533421K075712", "coordinates": [10.01932, 53.58037, 0], "smartPhoneRequired": true, "interior": "GOOD", "exterior": "GOOD", "address": "Schumannstra\u00dfe 69, 22083 Hamburg", "fuel": 100, "engineType": "CE"}, {"name": "B-GO3802", "vin": "WME4533421K039466", "coordinates": [10.05409, 53.59857, 0], "smartPhoneRequired": true, "interior": "GOOD", "exterior": "GOOD", "address": "Dieselstra\u00dfe 74, 22307 Hamburg", "fuel": 96, "engineType": "CE"}, {"name": "B-GO3833", "vin": "WME4533421K039143", "coordinates": [9.92204, 53.56463, 0], "smartPhoneRequired": true, "interior": "GOOD", "exterior": "GOOD", "address": "Beerenweg 1E, 22761 Hamburg", "fuel": 75, "engineType": "CE"}, {"name": "B-GO3826", "vin": "WME4533421K036815", "coordinates": [10.00722, 53.6342, 0], "smartPhoneRequired": true, "interior": "GOOD", "exterior": "GOOD", "address": "HH Flughafen P2 Bereich B", "fuel": 56, "engineType": "CE"}, {"name": "B-GO4330", "vin": "WME4533421K065062", "coordinates": [9.968, 53.4609, 0], "smartPhoneRequired": true, "interior": "GOOD", "exterior": "GOOD", "address": "Denickestra\u00dfe 17, 21073 Hamburg", "fuel": 78, "engineType": "CE"}, {"name": "B-GO6788", "vin": "WME4533421K087295", "coordinates": [10.07724, 53.60668, 0], "smartPhoneRequired": true, "interior": "GOOD", "exterior": "GOOD", "address": "Maimoorweg 47-49, 22179 Hamburg", "fuel": 31, "engineType": "CE"}, {"name": "B-GO4824", "vin": "WME4533421K074370", "coordinates": [9.98609, 53.59492, 0], "smartPhoneRequired": true, "interior": "GOOD", "exterior": "GOOD", "address": "Lokstedter Weg 9-27, 20251 Hamburg", "fuel": 46, "engineType": "CE"}, {"name": "B-GO4619", "vin": "WME4533421K070703", "coordinates": [10.08804, 53.58661, 0], "smartPhoneRequired": true, "interior": "GOOD", "exterior": "GOOD", "address": "Friedrich-Ebert-Damm 89C, 22047 Hamburg", "fuel": 78, "engineType": "CE"}, {"name": "B-GO1056", "vin": "WME4533421K040090", "coordinates": [10.08002, 53.61204, 0], "smartPhoneRequired": true, "interior": "GOOD", "exterior": "GOOD", "address": "Heukoppel 8, 22179 Hamburg", "fuel": 78, "engineType": "CE"}, {"name": "B-GO3818", "vin": "WME4533421K038226", "coordinates": [10.02997, 53.61893, 0], "smartPhoneRequired": true, "interior": "GOOD", "exterior": "GOOD", "address": "Alsterdorfer Str. 540, 22337 Hamburg", "fuel": 46, "engineType": "CE"}, {"name": "B-GO8707", "vin": "WME4533421K150098", "coordinates": [9.89825, 53.5553, 0], "smartPhoneRequired": true, "interior": "GOOD", "exterior": "GOOD", "address": "Paul-Ehrlich-Stra\u00dfe 2, 22763 Hamburg", "fuel": 50, "engineType": "CE"}, {"name": "B-GO5467", "vin": "WDD1760431J514990", "coordinates": [9.91989, 53.5656, 0], "smartPhoneRequired": true, "interior": "GOOD", "exterior": "GOOD", "address": "Bornkampsweg 4-6, 22761 Hamburg", "fuel": 100, "engineType": "CE"}, {"name": "B-GO1074", "vin": "WME4533421K040268", "coordinates": [9.98435, 53.51909, 0], "smartPhoneRequired": true, "interior": "GOOD", "exterior": "GOOD", "address": "Karl-Kunert-Stra\u00dfe 8, 21107 Hamburg", "fuel": 68, "engineType": "CE"}, {"name": "B-GO3123", "vin": "WME4533421K037047", "coordinates": [10.01803, 53.65238, 0], "smartPhoneRequired": true, "interior": "GOOD", "exterior": "GOOD", "address": "Tangstedter Landstra\u00dfe 81, 22415 Hamburg", "fuel": 34, "engineType": "CE"}, {"name": "B-GO8084", "vin": "WME4533421K087053", "coordinates": [10.10659, 53.56762, 0], "smartPhoneRequired": true, "interior": "GOOD", "exterior": "GOOD", "address": "Holstenhofweg 85, 22043 Hamburg", "fuel": 21, "engineType": "CE"}, {"name": "B-GO5658", "vin": "WDD1760121J523074", "coordinates": [10.0754, 53.57055, 0], "smartPhoneRequired": true, "interior": "GOOD", "exterior": "GOOD", "address": "Rantzaustra\u00dfe 92, 22041 Hamburg", "fuel": 72, "engineType": "CE"}, {"name": "B-GO8733", "vin": "WME4533421K149146", "coordinates": [10.09465, 53.54028, 0], "smartPhoneRequired": true, "interior": "GOOD", "exterior": "GOOD", "address": "Kolumbusstra\u00dfe 12, 22113 Hamburg", "fuel": 90, "engineType": "CE"}, {"name": "B-GO4844", "vin": "WME4533421K073194", "coordinates": [9.96081, 53.60774, 0], "smartPhoneRequired": true, "interior": "GOOD", "exterior": "GOOD", "address": "Kollaustra\u00dfe 90, 22453 Hamburg", "fuel": 100, "engineType": "CE"}, {"name": "B-GO8203", "vin": "WME4533421K089066", "coordinates": [10.00722, 53.6342, 0], "smartPhoneRequired": true, "interior": "GOOD", "exterior": "GOOD", "address": "HH Flughafen P2 Bereich B", "fuel": 12, "engineType": "CE"}, {"name": "B-GO8678", "vin": "WME4533421K147986", "coordinates": [9.86863, 53.55811, 0], "smartPhoneRequired": true, "interior": "GOOD", "exterior": "GOOD", "address": "Wilhelmistra\u00dfe 7-9, 22605 Hamburg", "fuel": 93, "engineType": "CE"}, {"name": "B-GO1028", "vin": "WME4533421K040006", "coordinates": [10.01328, 53.56075, 0], "smartPhoneRequired": true, "interior": "GOOD", "exterior": "GOOD", "address": "An der Alster 10-11, 20099 Hamburg", "fuel": 100, "engineType": "CE"}, {"name": "B-GO8085", "vin": "WME4533421K087184", "coordinates": [10.09852, 53.56591, 0], "smartPhoneRequired": true, "interior": "GOOD", "exterior": "GOOD", "address": "Oktaviostra\u00dfe 99-102, 22043 Hamburg", "fuel": 68, "engineType": "CE"}, {"name": "B-GO5571", "vin": "WDD1760431J519636", "coordinates": [10.00722, 53.6342, 0], "smartPhoneRequired": true, "interior": "GOOD", "exterior": "GOOD", "address": "HH Flughafen P2 Bereich B", "fuel": 34, "engineType": "CE"}, {"name": "B-GO1043", "vin": "WME4533421K040057", "coordinates": [10.10959, 53.59218, 0], "smartPhoneRequired": true, "interior": "GOOD", "exterior": "GOOD", "address": "Berner Heerweg 7, 22159 Hamburg", "fuel": 100, "engineType": "CE"}, {"name": "B-GO5565", "vin": "WDD1760121J521227", "coordinates": [10.00159, 53.54214, 0], "smartPhoneRequired": true, "interior": "GOOD", "exterior": "GOOD", "address": "Hongkongstra\u00dfe 7-10, 20457 Hamburg", "fuel": 78, "engineType": "CE"}, {"name": "B-GO4972", "vin": "WME4533421K073070", "coordinates": [10.00722, 53.6342, 0], "smartPhoneRequired": true, "interior": "GOOD", "exterior": "GOOD", "address": "HH Flughafen P2 Bereich B", "fuel": 71, "engineType": "CE"}, {"name": "B-GO3550", "vin": "WME4533421K037416", "coordinates": [9.9718, 53.60105, 0], "smartPhoneRequired": true, "interior": "GOOD", "exterior": "GOOD", "address": "Offakamp 10-12, 22529 Hamburg", "fuel": 100, "engineType": "CE"}, {"name": "B-GO3843", "vin": "WME4533421K038078", "coordinates": [10.0434, 53.57793, 0], "smartPhoneRequired": true, "interior": "GOOD", "exterior": "GOOD", "address": "Stuvkamp 8, 22081 Hamburg", "fuel": 28, "engineType": "CE"}, {"name": "B-GO1066", "vin": "WME4533421K040122", "coordinates": [9.97405, 53.61272, 0], "smartPhoneRequired": true, "interior": "GOOD", "exterior": "GOOD", "address": "Spreenende 12, 22453 Hamburg", "fuel": 100, "engineType": "CE"}, {"name": "B-GO3823", "vin": "WME4533421K039660", "coordinates": [10.00722, 53.6342, 0], "smartPhoneRequired": true, "interior": "GOOD", "exterior": "GOOD", "address": "HH Flughafen P2 Bereich B", "fuel": 96, "engineType": "CE"}, {"name": "B-GO4750", "vin": "WME4533421K071081", "coordinates": [9.91372, 53.56112, 0], "smartPhoneRequired": true, "interior": "GOOD", "exterior": "GOOD", "address": "Gasstra\u00dfe 8-10, 22761 Hamburg", "fuel": 65, "engineType": "CE"}, {"name": "B-GO4847", "vin": "WME4533421K073569", "coordinates": [10.00722, 53.6342, 0], "smartPhoneRequired": true, "interior": "GOOD", "exterior": "GOOD", "address": "HH Flughafen P2 Bereich B", "fuel": 34, "engineType": "CE"}, {"name": "B-GO8746", "vin": "WME4533421K148911", "coordinates": [9.95003, 53.62376, 0], "smartPhoneRequired": true, "interior": "GOOD", "exterior": "GOOD", "address": "An der Lohe 2, 22459 Hamburg", "fuel": 65, "engineType": "CE"}, {"name": "B-GO4693", "vin": "WME4533421K071581", "coordinates": [9.93985, 53.59377, 0], "smartPhoneRequired": true, "interior": "GOOD", "exterior": "GOOD", "address": "Lindner Hotels & Resorts HAGENBECK", "fuel": 100, "engineType": "CE"}, {"name": "B-GO5559", "vin": "WDD1760121J522016", "coordinates": [9.951, 53.45992, 0], "smartPhoneRequired": true, "interior": "GOOD", "exterior": "GOOD", "address": "Asklepios Harburg", "fuel": 24, "engineType": "CE"}, {"name": "B-GO4333", "vin": "WME4533421K063315", "coordinates": [9.9768, 53.45633, 0], "smartPhoneRequired": true, "interior": "GOOD", "exterior": "GOOD", "address": "Hastedtweg 3, 21073 Hamburg", "fuel": 100, "engineType": "CE"}, {"name": "B-GO4783", "vin": "WME4533421K071336", "coordinates": [10.00722, 53.6342, 0], "smartPhoneRequired": true, "interior": "GOOD", "exterior": "GOOD", "address": "HH Flughafen P2 Bereich B", "fuel": 68, "engineType": "CE"}, {"name": "B-GO5706", "vin": "WDC1569431J302173", "coordinates": [9.96444, 53.55781, 0], "smartPhoneRequired": true, "interior": "GOOD", "exterior": "GOOD", "address": "Neuer Pferdemarkt 31, 20359 Hamburg", "fuel": 56, "engineType": "CE"}, {"name": "B-GO1106", "vin": "WME4533421K147872", "coordinates": [10.03218, 53.61867, 0], "smartPhoneRequired": true, "interior": "GOOD", "exterior": "GOOD", "address": "Sommerkamp 31, 22335 Hamburg", "fuel": 43, "engineType": "CE"}, {"name": "B-GO5460", "vin": "WDD1760431J513783", "coordinates": [10.00722, 53.6342, 0], "smartPhoneRequired": true, "interior": "GOOD", "exterior": "GOOD", "address": "HH Flughafen P2 Bereich B", "fuel": 84, "engineType": "CE"}, {"name": "B-GO8191", "vin": "WME4533421K087273", "coordinates": [9.94282, 53.5715, 0], "smartPhoneRequired": true, "interior": "GOOD", "exterior": "GOOD", "address": "Kieler Str. 109, 22769 Hamburg", "fuel": 93, "engineType": "CE"}, {"name": "B-GO6730", "vin": "WME4533421K148978", "coordinates": [9.94842, 53.54684, 0], "smartPhoneRequired": true, "interior": "GOOD", "exterior": "GOOD", "address": "Amundsenstra\u00dfe 14A, 22767 Hamburg", "fuel": 40, "engineType": "CE"}, {"name": "B-GO5701", "vin": "WDC1569431J303002", "coordinates": [10.03958, 53.53493, 0], "smartPhoneRequired": true, "interior": "GOOD", "exterior": "GOOD", "address": "Lindleystra\u00dfe 18, 20539 Hamburg", "fuel": 48, "engineType": "CE"}, {"name": "B-GO4651", "vin": "WME4533421K070579", "coordinates": [9.99298, 53.45615, 0], "smartPhoneRequired": true, "interior": "GOOD", "exterior": "GOOD", "address": "switchh Harburg", "fuel": 56, "engineType": "CE"}, {"name": "B-GO8716", "vin": "WME4533421K147802", "coordinates": [10.02008, 53.5708, 0], "smartPhoneRequired": true, "interior": "GOOD", "exterior": "GOOD", "address": "Averhoffstra\u00dfe 1, 22085 Hamburg", "fuel": 96, "engineType": "CE"}, {"name": "B-GO6724", "vin": "WME4533421K150143", "coordinates": [10.00722, 53.6342, 0], "smartPhoneRequired": true, "interior": "GOOD", "exterior": "GOOD", "address": "HH Flughafen P2 Bereich B", "fuel": 62, "engineType": "CE"}, {"name": "B-GO8761", "vin": "WME4533421K148831", "coordinates": [9.95112, 53.61298, 0], "smartPhoneRequired": true, "interior": "GOOD", "exterior": "GOOD", "address": "Mercedes Benz Kollaustra\u00dfe", "fuel": 81, "engineType": "CE"}, {"name": "B-GO3790", "vin": "WME4533421K037264", "coordinates": [10.04214, 53.59702, 0], "smartPhoneRequired": true, "interior": "GOOD", "exterior": "GOOD", "address": "Tischbeinstra\u00dfe 5-6, 22307 Hamburg", "fuel": 100, "engineType": "CE"}, {"name": "B-GO4746", "vin": "WME4533421K070811", "coordinates": [9.88022, 53.54743, 0], "smartPhoneRequired": true, "interior": "GOOD", "exterior": "GOOD", "address": "Parkstra\u00dfe 87, 22605 Hamburg", "fuel": 43, "engineType": "CE"}, {"name": "B-GO4335", "vin": "WME4533421K063233", "coordinates": [10.08541, 53.57673, 0], "smartPhoneRequired": true, "interior": "GOOD", "exterior": "GOOD", "address": "Puvogelstra\u00dfe 1, 22041 Hamburg", "fuel": 100, "engineType": "CE"}, {"name": "B-GO3789", "vin": "WME4533421K035603", "coordinates": [10.05576, 53.56941, 0], "smartPhoneRequired": true, "interior": "GOOD", "exterior": "GOOD", "address": "Wandsbeker Chaussee 214-277, 22089 Hamburg", "fuel": 12, "engineType": "CE"}, {"name": "B-GO8762", "vin": "WME4533421K149110", "coordinates": [9.93905, 53.58159, 0], "smartPhoneRequired": true, "interior": "GOOD", "exterior": "GOOD", "address": "Hartwig-Hesse-Stra\u00dfe 55, 20257 Hamburg", "fuel": 100, "engineType": "CE"}, {"name": "B-GO1119", "vin": "WME4533421K149325", "coordinates": [10.06419, 53.57915, 0], "smartPhoneRequired": true, "interior": "GOOD", "exterior": "GOOD", "address": "Els\u00e4sser Str. 56, 22049 Hamburg", "fuel": 100, "engineType": "CE"}, {"name": "B-GO5501", "vin": "WDD1760431J515702", "coordinates": [9.7996, 53.55797, 0], "smartPhoneRequired": true, "interior": "GOOD", "exterior": "GOOD", "address": "Strandweg 58, 22587 Hamburg", "fuel": 88, "engineType": "CE"}, {"name": "B-GO5531", "vin": "WDD1760431J517159", "coordinates": [10.00179, 53.54198, 0], "smartPhoneRequired": true, "interior": "GOOD", "exterior": "GOOD", "address": "Hongkongstra\u00dfe 19, 20457 Hamburg", "fuel": 56, "engineType": "CE"}, {"name": "B-GO3654", "vin": "WME4533421K036281", "coordinates": [10.03466, 53.53464, 0], "smartPhoneRequired": true, "interior": "GOOD", "exterior": "GOOD", "address": "Stresowstra\u00dfe 20, 20539 Hamburg", "fuel": 43, "engineType": "CE"}, {"name": "B-GO5716", "vin": "WDC1569121J303647", "coordinates": [9.93255, 53.56385, 0], "smartPhoneRequired": true, "interior": "GOOD", "exterior": "GOOD", "address": "Stresemannstra\u00dfe 297, 22769 Hamburg", "fuel": 90, "engineType": "CE"}, {"name": "B-GO4655", "vin": "WME4533421K070008", "coordinates": [10.09885, 53.57102, 0], "smartPhoneRequired": true, "interior": "GOOD", "exterior": "GOOD", "address": "Schimmelmannstra\u00dfe 48, 22043 Hamburg", "fuel": 50, "engineType": "CE"}, {"name": "B-GO5625", "vin": "WDC1569121J302919", "coordinates": [9.92954, 53.59684, 0], "smartPhoneRequired": true, "interior": "GOOD", "exterior": "GOOD", "address": "Stellinger Steindamm 51, 22527 Hamburg", "fuel": 66, "engineType": "CE"}, {"name": "B-GO5666", "vin": "WDD1760431J523615", "coordinates": [10.08852, 53.58108, 0], "smartPhoneRequired": true, "interior": "GOOD", "exterior": "GOOD", "address": "Waldd\u00f6rferstra\u00dfe 187, 22047 Hamburg", "fuel": 56, "engineType": "CE"}, {"name": "B-GO4664", "vin": "WME4533421K071299", "coordinates": [10.03325, 53.56994, 0], "smartPhoneRequired": true, "interior": "GOOD", "exterior": "GOOD", "address": "Dorothea-Bernstein-Weg 1-3, 22081 Hamburg", "fuel": 100, "engineType": "CE"}, {"name": "B-GO4686", "vin": "WME4533421K070476", "coordinates": [9.94859, 53.61836, 0], "smartPhoneRequired": true, "interior": "GOOD", "exterior": "GOOD", "address": "Friedrich-Ebert-Stra\u00dfe 2, 22459 Hamburg", "fuel": 40, "engineType": "CE"}, {"name": "B-GO5677", "vin": "WDD1760431J522258", "coordinates": [9.91965, 53.59055, 0], "smartPhoneRequired": true, "interior": "GOOD", "exterior": "GOOD", "address": "Volksparkstra\u00dfe 75, 22525 Hamburg", "fuel": 96, "engineType": "CE"}, {"name": "B-GO4831", "vin": "WME4533421K075340", "coordinates": [10.10772, 53.54374, 0], "smartPhoneRequired": true, "interior": "GOOD", "exterior": "GOOD", "address": "Gothaer Weg 22, 22119 Hamburg", "fuel": 43, "engineType": "CE"}, {"name": "B-GO8744", "vin": "WME4533421K148650", "coordinates": [9.93644, 53.55225, 0], "smartPhoneRequired": true, "interior": "GOOD", "exterior": "GOOD", "address": "switchh Altona", "fuel": 56, "engineType": "CE"}, {"name": "B-GO4846", "vin": "WME4533421K072832", "coordinates": [10.04109, 53.60111, 0], "smartPhoneRequired": true, "interior": "GOOD", "exterior": "GOOD", "address": "Fuhlsb\u00fcttler Str. 344, 22307 Hamburg", "fuel": 59, "engineType": "CE"}, {"name": "B-GO4726", "vin": "WME4533421K071918", "coordinates": [10.0018, 53.60352, 0], "smartPhoneRequired": true, "interior": "GOOD", "exterior": "GOOD", "address": "Bilser Stieg 1-28, 22297 Hamburg", "fuel": 100, "engineType": "CE"}, {"name": "B-GO4743", "vin": "WME4533421K070524", "coordinates": [10.05423, 53.60569, 0], "smartPhoneRequired": true, "interior": "GOOD", "exterior": "GOOD", "address": "Steilshooper Str. 295-297, 22309 Hamburg", "fuel": 34, "engineType": "CE"}, {"name": "B-GO5480", "vin": "WDD1760431J516027", "coordinates": [9.94728, 53.54578, 0], "smartPhoneRequired": true, "interior": "GOOD", "exterior": "GOOD", "address": "Breite Str. 159, 22767 Hamburg", "fuel": 28, "engineType": "CE"}, {"name": "B-GO8757", "vin": "WME4533421K150345", "coordinates": [10.00722, 53.6342, 0], "smartPhoneRequired": true, "interior": "GOOD", "exterior": "GOOD", "address": "HH Flughafen P2 Bereich B", "fuel": 84, "engineType": "CE"}, {"name": "B-GO3590", "vin": "WME4533421K037054", "coordinates": [10.05586, 53.59516, 0], "smartPhoneRequired": true, "interior": "GOOD", "exterior": "GOOD", "address": "Oertzweg 11, 22307 Hamburg", "fuel": 100, "engineType": "CE"}, {"name": "B-GO1013", "vin": "WME4533421K039960", "coordinates": [10.05439, 53.59221, 0], "smartPhoneRequired": true, "interior": "GOOD", "exterior": "GOOD", "address": "Habichtstra\u00dfe 70-72, 22305 Hamburg", "fuel": 34, "engineType": "CE"}, {"name": "B-GO8213", "vin": "WME4533421K086695", "coordinates": [10.03628, 53.5802, 0], "smartPhoneRequired": true, "interior": "GOOD", "exterior": "GOOD", "address": "Weidestra\u00dfe 35, 22083 Hamburg", "fuel": 71, "engineType": "CE"}, {"name": "B-GO3811", "vin": "WME4533421K039385", "coordinates": [10.02031, 53.587, 0], "smartPhoneRequired": true, "interior": "GOOD", "exterior": "GOOD", "address": "Hanssensweg 5, 22303 Hamburg", "fuel": 100, "engineType": "CE"}, {"name": "B-GO3129", "vin": "WME4533421K035483", "coordinates": [10.07569, 53.60866, 0], "smartPhoneRequired": true, "interior": "GOOD", "exterior": "GOOD", "address": "Steilshooper Allee 444, 22179 Hamburg", "fuel": 100, "engineType": "CE"}, {"name": "B-GO5527", "vin": "WDD1760121J517454", "coordinates": [10.01244, 53.61015, 0], "smartPhoneRequired": true, "interior": "GOOD", "exterior": "GOOD", "address": "Heilholtkamp 6, 22297 Hamburg", "fuel": 68, "engineType": "CE"}, {"name": "B-GO4667", "vin": "WME4533421K072078", "coordinates": [9.93625, 53.58319, 0], "smartPhoneRequired": true, "interior": "GOOD", "exterior": "GOOD", "address": "Vehrenkampstra\u00dfe 7, 22527 Hamburg", "fuel": 100, "engineType": "CE"}, {"name": "B-GO8690", "vin": "WME4533421K150037", "coordinates": [10.10053, 53.58025, 0], "smartPhoneRequired": true, "interior": "GOOD", "exterior": "GOOD", "address": "Wandsedamm 2-4, 22047 Hamburg", "fuel": 50, "engineType": "CE"}, {"name": "B-GO5639", "vin": "WDD1760121J522960", "coordinates": [10.01218, 53.62327, 0], "smartPhoneRequired": true, "interior": "GOOD", "exterior": "GOOD", "address": "Philips", "fuel": 98, "engineType": "CE"}, {"name": "B-GO4751", "vin": "WME4533421K070915", "coordinates": [9.94993, 53.46177, 0], "smartPhoneRequired": true, "interior": "GOOD", "exterior": "GOOD", "address": "Am Tie 25, 21075 Hamburg", "fuel": 100, "engineType": "CE"}, {"name": "B-GO1038", "vin": "WME4533421K040029", "coordinates": [10.04031, 53.56075, 0], "smartPhoneRequired": true, "interior": "GOOD", "exterior": "GOOD", "address": "Landwehrdamm 6, 20535 Hamburg", "fuel": 65, "engineType": "CE"}, {"name": "B-GO4512", "vin": "WME4533421K072299", "coordinates": [10.09042, 53.54913, 0], "smartPhoneRequired": true, "interior": "GOOD", "exterior": "GOOD", "address": "Washingtonallee 50, 22111 Hamburg", "fuel": 59, "engineType": "CE"}, {"name": "B-GO8674", "vin": "WME4533421K147552", "coordinates": [9.94921, 53.54624, 0], "smartPhoneRequired": true, "interior": "GOOD", "exterior": "GOOD", "address": "Breite Str. 111, 22767 Hamburg", "fuel": 50, "engineType": "CE"}, {"name": "B-GO1135", "vin": "WME4533421K146988", "coordinates": [10.01999, 53.57323, 0], "smartPhoneRequired": true, "interior": "GOOD", "exterior": "GOOD", "address": "Kanalstra\u00dfe 36, 22085 Hamburg", "fuel": 93, "engineType": "CE"}, {"name": "B-GO4971", "vin": "WME4533421K073054", "coordinates": [10.09724, 53.65447, 0], "smartPhoneRequired": true, "interior": "GOOD", "exterior": "GOOD", "address": "Langenst\u00fccken 32, 22393 Hamburg", "fuel": 90, "engineType": "CE"}, {"name": "B-GO5582", "vin": "WDD1760431J521020", "coordinates": [9.9611, 53.58897, 0], "smartPhoneRequired": true, "interior": "GOOD", "exterior": "GOOD", "address": "Veilchenweg 28A, 22529 Hamburg", "fuel": 32, "engineType": "CE"}, {"name": "B-GO1094", "vin": "WME4533421K150300", "coordinates": [9.96681, 53.55001, 0], "smartPhoneRequired": true, "interior": "GOOD", "exterior": "GOOD", "address": "Reeperbahn 13B, 20359 Hamburg", "fuel": 25, "engineType": "CE"}, {"name": "B-GO8750", "vin": "WME4533421K149341", "coordinates": [9.93629, 53.54659, 0], "smartPhoneRequired": true, "interior": "GOOD", "exterior": "GOOD", "address": "Max-Brauer-Allee 4, 22765 Hamburg", "fuel": 68, "engineType": "CE"}, {"name": "B-GO3648", "vin": "WME4533421K036688", "coordinates": [9.96027, 53.59192, 0], "smartPhoneRequired": true, "interior": "GOOD", "exterior": "GOOD", "address": "Stresemannallee 10, 22529 Hamburg", "fuel": 100, "engineType": "CE"}, {"name": "B-GO8683", "vin": "WME4533421K149003", "coordinates": [9.93661, 53.58114, 0], "smartPhoneRequired": true, "interior": "GOOD", "exterior": "GOOD", "address": "Arminiusstra\u00dfe 12-14, 22525 Hamburg", "fuel": 56, "engineType": "CE"}, {"name": "B-GO4827", "vin": "WME4533421K074896", "coordinates": [10.06929, 53.5662, 0], "smartPhoneRequired": true, "interior": "GOOD", "exterior": "GOOD", "address": "Claudiusstra\u00dfe 74, 22043 Hamburg", "fuel": 90, "engineType": "CE"}, {"name": "B-GO8681", "vin": "WME4533421K148563", "coordinates": [9.96468, 53.46468, 0], "smartPhoneRequired": true, "interior": "GOOD", "exterior": "GOOD", "address": "Alter Postweg 31, 21075 Hamburg", "fuel": 59, "engineType": "CE"}, {"name": "B-GO3533", "vin": "WME4533421K037243", "coordinates": [9.97346, 53.61335, 0], "smartPhoneRequired": true, "interior": "GOOD", "exterior": "GOOD", "address": "Borsteler Chaussee 286, 22453 Hamburg", "fuel": 100, "engineType": "CE"}, {"name": "B-GO5642", "vin": "WDD1760121J522427", "coordinates": [10.00069, 53.54847, 0], "smartPhoneRequired": true, "interior": "GOOD", "exterior": "GOOD", "address": "Depenau 2, 20095 Hamburg", "fuel": 100, "engineType": "CE"}, {"name": "B-GO5643", "vin": "WDD1760121J523372", "coordinates": [9.88399, 53.56527, 0], "smartPhoneRequired": true, "interior": "GOOD", "exterior": "GOOD", "address": "Kalckreuthweg 75, 22607 Hamburg", "fuel": 88, "engineType": "CE"}, {"name": "B-GO6784", "vin": "WME4533421K063115", "coordinates": [10.00722, 53.6342, 0], "smartPhoneRequired": true, "interior": "GOOD", "exterior": "GOOD", "address": "HH Flughafen P2 Bereich B", "fuel": 100, "engineType": "CE"}, {"name": "B-GO8684", "vin": "WME4533421K148939", "coordinates": [10.09663, 53.64995, 0], "smartPhoneRequired": true, "interior": "GOOD", "exterior": "GOOD", "address": "Stadtbahnstra\u00dfe 88-90, 22393 Hamburg", "fuel": 21, "engineType": "CE"}, {"name": "B-GO4773", "vin": "WME4533421K070099", "coordinates": [9.99062, 53.59079, 0], "smartPhoneRequired": true, "interior": "GOOD", "exterior": "GOOD", "address": "Schrammsweg 32, 20249 Hamburg", "fuel": 59, "engineType": "CE"}, {"name": "B-GO5499", "vin": "WDD1760431J515884", "coordinates": [10.09743, 53.65087, 0], "smartPhoneRequired": true, "interior": "GOOD", "exterior": "GOOD", "address": "Frahmredder 16-18, 22393 Hamburg", "fuel": 50, "engineType": "CE"}, {"name": "B-GO3665", "vin": "WME4533421K035773", "coordinates": [10.09768, 53.58653, 0], "smartPhoneRequired": true, "interior": "GOOD", "exterior": "GOOD", "address": "Helbingstra\u00dfe 64-66, 22047 Hamburg", "fuel": 31, "engineType": "CE"}, {"name": "B-GO5483", "vin": "WDD1760431J516041", "coordinates": [9.8749, 53.57, 0], "smartPhoneRequired": true, "interior": "GOOD", "exterior": "GOOD", "address": "Seestra\u00dfe 23-25, 22607 Hamburg", "fuel": 98, "engineType": "CE"}, {"name": "B-GO8712", "vin": "WME4533421K150409", "coordinates": [9.9427, 53.56814, 0], "smartPhoneRequired": true, "interior": "GOOD", "exterior": "GOOD", "address": "Memellandallee 20, 22769 Hamburg", "fuel": 68, "engineType": "CE"}, {"name": "B-GO4772", "vin": "WME4533421K070310", "coordinates": [10.03657, 53.55724, 0], "smartPhoneRequired": true, "interior": "GOOD", "exterior": "GOOD", "address": "Bethesdastra\u00dfe 17, 20535 Hamburg", "fuel": 46, "engineType": "CE"}, {"name": "B-GO8185", "vin": "WME4533421K086286", "coordinates": [10.01182, 53.55812, 0], "smartPhoneRequired": true, "interior": "GOOD", "exterior": "GOOD", "address": "Lange Reihe 73, 20099 Hamburg", "fuel": 75, "engineType": "CE"}, {"name": "B-GO4752", "vin": "WME4533421K071612", "coordinates": [9.92721, 53.57305, 0], "smartPhoneRequired": true, "interior": "GOOD", "exterior": "GOOD", "address": "Marlowring 25, 22525 Hamburg", "fuel": 78, "engineType": "CE"}, {"name": "B-GO5547", "vin": "WDD1760121J521510", "coordinates": [9.97707, 53.45619, 0], "smartPhoneRequired": true, "interior": "GOOD", "exterior": "GOOD", "address": "Hastedtpl. 3-4, 21073 Hamburg", "fuel": 50, "engineType": "CE"}, {"name": "B-GO4771", "vin": "WME4533421K070639", "coordinates": [10.09662, 53.65822, 0], "smartPhoneRequired": true, "interior": "GOOD", "exterior": "GOOD", "address": "Quarzweg 11, 22395 Hamburg", "fuel": 100, "engineType": "CE"}, {"name": "B-GO3501", "vin": "WME4533421K036429", "coordinates": [10.02531, 53.55502, 0], "smartPhoneRequired": true, "interior": "GOOD", "exterior": "GOOD", "address": "Bei der Hauptfeuerwache 1, 20099 Hamburg", "fuel": 71, "engineType": "CE"}]}