{"placemarks": [{"name": "331/FF655KW", "vin": "WME4533421K144264", "coordinates": [9.20072, 45.50259, 0], "smartPhoneRequired": true, "interior": "GOOD", "exterior": "GOOD", "address": "Via Carlo Romussi, 14, 20125 Milano", "fuel": 75, "engineType": "CE"}, {"name": "595/FF146NT", "vin": "WME4533421K152850", "coordinates": [9.16441, 45.49181, 0], "smartPhoneRequired": true, "interior": "GOOD", "exterior": "GOOD", "address": "Via Giuseppe Govone, 60, 20155 Milano", "fuel": 68, "engineType": "CE"}, {"name": "333/FF657KW", "vin": "WME4533421K145206", "coordinates": [9.14743, 45.46375, 0], "smartPhoneRequired": true, "interior": "GOOD", "exterior": "GOOD", "address": "Viale Ergisto Bezzi, 12, 20146 Milano", "fuel": 96, "engineType": "CE"}, {"name": "509/FF927KW", "vin": "WME4533421K148093", "coordinates": [9.16259, 45.43942, 0], "smartPhoneRequired": true, "interior": "GOOD", "exterior": "GOOD", "address": "Via Felice Lope de Vega, 37, 20143 Milano", "fuel": 100, "engineType": "CE"}, {"name": "567/FF093NT", "vin": "WME4533421K148153", "coordinates": [9.16458, 45.45629, 0], "smartPhoneRequired": true, "interior": "GOOD", "exterior": "GOOD", "address": "Via Andrea Salaino, 2-8, 20144 Milano", "fuel": 71, "engineType": "CE"}, {"name": "598/FF157NT", "vin": "WME4533421K145839", "coordinates": [9.17136, 45.44932, 0], "smartPhoneRequired": true, "interior": "GOOD", "exterior": "GOOD", "address": "Via Filippo Argelati, 17-25, 20143 Milano", "fuel": 65, "engineType": "CE"}, {"name": "749/FF068VY", "vin": "WME4533421K151827", "coordinates": [9.24358, 45.45488, 0], "smartPhoneRequired": true, "interior": "GOOD", "exterior": "GOOD", "address": "Via Mecenate, 32, 20138 Milano", "fuel": 59, "engineType": "CE"}, {"name": "568/FF096NT", "vin": "WME4533421K144585", "coordinates": [9.12791, 45.46515, 0], "smartPhoneRequired": true, "interior": "GOOD", "exterior": "GOOD", "address": "Piazzale Giuseppe Perrucchetti, 4610, 20147 Milano", "fuel": 100, "engineType": "CE"}, {"name": "224/FF392BT", "vin": "WME4533421K145551", "coordinates": [9.16344, 45.44697, 0], "smartPhoneRequired": true, "interior": "GOOD", "exterior": "GOOD", "address": "Via Eugenio Villoresi, 22, 20143 Milano", "fuel": 65, "engineType": "CE"}, {"name": "579/FF116NT", "vin": "WME4533421K151790", "coordinates": [9.19776, 45.48448, 0], "smartPhoneRequired": true, "interior": "GOOD", "exterior": "GOOD", "address": "Via Emilio Cornalia, 30, 20124 Milano", "fuel": 34, "engineType": "CE"}, {"name": "560/FF079NT", "vin": "WME4533421K145886", "coordinates": [9.16413, 45.50001, 0], "smartPhoneRequired": true, "interior": "GOOD", "exterior": "GOOD", "address": "Piazza Schiavone, 13, 20158 Milano", "fuel": 96, "engineType": "CE"}, {"name": "562/FF083NT", "vin": "WME4533421K146835", "coordinates": [9.15679, 45.48148, 0], "smartPhoneRequired": true, "interior": "GOOD", "exterior": "GOOD", "address": "Via Arona, 19, 20149 Milano", "fuel": 78, "engineType": "CE"}, {"name": "330/FF654KW", "vin": "WME4533421K142474", "coordinates": [9.12883, 45.48599, 0], "smartPhoneRequired": true, "interior": "GOOD", "exterior": "GOOD", "address": "Via Carlo Osma, 5, 20151 Milano", "fuel": 100, "engineType": "CE"}, {"name": "326/FF650KW", "vin": "WME4533421K142080", "coordinates": [9.22293, 45.49934, 0], "smartPhoneRequired": true, "interior": "GOOD", "exterior": "GOOD", "address": "Via Valtorta, 19, 20127 Milano", "fuel": 100, "engineType": "CE"}, {"name": "325/FF499BT", "vin": "WME4533421K150089", "coordinates": [9.21243, 45.45507, 0], "smartPhoneRequired": true, "interior": "GOOD", "exterior": "GOOD", "address": "Via Comelico, 14, 20135 Milano", "fuel": 90, "engineType": "CE"}, {"name": "323/FF497BT", "vin": "WME4533421K149961", "coordinates": [9.12534, 45.46009, 0], "smartPhoneRequired": true, "interior": "GOOD", "exterior": "GOOD", "address": "Via Giovanni Labus, 14-22, 20147 Milano", "fuel": 59, "engineType": "CE"}, {"name": "322/FF496BT", "vin": "WME4533421K149887", "coordinates": [9.14478, 45.47513, 0], "smartPhoneRequired": true, "interior": "GOOD", "exterior": "GOOD", "address": "Via Jacopo della Quercia, 8, 20149 Milano", "fuel": 100, "engineType": "CE"}, {"name": "603/FF301NT", "vin": "WME4533421K150717", "coordinates": [9.2274, 45.46208, 0], "smartPhoneRequired": true, "interior": "GOOD", "exterior": "GOOD", "address": "Viale Corsica, 34, 20137 Milano", "fuel": 100, "engineType": "CE"}, {"name": "267/FF439BT", "vin": "WME4533421K144718", "coordinates": [9.15208, 45.49019, 0], "smartPhoneRequired": true, "interior": "GOOD", "exterior": "GOOD", "address": "Viale Monte Ceneri, 77, 20155 Milano", "fuel": 71, "engineType": "CE"}, {"name": "316/FF490BT", "vin": "WME4533421K148429", "coordinates": [9.23426, 45.48331, 0], "smartPhoneRequired": true, "interior": "GOOD", "exterior": "GOOD", "address": "Via Antonio Grossich, 33, 20131 Milano", "fuel": 25, "engineType": "CE"}, {"name": "314/FF488BT", "vin": "WME4533421K147948", "coordinates": [9.2121, 45.51686, 0], "smartPhoneRequired": true, "interior": "GOOD", "exterior": "GOOD", "address": "Viale Piero e Alberto Pirelli, 10, 20126 Milano", "fuel": 56, "engineType": "CE"}, {"name": "313/FF487BT", "vin": "WME4533421K147782", "coordinates": [9.15316, 45.44845, 0], "smartPhoneRequired": true, "interior": "GOOD", "exterior": "GOOD", "address": "Via Pesto, 20144 Milano", "fuel": 100, "engineType": "CE"}, {"name": "591/FF141NT", "vin": "WME4533421K152755", "coordinates": [9.13293, 45.46083, 0], "smartPhoneRequired": true, "interior": "GOOD", "exterior": "GOOD", "address": "Via Privata Ludovico Cavaleri, 2, 20147 Milano", "fuel": 78, "engineType": "CE"}, {"name": "574/FF106NT", "vin": "WME4533421K150958", "coordinates": [9.22057, 45.47857, 0], "smartPhoneRequired": true, "interior": "GOOD", "exterior": "GOOD", "address": "Via Enrico N\u00f6e, 27-33, 20133 Milano", "fuel": 59, "engineType": "CE"}, {"name": "308/FF482BT", "vin": "WME4533421K146455", "coordinates": [9.19646, 45.45167, 0], "smartPhoneRequired": true, "interior": "GOOD", "exterior": "GOOD", "address": "Via Giuseppe Ripamonti, 2, 20136 Milano", "fuel": 87, "engineType": "CE"}, {"name": "573/FF104NT", "vin": "WME4533421K150707", "coordinates": [9.15781, 45.46849, 0], "smartPhoneRequired": true, "interior": "GOOD", "exterior": "GOOD", "address": "Via Giotto, 19, 20145 Milano", "fuel": 96, "engineType": "CE"}, {"name": "572/FF103NT", "vin": "WME4533421K150676", "coordinates": [9.27726, 45.46241, 0], "smartPhoneRequired": true, "interior": "GOOD", "exterior": "GOOD", "address": "Linate P3", "fuel": 15, "engineType": "CE"}, {"name": "571/FF102NT", "vin": "WME4533421K150646", "coordinates": [9.20344, 45.47559, 0], "smartPhoneRequired": true, "interior": "GOOD", "exterior": "GOOD", "address": "Viale Vittorio Veneto, 6, 20124 Milano", "fuel": 100, "engineType": "CE"}, {"name": "517/FF935KW", "vin": "WME4533421K144698", "coordinates": [9.1524, 45.44601, 0], "smartPhoneRequired": true, "interior": "GOOD", "exterior": "GOOD", "address": "Via Morimondo, 4-8, 20143 Milano", "fuel": 31, "engineType": "CE"}, {"name": "303/FF477BT", "vin": "WME4533421K146204", "coordinates": [9.19817, 45.47719, 0], "smartPhoneRequired": true, "interior": "GOOD", "exterior": "GOOD", "address": "Via Daniele Manin, 35, 20121 Milano", "fuel": 87, "engineType": "CE"}, {"name": "503/FF921KW", "vin": "WME4533421K148058", "coordinates": [9.08363, 45.4536, 0], "smartPhoneRequired": true, "interior": "GOOD", "exterior": "GOOD", "address": "Via dei Larici, 42, 20152 Milano", "fuel": 40, "engineType": "CE"}, {"name": "298/FF470BT", "vin": "WME4533421K142327", "coordinates": [9.20441, 45.47152, 0], "smartPhoneRequired": true, "interior": "GOOD", "exterior": "GOOD", "address": "Piazza Eleonora Duse, 1, 20122 Milano", "fuel": 56, "engineType": "CE"}, {"name": "299/FF473BT", "vin": "WME4533421K147148", "coordinates": [9.21101, 45.45146, 0], "smartPhoneRequired": true, "interior": "GOOD", "exterior": "GOOD", "address": "Via Friuli, 26, 20135 Milano", "fuel": 84, "engineType": "CE"}, {"name": "507/FF925KW", "vin": "WME4533421K144989", "coordinates": [9.2252, 45.49679, 0], "smartPhoneRequired": true, "interior": "GOOD", "exterior": "GOOD", "address": "Via Giovanni Pontano, 33, 20127 Milano", "fuel": 68, "engineType": "CE"}, {"name": "296/FF468BT", "vin": "WME4533421K141986", "coordinates": [9.21052, 45.50237, 0], "smartPhoneRequired": true, "interior": "GOOD", "exterior": "GOOD", "address": "Via Pigello Portinari, 2, 20125 Milano", "fuel": 59, "engineType": "CE"}, {"name": "187/FF354BT", "vin": "WME4533421K146195", "coordinates": [9.21767, 45.45134, 0], "smartPhoneRequired": true, "interior": "GOOD", "exterior": "GOOD", "address": "Via Tito Livio, 19, 20137 Milano", "fuel": 65, "engineType": "CE"}, {"name": "294/FF466BT", "vin": "WME4533421K141444", "coordinates": [9.14596, 45.46028, 0], "smartPhoneRequired": true, "interior": "GOOD", "exterior": "GOOD", "address": "Viale Caterina da Forl\u00ec, 20146 Milano", "fuel": 93, "engineType": "CE"}, {"name": "544/FF710KW", "vin": "WME4533421K146156", "coordinates": [9.1464, 45.48087, 0], "smartPhoneRequired": true, "interior": "GOOD", "exterior": "GOOD", "address": "Via Francesco Albani, 40, 20148 Milano", "fuel": 81, "engineType": "CE"}, {"name": "114/FF250BT", "vin": "WME4533421K145880", "coordinates": [9.22046, 45.47734, 0], "smartPhoneRequired": true, "interior": "GOOD", "exterior": "GOOD", "address": "Via Giuseppe Balzaretti, 13, 20133 Milano", "fuel": 90, "engineType": "CE"}, {"name": "500/FF918KW", "vin": "WME4533421K144396", "coordinates": [9.2363, 45.47852, 0], "smartPhoneRequired": true, "interior": "GOOD", "exterior": "GOOD", "address": "Via Carlo Pascal, 38, 20133 Milano", "fuel": 65, "engineType": "CE"}, {"name": "435/FF838KW", "vin": "WME4533421K147025", "coordinates": [9.25238, 45.47795, 0], "smartPhoneRequired": true, "interior": "GOOD", "exterior": "GOOD", "address": "Via Caduti in Missione di Pace, 20134 Milano", "fuel": 90, "engineType": "CE"}, {"name": "290/FF462BT", "vin": "WME4533421K150124", "coordinates": [9.18236, 45.50122, 0], "smartPhoneRequired": true, "interior": "GOOD", "exterior": "GOOD", "address": "Via Carlo Imbonati, 37-41, 20159 Milano", "fuel": 100, "engineType": "CE"}, {"name": "495/FF913KW", "vin": "WME4533421K147740", "coordinates": [9.23098, 45.44447, 0], "smartPhoneRequired": true, "interior": "GOOD", "exterior": "GOOD", "address": "Via Sulmona, 1115, 20139 Milano", "fuel": 90, "engineType": "CE"}, {"name": "494/FF912KW", "vin": "WME4533421K147572", "coordinates": [9.23439, 45.46996, 0], "smartPhoneRequired": true, "interior": "GOOD", "exterior": "GOOD", "address": "Via Privata Ettore Paladini, 7-9, 20133 Milano", "fuel": 84, "engineType": "CE"}, {"name": "356/FF685KW", "vin": "WME4533421K147077", "coordinates": [9.12785, 45.44601, 0], "smartPhoneRequired": true, "interior": "GOOD", "exterior": "GOOD", "address": "Via Remo la Valle, 1, 20147 Milano", "fuel": 100, "engineType": "CE"}, {"name": "283/FF455BT", "vin": "WME4533421K146950", "coordinates": [9.17427, 45.45388, 0], "smartPhoneRequired": true, "interior": "GOOD", "exterior": "GOOD", "address": "Viale Gorizia, 16, 20144 Milano", "fuel": 68, "engineType": "CE"}, {"name": "490/FF908KW", "vin": "WME4533421K147160", "coordinates": [9.17922, 45.47734, 0], "smartPhoneRequired": true, "interior": "GOOD", "exterior": "GOOD", "address": "Viale Elvezia, 4, 20154 Milano", "fuel": 56, "engineType": "CE"}, {"name": "486/FF904KW", "vin": "WME4533421K146965", "coordinates": [9.22748, 45.49295, 0], "smartPhoneRequired": true, "interior": "GOOD", "exterior": "GOOD", "address": "Via Arqu\u00e0, 13, 20131 Milano", "fuel": 59, "engineType": "CE"}, {"name": "282/FF454BT", "vin": "WME4533421K146776", "coordinates": [9.14393, 45.47106, 0], "smartPhoneRequired": true, "interior": "GOOD", "exterior": "GOOD", "address": "Piazzale Brescia, 9, 20149 Milano", "fuel": 90, "engineType": "CE"}, {"name": "329/FF653KW", "vin": "WME4533421K142402", "coordinates": [9.19401, 45.49103, 0], "smartPhoneRequired": true, "interior": "GOOD", "exterior": "GOOD", "address": "Via Torquato Taramelli, 24, 20124 Milano", "fuel": 100, "engineType": "CE"}, {"name": "535/FF016NT", "vin": "WME4533421K148530", "coordinates": [9.24249, 45.50397, 0], "smartPhoneRequired": true, "interior": "GOOD", "exterior": "GOOD", "address": "Via Don Giuseppe del Corno, 43, 20132 Milano", "fuel": 96, "engineType": "CE"}, {"name": "484/FF902KW", "vin": "WME4533421K146698", "coordinates": [9.20027, 45.46289, 0], "smartPhoneRequired": true, "interior": "GOOD", "exterior": "GOOD", "address": "Via Battisti Cesare, 8, 20122 Milano", "fuel": 100, "engineType": "CE"}, {"name": "483/FF901KW", "vin": "WME4533421K146688", "coordinates": [9.15658, 45.45048, 0], "smartPhoneRequired": true, "interior": "GOOD", "exterior": "GOOD", "address": "Via Tortona, 86, 20144 Milano", "fuel": 100, "engineType": "CE"}, {"name": "281/FF453BT", "vin": "WME4533421K140972", "coordinates": [9.22517, 45.48349, 0], "smartPhoneRequired": true, "interior": "GOOD", "exterior": "GOOD", "address": "Via Antonio Bazzini, 30, 20131 Milano", "fuel": 87, "engineType": "CE"}, {"name": "440/FF849KW", "vin": "WME4533421K150247", "coordinates": [9.17517, 45.42682, 0], "smartPhoneRequired": true, "interior": "GOOD", "exterior": "GOOD", "address": "Via Pietro Boifava, 56-70, 20142 Milano", "fuel": 84, "engineType": "CE"}, {"name": "277/FF449BT", "vin": "WME4533421K146003", "coordinates": [9.15019, 45.44965, 0], "smartPhoneRequired": true, "interior": "GOOD", "exterior": "GOOD", "address": "Via Savona, 103, 20144 Milano", "fuel": 31, "engineType": "CE"}, {"name": "273/FF445BT", "vin": "WME4533421K145468", "coordinates": [9.16875, 45.44123, 0], "smartPhoneRequired": true, "interior": "GOOD", "exterior": "GOOD", "address": "Via Rimini, 38, 20142 Milano", "fuel": 100, "engineType": "CE"}, {"name": "592/FF142NT", "vin": "WME4533421K152796", "coordinates": [9.16335, 45.50631, 0], "smartPhoneRequired": true, "interior": "GOOD", "exterior": "GOOD", "address": "Via Giovanni Durando, 32-38, 20158 Milano", "fuel": 62, "engineType": "CE"}, {"name": "269/FF441BT", "vin": "WME4533421K145070", "coordinates": [9.22052, 45.51621, 0], "smartPhoneRequired": true, "interior": "GOOD", "exterior": "GOOD", "address": "Via Guido Capelli, 3, 20126 Milano", "fuel": 100, "engineType": "CE"}, {"name": "426/FF827KW", "vin": "WME4533421K148917", "coordinates": [9.22976, 45.50642, 0], "smartPhoneRequired": true, "interior": "GOOD", "exterior": "GOOD", "address": "Via Sassari, 1-9, 20128 Milano", "fuel": 100, "engineType": "CE"}, {"name": "264/FF436BT", "vin": "WME4533421K144341", "coordinates": [9.13381, 45.45298, 0], "smartPhoneRequired": true, "interior": "GOOD", "exterior": "GOOD", "address": "Via Francesco Primaticcio, 88, 20146 Milano", "fuel": 100, "engineType": "CE"}, {"name": "259/FF431BT", "vin": "WME4533421K140307", "coordinates": [9.21137, 45.45415, 0], "smartPhoneRequired": true, "interior": "GOOD", "exterior": "GOOD", "address": "Viale Cirene, 1, 20135 Milano", "fuel": 46, "engineType": "CE"}, {"name": "477/FF895KW", "vin": "WME4533421K146427", "coordinates": [9.23562, 45.4786, 0], "smartPhoneRequired": true, "interior": "GOOD", "exterior": "GOOD", "address": "Via Carlo Pascal, 38, 20133 Milano", "fuel": 87, "engineType": "CE"}, {"name": "309/FF483BT", "vin": "WME4533421K146491", "coordinates": [9.16262, 45.44824, 0], "smartPhoneRequired": true, "interior": "GOOD", "exterior": "GOOD", "address": "Via Eugenio Villoresi, 8, 20143 Milano", "fuel": 100, "engineType": "CE"}, {"name": "470/FF888KW", "vin": "WME4533421K146252", "coordinates": [9.19643, 45.47446, 0], "smartPhoneRequired": true, "interior": "GOOD", "exterior": "GOOD", "address": "Via Daniele Manin, 17-19, 20121 Milano", "fuel": 15, "engineType": "CE"}, {"name": "467/FF885KW", "vin": "WME4533421K141630", "coordinates": [9.1985, 45.48312, 0], "smartPhoneRequired": true, "interior": "GOOD", "exterior": "GOOD", "address": "Via Adda, 2-6, 20124 Milano", "fuel": 65, "engineType": "CE"}, {"name": "466/FF884KW", "vin": "WME4533421K145871", "coordinates": [9.20052, 45.45749, 0], "smartPhoneRequired": true, "interior": "GOOD", "exterior": "GOOD", "address": "Via Pietro Micca, 2, 20122 Milano", "fuel": 21, "engineType": "CE"}, {"name": "464/FF882KW", "vin": "WME4533421K145428", "coordinates": [9.17126, 45.44292, 0], "smartPhoneRequired": true, "interior": "GOOD", "exterior": "GOOD", "address": "Via Valsolda, 11, 20142 Milano", "fuel": 87, "engineType": "CE"}, {"name": "459/FF877KW", "vin": "WME4533421K141464", "coordinates": [9.17199, 45.45324, 0], "smartPhoneRequired": true, "interior": "GOOD", "exterior": "GOOD", "address": "Via Alessandria, 1, 20144 Milano", "fuel": 56, "engineType": "CE"}, {"name": "583/FF122NT", "vin": "WME4533421K151885", "coordinates": [9.1409, 45.45386, 0], "smartPhoneRequired": true, "interior": "GOOD", "exterior": "GOOD", "address": "Via Bartolomeo d'Alviano, 13, 20146 Milano", "fuel": 65, "engineType": "CE"}, {"name": "454/FF864KW", "vin": "WME4533421K140874", "coordinates": [9.23836, 45.45994, 0], "smartPhoneRequired": true, "interior": "GOOD", "exterior": "GOOD", "address": "Via Marco Bruto, 2-8, 20138 Milano", "fuel": 100, "engineType": "CE"}, {"name": "582/FF121NT", "vin": "WME4533421K151867", "coordinates": [9.23602, 45.43596, 0], "smartPhoneRequired": true, "interior": "GOOD", "exterior": "GOOD", "address": "Via Carlo Boncompagni, 74, 20139 Milano", "fuel": 100, "engineType": "CE"}, {"name": "451/FF861KW", "vin": "WME4533421K141095", "coordinates": [9.15093, 45.44026, 0], "smartPhoneRequired": true, "interior": "GOOD", "exterior": "GOOD", "address": "Via Santa Rita da Cascia, 36, 20143 Milano", "fuel": 100, "engineType": "CE"}, {"name": "247/FF415BT", "vin": "WME4533421K150175", "coordinates": [9.22011, 45.47767, 0], "smartPhoneRequired": true, "interior": "GOOD", "exterior": "GOOD", "address": "Via Giuseppe Balzaretti, 17, 20133 Milano", "fuel": 65, "engineType": "CE"}, {"name": "245/FF413BT", "vin": "WME4533421K150155", "coordinates": [9.21931, 45.45062, 0], "smartPhoneRequired": true, "interior": "GOOD", "exterior": "GOOD", "address": "Via Tito Livio, 28, 20137 Milano", "fuel": 100, "engineType": "CE"}, {"name": "578/FF112NT", "vin": "WME4533421K151583", "coordinates": [9.12011, 45.455, 0], "smartPhoneRequired": true, "interior": "GOOD", "exterior": "GOOD", "address": "Via dell'Allodola, 11, 20147 Milano", "fuel": 50, "engineType": "CE"}, {"name": "272/FF444BT", "vin": "WME4533421K145310", "coordinates": [9.18997, 45.45468, 0], "smartPhoneRequired": true, "interior": "GOOD", "exterior": "GOOD", "address": "Via S. Francesco D'Assisi, 6, 20122 Milano", "fuel": 53, "engineType": "CE"}, {"name": "235/FF403BT", "vin": "WME4533421K141136", "coordinates": [9.20079, 45.50071, 0], "smartPhoneRequired": true, "interior": "GOOD", "exterior": "GOOD", "address": "Via Leonida Bissolati, 1-9, 20125 Milano", "fuel": 87, "engineType": "CE"}, {"name": "328/FF652KW", "vin": "WME4533421K142096", "coordinates": [9.1971, 45.46472, 0], "smartPhoneRequired": true, "interior": "GOOD", "exterior": "GOOD", "address": "Corso Europa, 18, 20122 Milano", "fuel": 21, "engineType": "CE"}, {"name": "597/FF155NT", "vin": "WME4533421K145764", "coordinates": [9.15491, 45.52185, 0], "smartPhoneRequired": true, "interior": "GOOD", "exterior": "GOOD", "address": "Via Alessandro Litta Modignani, 85-93, 20161 Milano", "fuel": 100, "engineType": "CE"}, {"name": "221/FF389BT", "vin": "WME4533421K145269", "coordinates": [9.2244, 45.49193, 0], "smartPhoneRequired": true, "interior": "GOOD", "exterior": "GOOD", "address": "Via Padova, 72, 20131 Milano", "fuel": 93, "engineType": "CE"}, {"name": "472/FF890KW", "vin": "WME4533421K146263", "coordinates": [9.2037, 45.42406, 0], "smartPhoneRequired": true, "interior": "GOOD", "exterior": "GOOD", "address": "Via Giuseppe Ripamonti, 298, 20141 Milano", "fuel": 75, "engineType": "CE"}, {"name": "257/FF425BT", "vin": "WME4533421K147021", "coordinates": [9.19087, 45.50618, 0], "smartPhoneRequired": true, "interior": "GOOD", "exterior": "GOOD", "address": "Via Gatti Francesco, 16, 20162 Milano", "fuel": 87, "engineType": "CE"}, {"name": "255/FF423BT", "vin": "WME4533421K146591", "coordinates": [9.20277, 45.49886, 0], "smartPhoneRequired": true, "interior": "GOOD", "exterior": "GOOD", "address": "Via Privata Gino Rocca, 2-6, 20125 Milano", "fuel": 12, "engineType": "CE"}, {"name": "447/FF857KW", "vin": "WME4533421K141247", "coordinates": [9.20254, 45.43709, 0], "smartPhoneRequired": true, "interior": "GOOD", "exterior": "GOOD", "address": "Via Gian Francesco Pizzi, 17, 20141 Milano", "fuel": 96, "engineType": "CE"}, {"name": "510/FF928KW", "vin": "WME4533421K148105", "coordinates": [9.17226, 45.44285, 0], "smartPhoneRequired": true, "interior": "GOOD", "exterior": "GOOD", "address": "Via Valsolda, 3, 20142 Milano", "fuel": 59, "engineType": "CE"}, {"name": "434/FF836KW", "vin": "WME4533421K148188", "coordinates": [9.10068, 45.45891, 0], "smartPhoneRequired": true, "interior": "GOOD", "exterior": "GOOD", "address": "Via Cividale del Friuli, 6, 20152 Milano", "fuel": 100, "engineType": "CE"}, {"name": "444/FF854KW", "vin": "WME4533421K141893", "coordinates": [9.14502, 45.47564, 0], "smartPhoneRequired": true, "interior": "GOOD", "exterior": "GOOD", "address": "Via Mos\u00e8 Bianchi, 89, 20149 Milano", "fuel": 31, "engineType": "CE"}, {"name": "589/FF139NT", "vin": "WME4533421K152689", "coordinates": [9.19151, 45.43697, 0], "smartPhoneRequired": true, "interior": "GOOD", "exterior": "GOOD", "address": "Via Giacomo Antonini, 20, 20141 Milano", "fuel": 100, "engineType": "CE"}, {"name": "516/FF934KW", "vin": "WME4533421K144676", "coordinates": [9.185, 45.48933, 0], "smartPhoneRequired": true, "interior": "GOOD", "exterior": "GOOD", "address": "Via Luigi Porro Lambertenghi, 9, 20159 Milano", "fuel": 62, "engineType": "CE"}, {"name": "223/FF391BT", "vin": "WME4533421K145392", "coordinates": [9.17346, 45.44933, 0], "smartPhoneRequired": true, "interior": "GOOD", "exterior": "GOOD", "address": "Via Magolfa, 27-35, 20143 Milano", "fuel": 78, "engineType": "CE"}, {"name": "476/FF894KW", "vin": "WME4533421K146339", "coordinates": [9.17901, 45.45938, 0], "smartPhoneRequired": true, "interior": "GOOD", "exterior": "GOOD", "address": "Via Cesare Correnti, 19, 20123 Milano", "fuel": 87, "engineType": "CE"}, {"name": "448/FF858KW", "vin": "WME4533421K141782", "coordinates": [9.15291, 45.44184, 0], "smartPhoneRequired": true, "interior": "GOOD", "exterior": "GOOD", "address": "Via Ettore Ponti, 48, 20143 Milano", "fuel": 87, "engineType": "CE"}, {"name": "332/FF656KW", "vin": "WME4533421K144359", "coordinates": [9.20054, 45.46496, 0], "smartPhoneRequired": true, "interior": "GOOD", "exterior": "GOOD", "address": "Via Passione, 1-3, 20122 Milano", "fuel": 81, "engineType": "CE"}, {"name": "611/FF309NT", "vin": "WME4533421K152105", "coordinates": [9.27726, 45.46241, 0], "smartPhoneRequired": true, "interior": "GOOD", "exterior": "GOOD", "address": "Linate P3", "fuel": 65, "engineType": "CE"}, {"name": "001/FF116BT", "vin": "WME4533421K147344", "coordinates": [9.16906, 45.44416, 0], "smartPhoneRequired": true, "interior": "GOOD", "exterior": "GOOD", "address": "SPexSS11, 5-13, 20143 Milano", "fuel": 81, "engineType": "CE"}, {"name": "512/FF930KW", "vin": "WME4533421K148174", "coordinates": [9.19758, 45.43441, 0], "smartPhoneRequired": true, "interior": "GOOD", "exterior": "GOOD", "address": "Via Adelaide Coari, 11, 20141 Milano", "fuel": 100, "engineType": "CE"}, {"name": "570/FF100NT", "vin": "WME4533421K150531", "coordinates": [9.10039, 45.45868, 0], "smartPhoneRequired": true, "interior": "GOOD", "exterior": "GOOD", "address": "Via Cividale del Friuli, 6, 20152 Milano", "fuel": 100, "engineType": "CE"}, {"name": "243/FF411BT", "vin": "WME4533421K149573", "coordinates": [9.16677, 45.48275, 0], "smartPhoneRequired": true, "interior": "GOOD", "exterior": "GOOD", "address": "Via Saronno, 1, 20154 Milano", "fuel": 100, "engineType": "CE"}, {"name": "564/FF087NT", "vin": "WME4533421K147494", "coordinates": [9.20492, 45.4494, 0], "smartPhoneRequired": true, "interior": "GOOD", "exterior": "GOOD", "address": "Via Gian Carlo Passeroni, 4065, 20135 Milano", "fuel": 100, "engineType": "CE"}, {"name": "301/FF475BT", "vin": "WME4533421K144980", "coordinates": [9.12403, 45.44849, 0], "smartPhoneRequired": true, "interior": "GOOD", "exterior": "GOOD", "address": "Via del Cardellino, 4, 20147 Milano", "fuel": 81, "engineType": "CE"}, {"name": "506/FF924KW", "vin": "WME4533421K144952", "coordinates": [9.21208, 45.44613, 0], "smartPhoneRequired": true, "interior": "GOOD", "exterior": "GOOD", "address": "Corso Lodi, 40-44, 20135 Milano", "fuel": 100, "engineType": "CE"}, {"name": "018/FF133BT", "vin": "WME4533421K142808", "coordinates": [9.10078, 45.49055, 0], "smartPhoneRequired": true, "interior": "GOOD", "exterior": "GOOD", "address": "Piazza Rosa Scolari, 3, 20151 Milano", "fuel": 100, "engineType": "CE"}, {"name": "044/FF159BT", "vin": "WME4533421K148537", "coordinates": [9.21184, 45.52193, 0], "smartPhoneRequired": true, "interior": "GOOD", "exterior": "GOOD", "address": "Via Chiese, 72, 20126 Milano", "fuel": 96, "engineType": "CE"}, {"name": "480/FF898KW", "vin": "WME4533421K146578", "coordinates": [9.18702, 45.44953, 0], "smartPhoneRequired": true, "interior": "GOOD", "exterior": "GOOD", "address": "Via Guglielmo Rontgen, 19, 20136 Milano", "fuel": 50, "engineType": "CE"}, {"name": "778/FF087VV", "vin": "WME4530421Y100269", "coordinates": [9.15205, 45.48998, 0], "smartPhoneRequired": true, "interior": "GOOD", "exterior": "GOOD", "address": "Viale Certosa, 26, 20155 Milano", "fuel": 65, "engineType": "CE"}, {"name": "260/FF432BT", "vin": "WME4533421K142480", "coordinates": [9.14075, 45.47992, 0], "smartPhoneRequired": true, "interior": "GOOD", "exterior": "GOOD", "address": "Via Diomede, 1, 20148 Milano", "fuel": 100, "engineType": "CE"}, {"name": "292/FF464BT", "vin": "WME4533421K141251", "coordinates": [9.16344, 45.47139, 0], "smartPhoneRequired": true, "interior": "GOOD", "exterior": "GOOD", "address": "Via Lorenzo Mascheroni, 29, 20145 Milano", "fuel": 100, "engineType": "CE"}, {"name": "594/FF145NT", "vin": "WME4533421K152804", "coordinates": [9.15222, 45.48724, 0], "smartPhoneRequired": true, "interior": "GOOD", "exterior": "GOOD", "address": "Via Marcantonio Colonna, 33-35, 20149 Milano", "fuel": 62, "engineType": "CE"}, {"name": "585/FF125NT", "vin": "WME4533421K148184", "coordinates": [9.27726, 45.46241, 0], "smartPhoneRequired": true, "interior": "GOOD", "exterior": "GOOD", "address": "Linate P3", "fuel": 21, "engineType": "CE"}, {"name": "284/FF456BT", "vin": "WME4533421K147484", "coordinates": [9.17841, 45.45508, 0], "smartPhoneRequired": true, "interior": "GOOD", "exterior": "GOOD", "address": "Via Conca del Naviglio, 37, 20123 Milano", "fuel": 100, "engineType": "CE"}, {"name": "513/FF931KW", "vin": "WME4533421K148195", "coordinates": [9.09482, 45.454, 0], "smartPhoneRequired": true, "interior": "GOOD", "exterior": "GOOD", "address": "Via Valsesia, 65-79, 20152 Milano", "fuel": 71, "engineType": "CE"}, {"name": "124/FF260BT", "vin": "WME4533421K146973", "coordinates": [9.21105, 45.4595, 0], "smartPhoneRequired": true, "interior": "GOOD", "exterior": "GOOD", "address": "Via Emilio Morosini, 19, 20135 Milano", "fuel": 65, "engineType": "CE"}, {"name": "254/FF422BT", "vin": "WME4533421K140610", "coordinates": [9.22553, 45.46416, 0], "smartPhoneRequired": true, "interior": "GOOD", "exterior": "GOOD", "address": "Via Giacomo Zanella, 10-14, 20133 Milano", "fuel": 59, "engineType": "CE"}, {"name": "015/FF130BT", "vin": "WME4533421K142724", "coordinates": [9.27726, 45.46241, 0], "smartPhoneRequired": true, "interior": "GOOD", "exterior": "GOOD", "address": "Linate P3", "fuel": 90, "engineType": "CE"}, {"name": "565/FF090NT", "vin": "WME4533421K147860", "coordinates": [9.2319, 45.48526, 0], "smartPhoneRequired": true, "interior": "GOOD", "exterior": "GOOD", "address": "Via Privata Adelchi, 223, 20131 Milano", "fuel": 40, "engineType": "CE"}, {"name": "106/FF242BT", "vin": "WME4533421K144769", "coordinates": [9.22724, 45.49827, 0], "smartPhoneRequired": true, "interior": "GOOD", "exterior": "GOOD", "address": "Via Luigi Prinetti, 7-11, 20127 Milano", "fuel": 100, "engineType": "CE"}, {"name": "423/FF818KW", "vin": "WME4533421K149504", "coordinates": [9.18573, 45.4348, 0], "smartPhoneRequired": true, "interior": "GOOD", "exterior": "GOOD", "address": "Via Palmieri Nicola, 72, 20141 Milano", "fuel": 96, "engineType": "CE"}, {"name": "274/FF446BT", "vin": "WME4533421K145762", "coordinates": [9.18482, 45.4644, 0], "smartPhoneRequired": true, "interior": "GOOD", "exterior": "GOOD", "address": "Piazza Tommaso Edison, 4, 20123 Milano", "fuel": 50, "engineType": "CE"}, {"name": "010/FF125BT", "vin": "WME4533421K147532", "coordinates": [9.16558, 45.45098, 0], "smartPhoneRequired": true, "interior": "GOOD", "exterior": "GOOD", "address": "Via Bergognone, 63, 20144 Milano", "fuel": 84, "engineType": "CE"}, {"name": "496/FF914KW", "vin": "WME4533421K147744", "coordinates": [9.17696, 45.49538, 0], "smartPhoneRequired": true, "interior": "GOOD", "exterior": "GOOD", "address": "Viale Vincenzo Lancetti, 24, 20158 Milano", "fuel": 40, "engineType": "CE"}, {"name": "289/FF461BT", "vin": "WME4533421K150000", "coordinates": [9.15409, 45.48958, 0], "smartPhoneRequired": true, "interior": "GOOD", "exterior": "GOOD", "address": "Via Giovanni Antonio Plana, 19-23, 20155 Milano", "fuel": 87, "engineType": "CE"}, {"name": "614/FF312NT", "vin": "WME4533421K152298", "coordinates": [9.17176, 45.44412, 0], "smartPhoneRequired": true, "interior": "GOOD", "exterior": "GOOD", "address": "SPexSS11, 23, 20143 Milano", "fuel": 100, "engineType": "CE"}, {"name": "082/FF197BT", "vin": "WME4533421K149050", "coordinates": [9.14582, 45.44075, 0], "smartPhoneRequired": true, "interior": "GOOD", "exterior": "GOOD", "address": "Via Francesco Olgiati, 19, 20143 Milano", "fuel": 90, "engineType": "CE"}, {"name": "078/FF193BT", "vin": "WME4533421K141582", "coordinates": [9.16054, 45.48717, 0], "smartPhoneRequired": true, "interior": "GOOD", "exterior": "GOOD", "address": "Via Ezio Biondi, 6, 20154 Milano", "fuel": 15, "engineType": "CE"}, {"name": "455/FF865KW", "vin": "WME4533421K140739", "coordinates": [9.15475, 45.48881, 0], "smartPhoneRequired": true, "interior": "GOOD", "exterior": "GOOD", "address": "Viale Certosa, 2, 20155 Milano", "fuel": 62, "engineType": "CE"}, {"name": "068/FF183BT", "vin": "WME4533421K147329", "coordinates": [9.21513, 45.51862, 0], "smartPhoneRequired": true, "interior": "GOOD", "exterior": "GOOD", "address": "Viale dell'Innovazione, 12, 20126 Milano", "fuel": 50, "engineType": "CE"}, {"name": "065/FF180BT", "vin": "WME4533421K147111", "coordinates": [9.21194, 45.50442, 0], "smartPhoneRequired": true, "interior": "GOOD", "exterior": "GOOD", "address": "Via Emilio de Marchi, 62-64, 20125 Milano", "fuel": 100, "engineType": "CE"}, {"name": "719/FF204SJ", "vin": "WME4533421K152510", "coordinates": [9.172, 45.44071, 0], "smartPhoneRequired": true, "interior": "GOOD", "exterior": "GOOD", "address": "Via Rimini, 21-29, 20142 Milano", "fuel": 96, "engineType": "CE"}, {"name": "070/FF185BT", "vin": "WME4533421K140958", "coordinates": [9.14591, 45.4423, 0], "smartPhoneRequired": true, "interior": "GOOD", "exterior": "GOOD", "address": "Via S. Giuseppe Cottolengo, 9, 20143 Milano", "fuel": 75, "engineType": "CE"}, {"name": "007/FF122BT", "vin": "WME4533421K141806", "coordinates": [9.20098, 45.50339, 0], "smartPhoneRequired": true, "interior": "GOOD", "exterior": "GOOD", "address": "Viale Sarca, 1930, 20125 Milano", "fuel": 96, "engineType": "CE"}, {"name": "524/FF005NT", "vin": "WME4533421K146813", "coordinates": [9.23663, 45.48012, 0], "smartPhoneRequired": true, "interior": "GOOD", "exterior": "GOOD", "address": "Via Carlo Valvassori Peroni, 58-62, 20133 Milano", "fuel": 90, "engineType": "CE"}, {"name": "302/FF476BT", "vin": "WME4533421K145181", "coordinates": [9.2068, 45.45096, 0], "smartPhoneRequired": true, "interior": "GOOD", "exterior": "GOOD", "address": "Via Pietro Colletta, 9, 20135 Milano", "fuel": 100, "engineType": "CE"}, {"name": "061/FF176BT", "vin": "WME4533421K146901", "coordinates": [9.25743, 45.4302, 0], "smartPhoneRequired": true, "interior": "GOOD", "exterior": "GOOD", "address": "Via Giuseppe Impastato, 27, 20138 Milano", "fuel": 87, "engineType": "CE"}, {"name": "176/FF313BT", "vin": "WME4533421K147998", "coordinates": [9.15642, 45.47529, 0], "smartPhoneRequired": true, "interior": "GOOD", "exterior": "GOOD", "address": "Piazzale Giulio Cesare, 20, 20145 Milano", "fuel": 56, "engineType": "CE"}, {"name": "788/FF097VV", "vin": "WME4530421Y095548", "coordinates": [9.16173, 45.47553, 0], "smartPhoneRequired": true, "interior": "GOOD", "exterior": "GOOD", "address": "Via Ippolito Nievo, 28, 20145 Milano", "fuel": 68, "engineType": "CE"}, {"name": "784/FF093VV", "vin": "WME4530421Y095552", "coordinates": [9.20603, 45.4622, 0], "smartPhoneRequired": true, "interior": "GOOD", "exterior": "GOOD", "address": "Corso di Porta Vittoria, 56, 20122 Milano", "fuel": 71, "engineType": "CE"}, {"name": "787/FF096VV", "vin": "WME4530421Y095549", "coordinates": [9.08796, 45.46386, 0], "smartPhoneRequired": true, "interior": "GOOD", "exterior": "GOOD", "address": "Via Anselmo da Baggio, 58-60, 20153 Milano MI", "fuel": 100, "engineType": "CE"}, {"name": "783/FF092VV", "vin": "WME4530421Y095547", "coordinates": [9.15645, 45.44083, 0], "smartPhoneRequired": true, "interior": "GOOD", "exterior": "GOOD", "address": "Via Bonaventura Zumbini, 32-36, 20143 Milano", "fuel": 43, "engineType": "CE"}, {"name": "786/FF095VV", "vin": "WME4530421Y095550", "coordinates": [9.20355, 45.46204, 0], "smartPhoneRequired": true, "interior": "GOOD", "exterior": "GOOD", "address": "Corso di Porta Vittoria, 38, 20122 Milano", "fuel": 62, "engineType": "CE"}, {"name": "777/FF086VV", "vin": "WME4530421Y100266", "coordinates": [9.14029, 45.49058, 0], "smartPhoneRequired": true, "interior": "GOOD", "exterior": "GOOD", "address": "Viale Alcide De Gasperi, 20149 Milano", "fuel": 78, "engineType": "CE"}, {"name": "746/FF065VY", "vin": "WME4533421K151013", "coordinates": [9.19872, 45.47853, 0], "smartPhoneRequired": true, "interior": "GOOD", "exterior": "GOOD", "address": "Piazza della Repubblica, 18, 20124 Milano", "fuel": 81, "engineType": "CE"}, {"name": "554/FF945KW", "vin": "WME4533421K145364", "coordinates": [9.21271, 45.46929, 0], "smartPhoneRequired": true, "interior": "GOOD", "exterior": "GOOD", "address": "Via Carlo Goldoni, 21, 20129 Milano", "fuel": 87, "engineType": "CE"}, {"name": "775/FF084VV", "vin": "WME4530421Y100258", "coordinates": [9.13036, 45.46535, 0], "smartPhoneRequired": true, "interior": "GOOD", "exterior": "GOOD", "address": "Via Tommaso Gulli, 56, 20147 Milano", "fuel": 59, "engineType": "CE"}, {"name": "774/FF083VV", "vin": "WME4530421Y100255", "coordinates": [9.19675, 45.50352, 0], "smartPhoneRequired": true, "interior": "GOOD", "exterior": "GOOD", "address": "Largo Desio, 20159 Milano", "fuel": 59, "engineType": "CE"}, {"name": "773/FF082VV", "vin": "WME4530421Y095546", "coordinates": [9.14739, 45.44046, 0], "smartPhoneRequired": true, "interior": "GOOD", "exterior": "GOOD", "address": "Via Walter Tobagi, 6, 20143 Milano", "fuel": 56, "engineType": "CE"}, {"name": "320/FF494BT", "vin": "WME4533421K149397", "coordinates": [9.20723, 45.47066, 0], "smartPhoneRequired": true, "interior": "GOOD", "exterior": "GOOD", "address": "Via Felice Bellotti, 2a, 20129 Milano", "fuel": 100, "engineType": "CE"}, {"name": "771/FF080VV", "vin": "WME4530421Y098461", "coordinates": [9.23492, 45.4844, 0], "smartPhoneRequired": true, "interior": "GOOD", "exterior": "GOOD", "address": "Via Viminale, 1, 20131 Milano", "fuel": 87, "engineType": "CE"}, {"name": "768/FF077VV", "vin": "WME4530421Y098449", "coordinates": [9.19123, 45.47993, 0], "smartPhoneRequired": true, "interior": "GOOD", "exterior": "GOOD", "address": "Bastioni di Porta Nuova, 4, 20121 Milano", "fuel": 100, "engineType": "CE"}, {"name": "767/FF076VV", "vin": "WME4530421Y098443", "coordinates": [9.13265, 45.48751, 0], "smartPhoneRequired": true, "interior": "GOOD", "exterior": "GOOD", "address": "Via Enrico Terzaghi, 20151 Milano", "fuel": 78, "engineType": "CE"}, {"name": "769/FF078VV", "vin": "WME4530421Y098453", "coordinates": [9.18908, 45.44624, 0], "smartPhoneRequired": true, "interior": "GOOD", "exterior": "GOOD", "address": "SPexSS11, 28, 20136 Milano", "fuel": 87, "engineType": "CE"}, {"name": "760/FF069VV", "vin": "WME4530421Y095558", "coordinates": [9.20579, 45.47654, 0], "smartPhoneRequired": true, "interior": "GOOD", "exterior": "GOOD", "address": "Via Alessandro Tadino, 8, 20124 Milano", "fuel": 100, "engineType": "CE"}, {"name": "761/FF070VV", "vin": "WME4530421Y095560", "coordinates": [9.23412, 45.47941, 0], "smartPhoneRequired": true, "interior": "GOOD", "exterior": "GOOD", "address": "Via Corf\u00f9, 2, 20133 Milano", "fuel": 68, "engineType": "CE"}, {"name": "758/FF062VV", "vin": "WME4530421Y095545", "coordinates": [9.16479, 45.49733, 0], "smartPhoneRequired": true, "interior": "GOOD", "exterior": "GOOD", "address": "Piazzale Lugano, 21, 20158 Milano", "fuel": 100, "engineType": "CE"}, {"name": "755/FF059VV", "vin": "WME4530421Y095557", "coordinates": [9.23487, 45.47732, 0], "smartPhoneRequired": true, "interior": "GOOD", "exterior": "GOOD", "address": "Via Bernardo Ugo Secondo, 2, 20133 Milano", "fuel": 65, "engineType": "CE"}, {"name": "756/FF060VV", "vin": "WME4530421Y095562", "coordinates": [9.1508, 45.40704, 0], "smartPhoneRequired": true, "interior": "GOOD", "exterior": "GOOD", "address": "Via Roggia Bartolomea, 3, 20090 Assago MI", "fuel": 43, "engineType": "CE"}, {"name": "752/FF056VV", "vin": "WME4530421Y095554", "coordinates": [9.23368, 45.43983, 0], "smartPhoneRequired": true, "interior": "GOOD", "exterior": "GOOD", "address": "Via Vincenzo Toffetti, 29-31, 20139 Milano", "fuel": 96, "engineType": "CE"}, {"name": "751/FF055VV", "vin": "WME4530421Y095553", "coordinates": [9.15686, 45.4397, 0], "smartPhoneRequired": true, "interior": "GOOD", "exterior": "GOOD", "address": "Via Simone Martini, 11, 20143 Milano", "fuel": 100, "engineType": "CE"}, {"name": "074/FF189BT", "vin": "WME4533421K148699", "coordinates": [9.21469, 45.48837, 0], "smartPhoneRequired": true, "interior": "GOOD", "exterior": "GOOD", "address": "Via Beroldo, 4a, 20127 Milano", "fuel": 34, "engineType": "CE"}, {"name": "750/FF069VY", "vin": "WME4533421K151923", "coordinates": [9.20855, 45.51057, 0], "smartPhoneRequired": true, "interior": "GOOD", "exterior": "GOOD", "address": "Viale Piero e Alberto Pirelli, 6, 20126 Milano", "fuel": 71, "engineType": "CE"}, {"name": "747/FF066VY", "vin": "WME4533421K151728", "coordinates": [9.1421, 45.48691, 0], "smartPhoneRequired": true, "interior": "GOOD", "exterior": "GOOD", "address": "Via Giovanni Cimabue, 2-4, 20148 Milano", "fuel": 100, "engineType": "CE"}, {"name": "744/FF060VY", "vin": "WME4533421K152327", "coordinates": [9.22064, 45.46679, 0], "smartPhoneRequired": true, "interior": "GOOD", "exterior": "GOOD", "address": "Via Privata Valentino Pasini, 2, 20129 Milano", "fuel": 31, "engineType": "CE"}, {"name": "263/FF435BT", "vin": "WME4533421K144300", "coordinates": [9.22944, 45.47691, 0], "smartPhoneRequired": true, "interior": "GOOD", "exterior": "GOOD", "address": "Via Giovanni Celoria, 10-12, 20133 Milano", "fuel": 40, "engineType": "CE"}, {"name": "743/FF058VY", "vin": "WME4533421K152181", "coordinates": [9.1623, 45.45175, 0], "smartPhoneRequired": true, "interior": "GOOD", "exterior": "GOOD", "address": "Via Tortona, 54, 20144 Milano", "fuel": 40, "engineType": "CE"}, {"name": "203/FF370BT", "vin": "WME4533421K148304", "coordinates": [9.09512, 45.45861, 0], "smartPhoneRequired": true, "interior": "GOOD", "exterior": "GOOD", "address": "Via Privata Albona, 10, 20152 Milano", "fuel": 68, "engineType": "CE"}, {"name": "338/FF662KW", "vin": "WME4533421K147358", "coordinates": [9.14073, 45.47956, 0], "smartPhoneRequired": true, "interior": "GOOD", "exterior": "GOOD", "address": "Via Diomede, 1, 20148 Milano", "fuel": 31, "engineType": "CE"}, {"name": "795/FF362NT", "vin": "WME4530421Y100243", "coordinates": [9.14614, 45.46984, 0], "smartPhoneRequired": true, "interior": "GOOD", "exterior": "GOOD", "address": "Via Federico Faruffini, 40, 20149 Milano", "fuel": 75, "engineType": "CE"}, {"name": "218/FF385BT", "vin": "WME4533421K147083", "coordinates": [9.1636, 45.48287, 0], "smartPhoneRequired": true, "interior": "GOOD", "exterior": "GOOD", "address": "Corso Sempione, 52, 20154 Milano", "fuel": 84, "engineType": "CE"}, {"name": "200/FF367BT", "vin": "WME4533421K146767", "coordinates": [9.09352, 45.45435, 0], "smartPhoneRequired": true, "interior": "GOOD", "exterior": "GOOD", "address": "Via Valsesia, 65-79, 20152 Milano", "fuel": 100, "engineType": "CE"}, {"name": "197/FF364BT", "vin": "WME4533421K146462", "coordinates": [9.17018, 45.47931, 0], "smartPhoneRequired": true, "interior": "GOOD", "exterior": "GOOD", "address": "Via Francesco Londonio, 1-5, 20154 Milano", "fuel": 84, "engineType": "CE"}, {"name": "248/FF416BT", "vin": "WME4533421K144256", "coordinates": [9.21383, 45.44894, 0], "smartPhoneRequired": true, "interior": "GOOD", "exterior": "GOOD", "address": "Via Lattanzio, 8, 20137 Milano", "fuel": 18, "engineType": "CE"}, {"name": "196/FF363BT", "vin": "WME4533421K146390", "coordinates": [9.15244, 45.47231, 0], "smartPhoneRequired": true, "interior": "GOOD", "exterior": "GOOD", "address": "Via Alberto Mario, 1, 20149 Milano", "fuel": 100, "engineType": "CE"}, {"name": "244/FF412BT", "vin": "WME4533421K150147", "coordinates": [9.20676, 45.45911, 0], "smartPhoneRequired": true, "interior": "GOOD", "exterior": "GOOD", "address": "Viale Monte Nero, 58, 20135 Milano", "fuel": 21, "engineType": "CE"}, {"name": "195/FF362BT", "vin": "WME4533421K146351", "coordinates": [9.15747, 45.45057, 0], "smartPhoneRequired": true, "interior": "GOOD", "exterior": "GOOD", "address": "Via Tortona, 39, 20144 Milano", "fuel": 65, "engineType": "CE"}, {"name": "194/FF361BT", "vin": "WME4533421K146342", "coordinates": [9.17615, 45.44756, 0], "smartPhoneRequired": true, "interior": "GOOD", "exterior": "GOOD", "address": "Via Giosu\u00e8 Borsi, 6, 20143 Milano", "fuel": 25, "engineType": "CE"}, {"name": "193/FF360BT", "vin": "WME4533421K146303", "coordinates": [9.2216, 45.44585, 0], "smartPhoneRequired": true, "interior": "GOOD", "exterior": "GOOD", "address": "Via Giovanni Scheiwiller, 11, 20139 Milano", "fuel": 100, "engineType": "CE"}, {"name": "268/FF440BT", "vin": "WME4533421K144765", "coordinates": [9.14365, 45.49905, 0], "smartPhoneRequired": true, "interior": "GOOD", "exterior": "GOOD", "address": "Via Varesina, 95, 20156 Milano", "fuel": 100, "engineType": "CE"}, {"name": "348/FF677KW", "vin": "WME4533421K146527", "coordinates": [9.17298, 45.44913, 0], "smartPhoneRequired": true, "interior": "GOOD", "exterior": "GOOD", "address": "Via Giovanni Segantini, 6-8, 20143 Milano", "fuel": 62, "engineType": "CE"}, {"name": "403/FF751KW", "vin": "WME4533421K147091", "coordinates": [9.18729, 45.45058, 0], "smartPhoneRequired": true, "interior": "GOOD", "exterior": "GOOD", "address": "Via Guglielmo Rontgen, 1, 20136 Milano", "fuel": 87, "engineType": "CE"}, {"name": "265/FF437BT", "vin": "WME4533421K144612", "coordinates": [9.21084, 45.5176, 0], "smartPhoneRequired": true, "interior": "GOOD", "exterior": "GOOD", "address": "Via Padre Gerardo Beccaro, 9, 20126 Milano", "fuel": 53, "engineType": "CE"}, {"name": "586/FF128NT", "vin": "WME4533421K151988", "coordinates": [9.14959, 45.45789, 0], "smartPhoneRequired": true, "interior": "GOOD", "exterior": "GOOD", "address": "Via Tagiura, 8, 20146 Milano", "fuel": 93, "engineType": "CE"}, {"name": "438/FF846KW", "vin": "WME4533421K142227", "coordinates": [9.23546, 45.48236, 0], "smartPhoneRequired": true, "interior": "GOOD", "exterior": "GOOD", "address": "Via Cesare Beruto, 14, 20133 Milano", "fuel": 75, "engineType": "CE"}, {"name": "661/FF096SJ", "vin": "WME4533421K152623", "coordinates": [9.20587, 45.46755, 0], "smartPhoneRequired": true, "interior": "GOOD", "exterior": "GOOD", "address": "Viale Bianca Maria, 45, 20122 Milano", "fuel": 43, "engineType": "CE"}, {"name": "532/FF013NT", "vin": "WME4533421K148037", "coordinates": [9.18212, 45.44762, 0], "smartPhoneRequired": true, "interior": "GOOD", "exterior": "GOOD", "address": "Via Odoardo Tabacchi, 17, 20136 Milano", "fuel": 84, "engineType": "CE"}, {"name": "181/FF348BT", "vin": "WME4533421K145382", "coordinates": [9.18169, 45.48382, 0], "smartPhoneRequired": true, "interior": "GOOD", "exterior": "GOOD", "address": "Via Carlo Farini, 5, 20154 Milano", "fuel": 81, "engineType": "CE"}, {"name": "178/FF315BT", "vin": "WME4533421K148478", "coordinates": [9.19876, 45.47771, 0], "smartPhoneRequired": true, "interior": "GOOD", "exterior": "GOOD", "address": "Viale Vittorio Veneto, 32, 20124 Milano", "fuel": 81, "engineType": "CE"}, {"name": "381/FF723KW", "vin": "WME4533421K148782", "coordinates": [9.24319, 45.46184, 0], "smartPhoneRequired": true, "interior": "GOOD", "exterior": "GOOD", "address": "Via Ermanno Barigozzi, 3, 20138 Milano", "fuel": 100, "engineType": "CE"}, {"name": "317/FF491BT", "vin": "WME4533421K148579", "coordinates": [9.23639, 45.48368, 0], "smartPhoneRequired": true, "interior": "GOOD", "exterior": "GOOD", "address": "Via Carlo Valvassori Peroni, 83, 20131 Milano", "fuel": 96, "engineType": "CE"}, {"name": "167/FF304BT", "vin": "WME4533421K149285", "coordinates": [9.1558, 45.43941, 0], "smartPhoneRequired": true, "interior": "GOOD", "exterior": "GOOD", "address": "Via Simone Martini, 11, 20143 Milano", "fuel": 25, "engineType": "CE"}, {"name": "164/FF301BT", "vin": "WME4533421K149131", "coordinates": [9.23592, 45.49418, 0], "smartPhoneRequired": true, "interior": "GOOD", "exterior": "GOOD", "address": "Via Carnia, 25, 20132 Milano", "fuel": 100, "engineType": "CE"}, {"name": "163/FF300BT", "vin": "WME4533421K149100", "coordinates": [9.13245, 45.47571, 0], "smartPhoneRequired": true, "interior": "GOOD", "exterior": "GOOD", "address": "Piazza Esquilino, 20148 Milano", "fuel": 96, "engineType": "CE"}, {"name": "162/FF299BT", "vin": "WME4533421K148946", "coordinates": [9.18498, 45.48492, 0], "smartPhoneRequired": true, "interior": "GOOD", "exterior": "GOOD", "address": "Via Giuseppe Ferrari, 10, 20154 Milano", "fuel": 100, "engineType": "CE"}, {"name": "635/FF047SJ", "vin": "WME4533421K150486", "coordinates": [9.14346, 45.46413, 0], "smartPhoneRequired": true, "interior": "GOOD", "exterior": "GOOD", "address": "Via Pasquale Fornari, 13, 20146 Milano", "fuel": 81, "engineType": "CE"}, {"name": "119/FF255BT", "vin": "WME4533421K146316", "coordinates": [9.187, 45.44977, 0], "smartPhoneRequired": true, "interior": "GOOD", "exterior": "GOOD", "address": "Via Guglielmo Rontgen, 20, 20136 Milano", "fuel": 40, "engineType": "CE"}, {"name": "165/FF302BT", "vin": "WME4533421K149189", "coordinates": [9.14715, 45.5005, 0], "smartPhoneRequired": true, "interior": "GOOD", "exterior": "GOOD", "address": "Via Console Marcello, 20-24, 20156 Milano", "fuel": 100, "engineType": "CE"}, {"name": "143/FF280BT", "vin": "WME4533421K146364", "coordinates": [9.15796, 45.49228, 0], "smartPhoneRequired": true, "interior": "GOOD", "exterior": "GOOD", "address": "Via Grigna, 1, 20155 Milano", "fuel": 100, "engineType": "CE"}, {"name": "021/FF136BT", "vin": "WME4533421K147714", "coordinates": [9.16726, 45.45253, 0], "smartPhoneRequired": true, "interior": "GOOD", "exterior": "GOOD", "address": "Via Vincenzo Forcella, 9, 20144 Milano", "fuel": 90, "engineType": "CE"}, {"name": "138/FF274BT", "vin": "WME4533421K148778", "coordinates": [9.22048, 45.48031, 0], "smartPhoneRequired": true, "interior": "GOOD", "exterior": "GOOD", "address": "Via Donatello, 21, 20131 Milano", "fuel": 87, "engineType": "CE"}, {"name": "641/FF060SJ", "vin": "WME4533421K151406", "coordinates": [9.16435, 45.49744, 0], "smartPhoneRequired": true, "interior": "GOOD", "exterior": "GOOD", "address": "Piazzale Lugano, 21, 20158 Milano", "fuel": 100, "engineType": "CE"}, {"name": "643/FF063SJ", "vin": "WME4533421K151482", "coordinates": [9.15098, 45.40691, 0], "smartPhoneRequired": true, "interior": "GOOD", "exterior": "GOOD", "address": "Via Roggia Bartolomea, 3, 20090 Assago MI", "fuel": 43, "engineType": "CE"}, {"name": "646/FF069SJ", "vin": "WME4533421K151645", "coordinates": [9.18731, 45.45017, 0], "smartPhoneRequired": true, "interior": "GOOD", "exterior": "GOOD", "address": "Via Guglielmo Rontgen, 1-19, 20136 Milano", "fuel": 93, "engineType": "CE"}, {"name": "148/FF285BT", "vin": "WME4533421K146894", "coordinates": [9.22024, 45.48443, 0], "smartPhoneRequired": true, "interior": "GOOD", "exterior": "GOOD", "address": "Via Antonio Sacchini, 2, 20131 Milano", "fuel": 100, "engineType": "CE"}, {"name": "642/FF061SJ", "vin": "WME4533421K151447", "coordinates": [9.24988, 45.43351, 0], "smartPhoneRequired": true, "interior": "GOOD", "exterior": "GOOD", "address": "Via Carlo Feltrinelli, 16, 20138 Milano", "fuel": 87, "engineType": "CE"}, {"name": "656/FF087SJ", "vin": "WME4533421K146037", "coordinates": [9.15775, 45.45075, 0], "smartPhoneRequired": true, "interior": "GOOD", "exterior": "GOOD", "address": "Via Tortona, 76, 20144 Milano", "fuel": 78, "engineType": "CE"}, {"name": "658/FF090SJ", "vin": "WME4533421K152416", "coordinates": [9.19391, 45.49101, 0], "smartPhoneRequired": true, "interior": "GOOD", "exterior": "GOOD", "address": "Via Torquato Taramelli, 24, 20124 Milano", "fuel": 100, "engineType": "CE"}, {"name": "660/FF094SJ", "vin": "WME4533421K152548", "coordinates": [9.18706, 45.48547, 0], "smartPhoneRequired": true, "interior": "GOOD", "exterior": "GOOD", "address": "Cavalcavia Eugenio Bussa, 49, 20154 Milano", "fuel": 81, "engineType": "CE"}, {"name": "419/FF811KW", "vin": "WME4533421K140197", "coordinates": [9.21707, 45.49591, 0], "smartPhoneRequired": true, "interior": "GOOD", "exterior": "GOOD", "address": "Via Popoli Uniti, 20, 20125 Milano", "fuel": 100, "engineType": "CE"}, {"name": "126/FF262BT", "vin": "WME4533421K148223", "coordinates": [9.14426, 45.44264, 0], "smartPhoneRequired": true, "interior": "GOOD", "exterior": "GOOD", "address": "Via Guglielmo Guintellino, 21, 20143 Milano", "fuel": 56, "engineType": "CE"}, {"name": "026/FF141BT", "vin": "WME4533421K147840", "coordinates": [9.21914, 45.45073, 0], "smartPhoneRequired": true, "interior": "GOOD", "exterior": "GOOD", "address": "Via Tito Livio, 26, 20137 Milano", "fuel": 100, "engineType": "CE"}, {"name": "677/FF125SJ", "vin": "WME4533421K153520", "coordinates": [9.16559, 45.45099, 0], "smartPhoneRequired": true, "interior": "GOOD", "exterior": "GOOD", "address": "Via Bergognone, 63, 20144 Milano", "fuel": 100, "engineType": "CE"}, {"name": "046/FF161BT", "vin": "WME4533421K147589", "coordinates": [9.19766, 45.4706, 0], "smartPhoneRequired": true, "interior": "GOOD", "exterior": "GOOD", "address": "Via Marina, 2, 20121 Milano", "fuel": 84, "engineType": "CE"}, {"name": "214/FF381BT", "vin": "WME4533421K145146", "coordinates": [9.1438, 45.50191, 0], "smartPhoneRequired": true, "interior": "GOOD", "exterior": "GOOD", "address": "Via Console Marcello, 41, 20156 Milano", "fuel": 100, "engineType": "CE"}, {"name": "686/FF149SJ", "vin": "WME4533421K150618", "coordinates": [9.1606, 45.47284, 0], "smartPhoneRequired": true, "interior": "GOOD", "exterior": "GOOD", "address": "Via Ippolito Nievo, 10, 20145 Milano", "fuel": 81, "engineType": "CE"}, {"name": "682/FF134SJ", "vin": "WME4533421K153895", "coordinates": [9.18791, 45.4539, 0], "smartPhoneRequired": true, "interior": "GOOD", "exterior": "GOOD", "address": "Via Aldo Lusardi, 3, 20122 Milano", "fuel": 46, "engineType": "CE"}, {"name": "688/FF155SJ", "vin": "WME4533421K146355", "coordinates": [9.21014, 45.43839, 0], "smartPhoneRequired": true, "interior": "GOOD", "exterior": "GOOD", "address": "Via Cassano d'Adda, 14, 20139 Milano", "fuel": 100, "engineType": "CE"}, {"name": "703/FF177SJ", "vin": "WME4533421K146759", "coordinates": [9.22514, 45.51989, 0], "smartPhoneRequired": true, "interior": "GOOD", "exterior": "GOOD", "address": "Via Privata Galeno, 22, 20126 Milano", "fuel": 100, "engineType": "CE"}, {"name": "709/FF190SJ", "vin": "WME4533421K152214", "coordinates": [9.17529, 45.51359, 0], "smartPhoneRequired": true, "interior": "GOOD", "exterior": "GOOD", "address": "Via Cavalletto Alberto, 2, 20161 Milano", "fuel": 87, "engineType": "CE"}, {"name": "717/FF202SJ", "vin": "WME4533421K152464", "coordinates": [9.14971, 45.47359, 0], "smartPhoneRequired": true, "interior": "GOOD", "exterior": "GOOD", "address": "Via Domenichino, 10, 20149 Milano", "fuel": 100, "engineType": "CE"}, {"name": "637/FF053SJ", "vin": "WME4533421K150938", "coordinates": [9.16554, 45.4904, 0], "smartPhoneRequired": true, "interior": "GOOD", "exterior": "GOOD", "address": "Via Principe Eugenio, 36, 20155 Milano", "fuel": 56, "engineType": "CE"}, {"name": "385/FF727KW", "vin": "WME4533421K145900", "coordinates": [9.13682, 45.47227, 0], "smartPhoneRequired": true, "interior": "GOOD", "exterior": "GOOD", "address": "Via Bernardo Zamagna, 1, 20148 Milano", "fuel": 100, "engineType": "CE"}, {"name": "718/FF203SJ", "vin": "WME4533421K152504", "coordinates": [9.15474, 45.48907, 0], "smartPhoneRequired": true, "interior": "GOOD", "exterior": "GOOD", "address": "Via Plana Giovanni Antonio, 10, 20155 Milano", "fuel": 81, "engineType": "CE"}, {"name": "085/FF200BT", "vin": "WME4533421K149137", "coordinates": [9.1753, 45.51378, 0], "smartPhoneRequired": true, "interior": "GOOD", "exterior": "GOOD", "address": "Via Privata Alberto Cavalletto, 2, 20161 Milano", "fuel": 65, "engineType": "CE"}, {"name": "721/FF207SJ", "vin": "WME4533421K152553", "coordinates": [9.24381, 45.50091, 0], "smartPhoneRequired": true, "interior": "GOOD", "exterior": "GOOD", "address": "Via Don Giovanni Calabria, 30, 20132 Milano", "fuel": 90, "engineType": "CE"}, {"name": "347/FF676KW", "vin": "WME4533421K146523", "coordinates": [9.17216, 45.49494, 0], "smartPhoneRequired": true, "interior": "GOOD", "exterior": "GOOD", "address": "Viale Vincenzo Lancetti, 20158 Milano", "fuel": 96, "engineType": "CE"}, {"name": "237/FF405BT", "vin": "WME4533421K148046", "coordinates": [9.27726, 45.46241, 0], "smartPhoneRequired": true, "interior": "GOOD", "exterior": "GOOD", "address": "Linate P3", "fuel": 84, "engineType": "CE"}, {"name": "725/FF218SJ", "vin": "WME4533421K152748", "coordinates": [9.15122, 45.44503, 0], "smartPhoneRequired": true, "interior": "GOOD", "exterior": "GOOD", "address": "Via Morimondo, 20-26, 20143 Milano", "fuel": 90, "engineType": "CE"}, {"name": "726/FF219SJ", "vin": "WME4533421K152813", "coordinates": [9.24203, 45.43285, 0], "smartPhoneRequired": true, "interior": "GOOD", "exterior": "GOOD", "address": "Via Monte Penice, 7, 20138 Milano", "fuel": 100, "engineType": "CE"}, {"name": "204/FF371BT", "vin": "WME4533421K148308", "coordinates": [9.20426, 45.50003, 0], "smartPhoneRequired": true, "interior": "GOOD", "exterior": "GOOD", "address": "Via Birolli Renato, 10, 20125 Milano", "fuel": 75, "engineType": "CE"}, {"name": "727/FF220SJ", "vin": "WME4533421K150424", "coordinates": [9.17219, 45.45326, 0], "smartPhoneRequired": true, "interior": "GOOD", "exterior": "GOOD", "address": "Via Alessandria, 2, 20144 Milano", "fuel": 100, "engineType": "CE"}, {"name": "209/FF376BT", "vin": "WME4533421K141851", "coordinates": [9.14962, 45.48019, 0], "smartPhoneRequired": true, "interior": "GOOD", "exterior": "GOOD", "address": "Via Guglielmo Silva, 10, 20149 Milano", "fuel": 84, "engineType": "CE"}, {"name": "645/FF066SJ", "vin": "WME4533421K151539", "coordinates": [9.14431, 45.48084, 0], "smartPhoneRequired": true, "interior": "GOOD", "exterior": "GOOD", "address": "Via Sebastiano Veniero, 46, 20148 Milano", "fuel": 100, "engineType": "CE"}, {"name": "730/FF224SJ", "vin": "WME4533421K152885", "coordinates": [9.22659, 45.49831, 0], "smartPhoneRequired": true, "interior": "GOOD", "exterior": "GOOD", "address": "Via Adelaide Bono Cairoli, 6-10, 20127 Milano", "fuel": 84, "engineType": "CE"}, {"name": "729/FF223SJ", "vin": "WME4533421K152842", "coordinates": [9.14726, 45.48007, 0], "smartPhoneRequired": true, "interior": "GOOD", "exterior": "GOOD", "address": "Via Francesco Albani, 29, 20149 Milano", "fuel": 100, "engineType": "CE"}, {"name": "731/FF225SJ", "vin": "WME4533421K152887", "coordinates": [9.1883, 45.44913, 0], "smartPhoneRequired": true, "interior": "GOOD", "exterior": "GOOD", "address": "Piazza Angelo Sraffa, 6, 20136 Milano", "fuel": 62, "engineType": "CE"}, {"name": "733/FF229SJ", "vin": "WME4533421K152975", "coordinates": [9.15219, 45.43951, 0], "smartPhoneRequired": true, "interior": "GOOD", "exterior": "GOOD", "address": "Via Santa Rita da Cascia, 37-49, 20143 Milano", "fuel": 56, "engineType": "CE"}, {"name": "736/FF233SJ", "vin": "WME4533421K153005", "coordinates": [9.20821, 45.52038, 0], "smartPhoneRequired": true, "interior": "GOOD", "exterior": "GOOD", "address": "Viale Fulvio Testi, 7139, 20162 Milano", "fuel": 46, "engineType": "CE"}, {"name": "738/FF235SJ", "vin": "WME4533421K153234", "coordinates": [9.15043, 45.47256, 0], "smartPhoneRequired": true, "interior": "GOOD", "exterior": "GOOD", "address": "Via Gaetano Previati, 10, 20149 Milano", "fuel": 100, "engineType": "CE"}, {"name": "497/FF915KW", "vin": "WME4533421K147769", "coordinates": [9.21201, 45.48249, 0], "smartPhoneRequired": true, "interior": "GOOD", "exterior": "GOOD", "address": "Via Francesco Tamagno, 7, 20124 Milano", "fuel": 100, "engineType": "CE"}, {"name": "310/FF484BT", "vin": "WME4533421K147051", "coordinates": [9.21912, 45.51437, 0], "smartPhoneRequired": true, "interior": "GOOD", "exterior": "GOOD", "address": "Via Edoardo Gilardi, 7, 20126 Milano", "fuel": 100, "engineType": "CE"}, {"name": "441/FF850KW", "vin": "WME4533421K150197", "coordinates": [9.21117, 45.4538, 0], "smartPhoneRequired": true, "interior": "GOOD", "exterior": "GOOD", "address": "Viale Cirene, 4, 20135 Milano", "fuel": 100, "engineType": "CE"}, {"name": "473/FF891KW", "vin": "WME4533421K146273", "coordinates": [9.21182, 45.46919, 0], "smartPhoneRequired": true, "interior": "GOOD", "exterior": "GOOD", "address": "Via Carlo Goldoni, 26, 20129 Milano", "fuel": 18, "engineType": "CE"}, {"name": "226/FF394BT", "vin": "WME4533421K146131", "coordinates": [9.17111, 45.4632, 0], "smartPhoneRequired": true, "interior": "GOOD", "exterior": "GOOD", "address": "Via San Vittore 12, 20123 Milano", "fuel": 93, "engineType": "CE"}, {"name": "742/FF241SJ", "vin": "WME4533421K153594", "coordinates": [9.14497, 45.44178, 0], "smartPhoneRequired": true, "interior": "GOOD", "exterior": "GOOD", "address": "Via Francesco Olgiati, 3-5, 20143 Milano", "fuel": 100, "engineType": "CE"}, {"name": "041/FF156BT", "vin": "WME4533421K146165", "coordinates": [9.19157, 45.50252, 0], "smartPhoneRequired": true, "interior": "GOOD", "exterior": "GOOD", "address": "Via Fiuggi, 37, 20159 Milano", "fuel": 68, "engineType": "CE"}, {"name": "256/FF424BT", "vin": "WME4533421K146798", "coordinates": [9.17251, 45.44422, 0], "smartPhoneRequired": true, "interior": "GOOD", "exterior": "GOOD", "address": "Piazza Serafino Belfanti, 6, 20143 Milano", "fuel": 56, "engineType": "CE"}, {"name": "337/FF661KW", "vin": "WME4533421K147353", "coordinates": [9.21454, 45.48145, 0], "smartPhoneRequired": true, "interior": "GOOD", "exterior": "GOOD", "address": "Via Gaspare Spontini, 11, 20129 Milano", "fuel": 78, "engineType": "CE"}, {"name": "116/FF252BT", "vin": "WME4533421K146191", "coordinates": [9.27726, 45.46241, 0], "smartPhoneRequired": true, "interior": "GOOD", "exterior": "GOOD", "address": "Linate P3", "fuel": 46, "engineType": "CE"}, {"name": "075/FF190BT", "vin": "WME4533421K141266", "coordinates": [9.19188, 45.45469, 0], "smartPhoneRequired": true, "interior": "GOOD", "exterior": "GOOD", "address": "Via Bianca di Savoia, 6, 20122 Milano", "fuel": 71, "engineType": "CE"}, {"name": "443/FF853KW", "vin": "WME4533421K141977", "coordinates": [9.15516, 45.48801, 0], "smartPhoneRequired": true, "interior": "GOOD", "exterior": "GOOD", "address": "Piazza Firenze, 21, 20149 Milano", "fuel": 100, "engineType": "CE"}, {"name": "160/FF297BT", "vin": "WME4533421K148739", "coordinates": [9.15759, 45.45069, 0], "smartPhoneRequired": true, "interior": "GOOD", "exterior": "GOOD", "address": "Via Tortona, 76, 20144 Milano", "fuel": 100, "engineType": "CE"}, {"name": "555/FF946KW", "vin": "WME4533421K145545", "coordinates": [9.12923, 45.49565, 0], "smartPhoneRequired": true, "interior": "GOOD", "exterior": "GOOD", "address": "Viale Alcide de Gasperi, 2, 20151 Milano", "fuel": 90, "engineType": "CE"}, {"name": "379/FF721KW", "vin": "WME4533421K140546", "coordinates": [9.15428, 45.43952, 0], "smartPhoneRequired": true, "interior": "GOOD", "exterior": "GOOD", "address": "Via Modica, 6-8, 20143 Milano", "fuel": 90, "engineType": "CE"}, {"name": "287/FF459BT", "vin": "WME4533421K148416", "coordinates": [9.16135, 45.44012, 0], "smartPhoneRequired": true, "interior": "GOOD", "exterior": "GOOD", "address": "Via Felice Lope de Vega, 2, 20143 Milano", "fuel": 43, "engineType": "CE"}, {"name": "551/FF942KW", "vin": "WME4533421K144687", "coordinates": [9.221, 45.49785, 0], "smartPhoneRequired": true, "interior": "GOOD", "exterior": "GOOD", "address": "Via Merano, 21, 20127 Milano", "fuel": 75, "engineType": "CE"}, {"name": "180/FF347BT", "vin": "WME4533421K145312", "coordinates": [9.17822, 45.43676, 0], "smartPhoneRequired": true, "interior": "GOOD", "exterior": "GOOD", "address": "Via Lodovico Montegani, 5-7, 20141 Milano", "fuel": 25, "engineType": "CE"}, {"name": "547/FF938KW", "vin": "WME4533421K142684", "coordinates": [9.15546, 45.47248, 0], "smartPhoneRequired": true, "interior": "GOOD", "exterior": "GOOD", "address": "Via Michelangelo Buonarroti, 47, 20145 Milano", "fuel": 62, "engineType": "CE"}, {"name": "133/FF269BT", "vin": "WME4533421K141081", "coordinates": [9.15207, 45.4719, 0], "smartPhoneRequired": true, "interior": "GOOD", "exterior": "GOOD", "address": "Via S. Siro, 33, 20149 Milano", "fuel": 75, "engineType": "CE"}, {"name": "424/FF823KW", "vin": "WME4533421K149021", "coordinates": [9.18287, 45.45564, 0], "smartPhoneRequired": true, "interior": "GOOD", "exterior": "GOOD", "address": "Via Antonio Banfi, 8, 20122 Milano", "fuel": 34, "engineType": "CE"}, {"name": "561/FF081NT", "vin": "WME4533421K146270", "coordinates": [9.1401, 45.49604, 0], "smartPhoneRequired": true, "interior": "GOOD", "exterior": "GOOD", "address": "Via Pier Francesco Mola, 46, 20156 Milano", "fuel": 100, "engineType": "CE"}, {"name": "022/FF137BT", "vin": "WME4533421K144184", "coordinates": [9.23553, 45.48958, 0], "smartPhoneRequired": true, "interior": "GOOD", "exterior": "GOOD", "address": "Via Ludovico D'Aragona, 6-10, 20132 Milano", "fuel": 62, "engineType": "CE"}, {"name": "251/FF419BT", "vin": "WME4533421K144512", "coordinates": [9.20448, 45.44929, 0], "smartPhoneRequired": true, "interior": "GOOD", "exterior": "GOOD", "address": "Via Piacenza, 11, 20135 Milano", "fuel": 31, "engineType": "CE"}, {"name": "402/FF750KW", "vin": "WME4533421K147004", "coordinates": [9.27726, 45.46241, 0], "smartPhoneRequired": true, "interior": "GOOD", "exterior": "GOOD", "address": "Linate P3", "fuel": 75, "engineType": "CE"}, {"name": "542/FF023NT", "vin": "WME4533421K141766", "coordinates": [9.13366, 45.45864, 0], "smartPhoneRequired": true, "interior": "GOOD", "exterior": "GOOD", "address": "Via Privata Filippo Severoli, 7-9, 20147 Milano", "fuel": 100, "engineType": "CE"}, {"name": "546/FF937KW", "vin": "WME4533421K142141", "coordinates": [9.17019, 45.47814, 0], "smartPhoneRequired": true, "interior": "GOOD", "exterior": "GOOD", "address": "Via Francesco Melzi d'Eril, 29, 20154 Milano", "fuel": 71, "engineType": "CE"}, {"name": "575/FF108NT", "vin": "WME4533421K151008", "coordinates": [9.136, 45.48596, 0], "smartPhoneRequired": true, "interior": "GOOD", "exterior": "GOOD", "address": "Via Giuseppe Pogatschnig, 40, 20148 Milano", "fuel": 18, "engineType": "CE"}, {"name": "531/FF012NT", "vin": "WME4533421K147906", "coordinates": [9.16045, 45.45141, 0], "smartPhoneRequired": true, "interior": "GOOD", "exterior": "GOOD", "address": "Via Stendhal, 13, 20144 Milano", "fuel": 90, "engineType": "CE"}, {"name": "675/FF122SJ", "vin": "WME4533421K153239", "coordinates": [9.20324, 45.47913, 0], "smartPhoneRequired": true, "interior": "GOOD", "exterior": "GOOD", "address": "Via Lazzaretto, 15, 20124 Milano", "fuel": 81, "engineType": "CE"}, {"name": "530/FF011NT", "vin": "WME4533421K147849", "coordinates": [9.19168, 45.47981, 0], "smartPhoneRequired": true, "interior": "GOOD", "exterior": "GOOD", "address": "Bastioni di Porta Nuova, 4, 20121 Milano", "fuel": 96, "engineType": "CE"}, {"name": "463/FF881KW", "vin": "WME4533421K145424", "coordinates": [9.14829, 45.4759, 0], "smartPhoneRequired": true, "interior": "GOOD", "exterior": "GOOD", "address": "Via Desiderio da Settignano, 30, 20149 Milano", "fuel": 100, "engineType": "CE"}, {"name": "190/FF357BT", "vin": "WME4533421K140847", "coordinates": [9.25147, 45.42598, 0], "smartPhoneRequired": true, "interior": "GOOD", "exterior": "GOOD", "address": "Via Rogoredo, 117-119, 20138 Milano", "fuel": 43, "engineType": "CE"}, {"name": "058/FF173BT", "vin": "WME4533421K146826", "coordinates": [9.22361, 45.46182, 0], "smartPhoneRequired": true, "interior": "GOOD", "exterior": "GOOD", "address": "Viale Mugello, 7, 20137 Milano", "fuel": 100, "engineType": "CE"}, {"name": "694/FF165SJ", "vin": "WME4533421K151198", "coordinates": [9.16279, 45.47146, 0], "smartPhoneRequired": true, "interior": "GOOD", "exterior": "GOOD", "address": "Via Giorgio Pallavicino, 22, 20145 Milano", "fuel": 100, "engineType": "CE"}, {"name": "019/FF134BT", "vin": "WME4533421K147705", "coordinates": [9.21517, 45.45054, 0], "smartPhoneRequired": true, "interior": "GOOD", "exterior": "GOOD", "address": "Via Lattanzio, 24-38, 20137 Milano", "fuel": 59, "engineType": "CE"}, {"name": "279/FF451BT", "vin": "WME4533421K146212", "coordinates": [9.16439, 45.47949, 0], "smartPhoneRequired": true, "interior": "GOOD", "exterior": "GOOD", "address": "Via Francesco Ferrucci, 3, 20145 Milano", "fuel": 100, "engineType": "CE"}, {"name": "051/FF166BT", "vin": "WME4533421K146330", "coordinates": [9.27726, 45.46241, 0], "smartPhoneRequired": true, "interior": "GOOD", "exterior": "GOOD", "address": "Linate P3", "fuel": 65, "engineType": "CE"}, {"name": "025/FF140BT", "vin": "WME4533421K144412", "coordinates": [9.18372, 45.43383, 0], "smartPhoneRequired": true, "interior": "GOOD", "exterior": "GOOD", "address": "Via Volvinio, 48, 20141 Milano", "fuel": 81, "engineType": "CE"}, {"name": "520/FF001NT", "vin": "WME4533421K146630", "coordinates": [9.14921, 45.48068, 0], "smartPhoneRequired": true, "interior": "GOOD", "exterior": "GOOD", "address": "Via Cristoforo Madruzzo, 12, 20149 Milano", "fuel": 93, "engineType": "CE"}, {"name": "522/FF003NT", "vin": "WME4533421K146706", "coordinates": [9.15823, 45.48738, 0], "smartPhoneRequired": true, "interior": "GOOD", "exterior": "GOOD", "address": "Via Piero della Francesca, 86, 20154 Milano", "fuel": 15, "engineType": "CE"}, {"name": "799/FF233BT", "vin": "WME4530421Y095544", "coordinates": [9.14469, 45.46768, 0], "smartPhoneRequired": true, "interior": "GOOD", "exterior": "GOOD", "address": "Via Caccialepori, 4, 20148 Milano", "fuel": 100, "engineType": "CE"}, {"name": "456/FF866KW", "vin": "WME4533421K140579", "coordinates": [9.13822, 45.50101, 0], "smartPhoneRequired": true, "interior": "GOOD", "exterior": "GOOD", "address": "Via Ludovico di Breme, 79, 20156 Milano", "fuel": 100, "engineType": "CE"}, {"name": "600/FF298NT", "vin": "WME4533421K150472", "coordinates": [9.20622, 45.50842, 0], "smartPhoneRequired": true, "interior": "GOOD", "exterior": "GOOD", "address": "Via Gino Pollini, 3, 20125 Milano", "fuel": 56, "engineType": "CE"}, {"name": "479/FF897KW", "vin": "WME4533421K146559", "coordinates": [9.18722, 45.45021, 0], "smartPhoneRequired": true, "interior": "GOOD", "exterior": "GOOD", "address": "Via Guglielmo Rontgen, 1-19, 20136 Milano", "fuel": 53, "engineType": "CE"}, {"name": "538/FF019NT", "vin": "WME4533421K149671", "coordinates": [9.27726, 45.46241, 0], "smartPhoneRequired": true, "interior": "GOOD", "exterior": "GOOD", "address": "Linate P3", "fuel": 100, "engineType": "CE"}, {"name": "607/FF305NT", "vin": "WME4533421K151544", "coordinates": [9.22456, 45.43466, 0], "smartPhoneRequired": true, "interior": "GOOD", "exterior": "GOOD", "address": "Viale Omero, 17, 20139 Milano", "fuel": 93, "engineType": "CE"}, {"name": "608/FF306NT", "vin": "WME4533421K151626", "coordinates": [9.12908, 45.49569, 0], "smartPhoneRequired": true, "interior": "GOOD", "exterior": "GOOD", "address": "Viale Alcide de Gasperi, 2, 20151 Milano", "fuel": 100, "engineType": "CE"}, {"name": "606/FF304NT", "vin": "WME4533421K151453", "coordinates": [9.12053, 45.44882, 0], "smartPhoneRequired": true, "interior": "GOOD", "exterior": "GOOD", "address": "Via Bisceglie, 91, 20152 Milano", "fuel": 59, "engineType": "CE"}, {"name": "460/FF878KW", "vin": "WME4533421K145150", "coordinates": [9.18211, 45.49556, 0], "smartPhoneRequired": true, "interior": "GOOD", "exterior": "GOOD", "address": "Viale Stelvio, 70, 20159 Milano", "fuel": 100, "engineType": "CE"}, {"name": "613/FF311NT", "vin": "WME4533421K152277", "coordinates": [9.19106, 45.46198, 0], "smartPhoneRequired": true, "interior": "GOOD", "exterior": "GOOD", "address": "Via Paolo da Cannobio, 1-5, 20122 Milano", "fuel": 100, "engineType": "CE"}, {"name": "615/FF313NT", "vin": "WME4533421K152616", "coordinates": [9.15212, 45.4669, 0], "smartPhoneRequired": true, "interior": "GOOD", "exterior": "GOOD", "address": "Via Marghera, 24, 20149 Milano", "fuel": 100, "engineType": "CE"}, {"name": "735/FF232SJ", "vin": "WME4533421K152635", "coordinates": [9.17518, 45.44871, 0], "smartPhoneRequired": true, "interior": "GOOD", "exterior": "GOOD", "address": "Via Mario Pichi, 2-8, 20143 Milano", "fuel": 25, "engineType": "CE"}, {"name": "543/FF024NT", "vin": "WME4533421K142012", "coordinates": [9.18005, 45.50652, 0], "smartPhoneRequired": true, "interior": "GOOD", "exterior": "GOOD", "address": "Via Valeggio, 3, 20161 Milano", "fuel": 93, "engineType": "CE"}, {"name": "623/FF322NT", "vin": "WME4533421K146244", "coordinates": [9.18701, 45.44807, 0], "smartPhoneRequired": true, "interior": "GOOD", "exterior": "GOOD", "address": "Via Roberto Sarfatti, 1, 20136 Milano", "fuel": 65, "engineType": "CE"}, {"name": "626/FF325NT", "vin": "WME4533421K146711", "coordinates": [9.1643, 45.49732, 0], "smartPhoneRequired": true, "interior": "GOOD", "exterior": "GOOD", "address": "Piazzale Lugano, 21, 20158 Milano", "fuel": 43, "engineType": "CE"}, {"name": "628/FF327NT", "vin": "WME4533421K146793", "coordinates": [9.12925, 45.46021, 0], "smartPhoneRequired": true, "interior": "GOOD", "exterior": "GOOD", "address": "Via Francesco Primaticcio, 177-187, 20147 Milano", "fuel": 75, "engineType": "CE"}, {"name": "631/FF330NT", "vin": "WME4533421K147226", "coordinates": [9.19817, 45.47084, 0], "smartPhoneRequired": true, "interior": "GOOD", "exterior": "GOOD", "address": "Via Marina, 3, 20121 Milano", "fuel": 78, "engineType": "CE"}, {"name": "239/FF407BT", "vin": "WME4533421K148345", "coordinates": [9.19894, 45.47864, 0], "smartPhoneRequired": true, "interior": "GOOD", "exterior": "GOOD", "address": "Via Panfilo Castaldi, 1-5, 20124 Milano", "fuel": 68, "engineType": "CE"}, {"name": "632/FF331NT", "vin": "WME4533421K147517", "coordinates": [9.204, 45.49603, 0], "smartPhoneRequired": true, "interior": "GOOD", "exterior": "GOOD", "address": "Via Eugenio Pellini, 1, 20125 Milano", "fuel": 87, "engineType": "CE"}, {"name": "791/FF358NT", "vin": "WME4530421Y098428", "coordinates": [9.20634, 45.50617, 0], "smartPhoneRequired": true, "interior": "GOOD", "exterior": "GOOD", "address": "Via Privata Giuseppe Ugolini, 27a, 20125 Milano", "fuel": 46, "engineType": "CE"}, {"name": "202/FF369BT", "vin": "WME4533421K146782", "coordinates": [9.19792, 45.45284, 0], "smartPhoneRequired": true, "interior": "GOOD", "exterior": "GOOD", "address": "Via dei Pellegrini, 20, 20122 Milano", "fuel": 100, "engineType": "CE"}, {"name": "793/FF360NT", "vin": "WME4530421Y098436", "coordinates": [9.14649, 45.44559, 0], "smartPhoneRequired": true, "interior": "GOOD", "exterior": "GOOD", "address": "Via Lodovico Il Moro, 45, 20143 Milano", "fuel": 78, "engineType": "CE"}, {"name": "796/FF363NT", "vin": "WME4530421Y100246", "coordinates": [9.21173, 45.52539, 0], "smartPhoneRequired": true, "interior": "GOOD", "exterior": "GOOD", "address": "Viale Fulvio Testi, 280, 20126 Milano", "fuel": 65, "engineType": "CE"}, {"name": "798/FF731KW", "vin": "WME4530421Y098419", "coordinates": [9.1539, 45.44849, 0], "smartPhoneRequired": true, "interior": "GOOD", "exterior": "GOOD", "address": "Via Pesto, 20144 Milano", "fuel": 75, "engineType": "CE"}, {"name": "417/FF787KW", "vin": "WME4533421K149775", "coordinates": [9.10098, 45.49382, 0], "smartPhoneRequired": true, "interior": "GOOD", "exterior": "GOOD", "address": "Via Fratelli Rizzardi, 22, 20151 Milano", "fuel": 78, "engineType": "CE"}, {"name": "418/FF788KW", "vin": "WME4533421K149892", "coordinates": [9.14861, 45.50115, 0], "smartPhoneRequired": true, "interior": "GOOD", "exterior": "GOOD", "address": "Via Villapizzone, 1, 20156 Milano", "fuel": 100, "engineType": "CE"}, {"name": "416/FF784KW", "vin": "WME4533421K149279", "coordinates": [9.1409, 45.4429, 0], "smartPhoneRequired": true, "interior": "GOOD", "exterior": "GOOD", "address": "Via Ernesto Rossi, 13-15, 20143 Milano", "fuel": 68, "engineType": "CE"}, {"name": "621/FF320NT", "vin": "WME4533421K145649", "coordinates": [9.18218, 45.49557, 0], "smartPhoneRequired": true, "interior": "GOOD", "exterior": "GOOD", "address": "Viale Stelvio, 70, 20159 Milano", "fuel": 100, "engineType": "CE"}, {"name": "401/FF749KW", "vin": "WME4533421K146691", "coordinates": [9.23702, 45.49142, 0], "smartPhoneRequired": true, "interior": "GOOD", "exterior": "GOOD", "address": "Via Carnia, 12, 20132 Milano", "fuel": 46, "engineType": "CE"}, {"name": "557/FF948KW", "vin": "WME4533421K145876", "coordinates": [9.17298, 45.44188, 0], "smartPhoneRequired": true, "interior": "GOOD", "exterior": "GOOD", "address": "Via Imperia, 18, 20142 Milano", "fuel": 100, "engineType": "CE"}, {"name": "387/FF729KW", "vin": "WME4533421K146942", "coordinates": [9.18911, 45.44921, 0], "smartPhoneRequired": true, "interior": "GOOD", "exterior": "GOOD", "address": "Piazza Angelo Sraffa, 15, 20136 Milano", "fuel": 100, "engineType": "CE"}, {"name": "386/FF728KW", "vin": "WME4533421K146152", "coordinates": [9.19989, 45.47111, 0], "smartPhoneRequired": true, "interior": "GOOD", "exterior": "GOOD", "address": "Via Marina, 4, 20121 Milano", "fuel": 71, "engineType": "CE"}, {"name": "377/FF707KW", "vin": "WME4533421K144679", "coordinates": [9.18731, 45.44932, 0], "smartPhoneRequired": true, "interior": "GOOD", "exterior": "GOOD", "address": "Piazza Angelo Sraffa, 7, 20136 Milano", "fuel": 81, "engineType": "CE"}, {"name": "376/FF706KW", "vin": "WME4533421K144365", "coordinates": [9.1647, 45.43801, 0], "smartPhoneRequired": true, "interior": "GOOD", "exterior": "GOOD", "address": "Via Santander, 40, 20143 Milano", "fuel": 100, "engineType": "CE"}, {"name": "394/FF738KW", "vin": "WME4533421K144599", "coordinates": [9.21273, 45.47416, 0], "smartPhoneRequired": true, "interior": "GOOD", "exterior": "GOOD", "address": "Viale Regina Giovanna, 29, 20129 Milano", "fuel": 71, "engineType": "CE"}, {"name": "380/FF722KW", "vin": "WME4533421K147593", "coordinates": [9.2365, 45.48026, 0], "smartPhoneRequired": true, "interior": "GOOD", "exterior": "GOOD", "address": "Via Carlo Valvassori Peroni, 55, 20133 Milano", "fuel": 100, "engineType": "CE"}, {"name": "374/FF704KW", "vin": "WME4533421K142701", "coordinates": [9.19752, 45.49074, 0], "smartPhoneRequired": true, "interior": "GOOD", "exterior": "GOOD", "address": "Viale Francesco Restelli, 35, 20124 Milano", "fuel": 68, "engineType": "CE"}, {"name": "008/FF123BT", "vin": "WME4533421K147490", "coordinates": [9.16443, 45.49734, 0], "smartPhoneRequired": true, "interior": "GOOD", "exterior": "GOOD", "address": "Piazzale Lugano, 21, 20158 Milano", "fuel": 53, "engineType": "CE"}, {"name": "363/FF692KW", "vin": "WME4533421K147373", "coordinates": [9.21468, 45.51647, 0], "smartPhoneRequired": true, "interior": "GOOD", "exterior": "GOOD", "address": "Via Padre Gerardo Beccaro, 1631, 20126 Milano", "fuel": 96, "engineType": "CE"}, {"name": "390/FF734KW", "vin": "WME4533421K142589", "coordinates": [9.18154, 45.49949, 0], "smartPhoneRequired": true, "interior": "GOOD", "exterior": "GOOD", "address": "Via Legnone, 23-27, 20158 Milano", "fuel": 50, "engineType": "CE"}, {"name": "529/FF010NT", "vin": "WME4533421K147843", "coordinates": [9.21095, 45.51017, 0], "smartPhoneRequired": true, "interior": "GOOD", "exterior": "GOOD", "address": "Via Segnanino, 20125 Milano", "fuel": 59, "engineType": "CE"}, {"name": "353/FF682KW", "vin": "WME4533421K146916", "coordinates": [9.21444, 45.45354, 0], "smartPhoneRequired": true, "interior": "GOOD", "exterior": "GOOD", "address": "Via Angelo Maj, 18, 20135 Milano", "fuel": 100, "engineType": "CE"}, {"name": "481/FF899KW", "vin": "WME4533421K146607", "coordinates": [9.17019, 45.47619, 0], "smartPhoneRequired": true, "interior": "GOOD", "exterior": "GOOD", "address": "Via Giuseppe Piermarini, 8, 20145 Milano", "fuel": 100, "engineType": "CE"}, {"name": "382/FF724KW", "vin": "WME4533421K148804", "coordinates": [9.23546, 45.51495, 0], "smartPhoneRequired": true, "interior": "GOOD", "exterior": "GOOD", "address": "Via Vittorio Gassman, 20099 Milano", "fuel": 75, "engineType": "CE"}, {"name": "413/FF770KW", "vin": "WME4533421K146540", "coordinates": [9.18722, 45.4941, 0], "smartPhoneRequired": true, "interior": "GOOD", "exterior": "GOOD", "address": "Viale Stelvio, 42, 20159 Milano", "fuel": 46, "engineType": "CE"}, {"name": "370/FF699KW", "vin": "WME4533421K148771", "coordinates": [9.18855, 45.44823, 0], "smartPhoneRequired": true, "interior": "GOOD", "exterior": "GOOD", "address": "Via Roberto Sarfatti, 11-19, 20136 Milano", "fuel": 62, "engineType": "CE"}, {"name": "177/FF314BT", "vin": "WME4533421K148010", "coordinates": [9.19348, 45.49833, 0], "smartPhoneRequired": true, "interior": "GOOD", "exterior": "GOOD", "address": "Via Airolo, 3, 20159 Milano", "fuel": 87, "engineType": "CE"}, {"name": "342/FF671KW", "vin": "WME4533421K146400", "coordinates": [9.12355, 45.47481, 0], "smartPhoneRequired": true, "interior": "GOOD", "exterior": "GOOD", "address": "Via Don Carlo Gnocchi, 3, 20148 Milano", "fuel": 21, "engineType": "CE"}, {"name": "280/FF452BT", "vin": "WME4533421K146663", "coordinates": [9.24349, 45.45889, 0], "smartPhoneRequired": true, "interior": "GOOD", "exterior": "GOOD", "address": "Via Decorati Al Valor Civile, 15, 20138 Milano", "fuel": 75, "engineType": "CE"}, {"name": "617/FF315NT", "vin": "WME4533421K152761", "coordinates": [9.13123, 45.40416, 0], "smartPhoneRequired": true, "interior": "GOOD", "exterior": "GOOD", "address": "Via Roma, 27, 20090 Assago MI", "fuel": 21, "engineType": "CE"}, {"name": "136/FF272BT", "vin": "WME4533421K141467", "coordinates": [9.18229, 45.50165, 0], "smartPhoneRequired": true, "interior": "GOOD", "exterior": "GOOD", "address": "Via Carlo Imbonati, 38-52, 20159 Milano", "fuel": 90, "engineType": "CE"}, {"name": "250/FF418BT", "vin": "WME4533421K144497", "coordinates": [9.19053, 45.48116, 0], "smartPhoneRequired": true, "interior": "GOOD", "exterior": "GOOD", "address": "Via Carlo de Cristoforis, 15, 20124 Milano", "fuel": 100, "engineType": "CE"}, {"name": "118/FF254BT", "vin": "WME4533421K140819", "coordinates": [9.23297, 45.47696, 0], "smartPhoneRequired": true, "interior": "GOOD", "exterior": "GOOD", "address": "Via Giovanni Celoria, 18, 20133 Milano", "fuel": 100, "engineType": "CE"}, {"name": "720/FF205SJ", "vin": "WME4533421K152530", "coordinates": [9.17341, 45.47643, 0], "smartPhoneRequired": true, "interior": "GOOD", "exterior": "GOOD", "address": "Via Agostino Bertani, 16, 20514 Milano", "fuel": 62, "engineType": "CE"}, {"name": "278/FF450BT", "vin": "WME4533421K146140", "coordinates": [9.15759, 45.49177, 0], "smartPhoneRequired": true, "interior": "GOOD", "exterior": "GOOD", "address": "Via Giuseppe Arimondi, 37a, 20155 Milano", "fuel": 71, "engineType": "CE"}, {"name": "478/FF896KW", "vin": "WME4533421K144220", "coordinates": [9.15047, 45.43864, 0], "smartPhoneRequired": true, "interior": "GOOD", "exterior": "GOOD", "address": "Via Taranto, 8, 20143 Milano", "fuel": 90, "engineType": "CE"}, {"name": "052/FF167BT", "vin": "WME4533421K146450", "coordinates": [9.17679, 45.46019, 0], "smartPhoneRequired": true, "interior": "GOOD", "exterior": "GOOD", "address": "Via Caminadella, 18, 20123 Milano", "fuel": 71, "engineType": "CE"}, {"name": "004/FF119BT", "vin": "WME4533421K140143", "coordinates": [9.17076, 45.48906, 0], "smartPhoneRequired": true, "interior": "GOOD", "exterior": "GOOD", "address": "Via Messina, 55, 20154 Milano", "fuel": 62, "engineType": "CE"}, {"name": "414/FF772KW", "vin": "WME4533421K141431", "coordinates": [9.19089, 45.44684, 0], "smartPhoneRequired": true, "interior": "GOOD", "exterior": "GOOD", "address": "Via Ferdinando Bocconi, 30, 20136 Milano", "fuel": 96, "engineType": "CE"}, {"name": "474/FF892KW", "vin": "WME4533421K146279", "coordinates": [9.19176, 45.48152, 0], "smartPhoneRequired": true, "interior": "GOOD", "exterior": "GOOD", "address": "Via Melchiorre Gioia, 8-10, 20124 Milano", "fuel": 100, "engineType": "CE"}, {"name": "097/FF212BT", "vin": "WME4533421K149943", "coordinates": [9.16776, 45.47587, 0], "smartPhoneRequired": true, "interior": "GOOD", "exterior": "GOOD", "address": "Via Abbondio Sangiorgio, 10A, 20145 Milano", "fuel": 100, "engineType": "CE"}, {"name": "324/FF498BT", "vin": "WME4533421K150068", "coordinates": [9.16862, 45.42016, 0], "smartPhoneRequired": true, "interior": "GOOD", "exterior": "GOOD", "address": "Via Privata Pienza, 9-11, 20142 Milano", "fuel": 87, "engineType": "CE"}, {"name": "151/FF288BT", "vin": "WME4533421K147408", "coordinates": [9.15063, 45.40662, 0], "smartPhoneRequired": true, "interior": "GOOD", "exterior": "GOOD", "address": "Viale della Fonte Lunga, 1, 20090 Assago MI", "fuel": 100, "engineType": "CE"}, {"name": "541/FF022NT", "vin": "WME4533421K150322", "coordinates": [9.16566, 45.4507, 0], "smartPhoneRequired": true, "interior": "GOOD", "exterior": "GOOD", "address": "Via Bergognone, 65, 20144 Milano", "fuel": 53, "engineType": "CE"}, {"name": "185/FF352BT", "vin": "WME4533421K145758", "coordinates": [9.16946, 45.45164, 0], "smartPhoneRequired": true, "interior": "GOOD", "exterior": "GOOD", "address": "Via Valenza, 5, 20144 Milano", "fuel": 40, "engineType": "CE"}, {"name": "678/FF127SJ", "vin": "WME4533421K153598", "coordinates": [9.097, 45.45329, 0], "smartPhoneRequired": true, "interior": "GOOD", "exterior": "GOOD", "address": "Via Valsesia, 60, 20152 Milano", "fuel": 100, "engineType": "CE"}, {"name": "361/FF690KW", "vin": "WME4533421K141490", "coordinates": [9.16597, 45.48163, 0], "smartPhoneRequired": true, "interior": "GOOD", "exterior": "GOOD", "address": "Via Giuseppe Mussi, 1, 20154 Milano", "fuel": 81, "engineType": "CE"}, {"name": "488/FF906KW", "vin": "WME4533421K147154", "coordinates": [9.21468, 45.50788, 0], "smartPhoneRequired": true, "interior": "GOOD", "exterior": "GOOD", "address": "Via Ernesto Breda, 24, 20126 Milano", "fuel": 15, "engineType": "CE"}, {"name": "035/FF150BT", "vin": "WME4533421K145230", "coordinates": [9.13921, 45.46274, 0], "smartPhoneRequired": true, "interior": "GOOD", "exterior": "GOOD", "address": "Via Sofonisba Anguissola, 23, 20146 Milano", "fuel": 100, "engineType": "CE"}, {"name": "405/FF755KW", "vin": "WME4533421K147261", "coordinates": [9.1584, 45.48926, 0], "smartPhoneRequired": true, "interior": "GOOD", "exterior": "GOOD", "address": "Via Francesco Caracciolo, 13-29, 20155 Milano", "fuel": 71, "engineType": "CE"}, {"name": "270/FF442BT", "vin": "WME4533421K140313", "coordinates": [9.22655, 45.52129, 0], "smartPhoneRequired": true, "interior": "GOOD", "exterior": "GOOD", "address": "Via Privata Miramare, 10, 20126 Milano", "fuel": 87, "engineType": "CE"}, {"name": "371/FF701KW", "vin": "WME4533421K149355", "coordinates": [9.21199, 45.50977, 0], "smartPhoneRequired": true, "interior": "GOOD", "exterior": "GOOD", "address": "Via Roberto Cozzi, 77, 20126 Milano", "fuel": 100, "engineType": "CE"}, {"name": "411/FF768KW", "vin": "WME4533421K146500", "coordinates": [9.20096, 45.50531, 0], "smartPhoneRequired": true, "interior": "GOOD", "exterior": "GOOD", "address": "Via Vincenzo Rabolini, 13, 20125 Milano", "fuel": 65, "engineType": "CE"}, {"name": "526/FF007NT", "vin": "WME4533421K147445", "coordinates": [9.19429, 45.47857, 0], "smartPhoneRequired": true, "interior": "GOOD", "exterior": "GOOD", "address": "Via Andrea Appiani, 22, 20121 Milano", "fuel": 100, "engineType": "CE"}, {"name": "485/FF903KW", "vin": "WME4533421K146831", "coordinates": [9.19598, 45.48881, 0], "smartPhoneRequired": true, "interior": "GOOD", "exterior": "GOOD", "address": "Viale Francesco Restelli, 11, 20124 Milano", "fuel": 96, "engineType": "CE"}, {"name": "715/FF199SJ", "vin": "WME4533421K150364", "coordinates": [9.15095, 45.46884, 0], "smartPhoneRequired": true, "interior": "GOOD", "exterior": "GOOD", "address": "Via Vittoria Colonna, 36, 20149 Milano", "fuel": 100, "engineType": "CE"}, {"name": "364/FF693KW", "vin": "WME4533421K147457", "coordinates": [9.13942, 45.50215, 0], "smartPhoneRequired": true, "interior": "GOOD", "exterior": "GOOD", "address": "Via Giuseppe Montanelli, 1-9, 20156 Milano", "fuel": 43, "engineType": "CE"}, {"name": "109/FF245BT", "vin": "WME4533421K145220", "coordinates": [9.23936, 45.46446, 0], "smartPhoneRequired": true, "interior": "GOOD", "exterior": "GOOD", "address": "Via Alfonso Gatto, 20129 Milano", "fuel": 100, "engineType": "CE"}, {"name": "157/FF294BT", "vin": "WME4533421K148665", "coordinates": [9.13688, 45.46431, 0], "smartPhoneRequired": true, "interior": "GOOD", "exterior": "GOOD", "address": "Viale Pisa, 3, 20146 Milano", "fuel": 46, "engineType": "CE"}, {"name": "156/FF293BT", "vin": "WME4533421K148632", "coordinates": [9.18999, 45.45516, 0], "smartPhoneRequired": true, "interior": "GOOD", "exterior": "GOOD", "address": "Via S. Francesco D'Assisi, 2-4, 20122 Milano", "fuel": 25, "engineType": "CE"}, {"name": "384/FF726KW", "vin": "WME4533421K145571", "coordinates": [9.17463, 45.43001, 0], "smartPhoneRequired": true, "interior": "GOOD", "exterior": "GOOD", "address": "Via San Domenico Savio, 20142 Milano", "fuel": 90, "engineType": "CE"}, {"name": "081/FF196BT", "vin": "WME4533421K148890", "coordinates": [9.14527, 45.47479, 0], "smartPhoneRequired": true, "interior": "GOOD", "exterior": "GOOD", "address": "Via Lorenzo Ghiberti, 8, 20149 Milano", "fuel": 53, "engineType": "CE"}, {"name": "409/FF766KW", "vin": "WME4533421K140592", "coordinates": [9.25436, 45.51137, 0], "smartPhoneRequired": true, "interior": "GOOD", "exterior": "GOOD", "address": "Via Idro, 32, 20132 Milano", "fuel": 100, "engineType": "CE"}, {"name": "090/FF205BT", "vin": "WME4533421K149455", "coordinates": [9.14714, 45.44575, 0], "smartPhoneRequired": true, "interior": "GOOD", "exterior": "GOOD", "address": "Via Lodovico Il Moro, 43, 20143 Milano", "fuel": 84, "engineType": "CE"}, {"name": "261/FF433BT", "vin": "WME4533421K142529", "coordinates": [9.15684, 45.45514, 0], "smartPhoneRequired": true, "interior": "GOOD", "exterior": "GOOD", "address": "Via Cola di Rienzo, 36-40, 20144 Milano", "fuel": 68, "engineType": "CE"}, {"name": "620/FF318NT", "vin": "WME4533421K145009", "coordinates": [9.15842, 45.43816, 0], "smartPhoneRequired": true, "interior": "GOOD", "exterior": "GOOD", "address": "Via Felice Venosta, 31-33, 20143 Milano", "fuel": 90, "engineType": "CE"}, {"name": "351/FF680KW", "vin": "WME4533421K146772", "coordinates": [9.13118, 45.45661, 0], "smartPhoneRequired": true, "interior": "GOOD", "exterior": "GOOD", "address": "Via Francesco Primaticcio, 127-129, 20147 Milano", "fuel": 81, "engineType": "CE"}, {"name": "549/FF940KW", "vin": "WME4533421K144363", "coordinates": [9.16909, 45.40298, 0], "smartPhoneRequired": true, "interior": "GOOD", "exterior": "GOOD", "address": "Via Costantino Baroni, 232-234, 20142 Milano", "fuel": 78, "engineType": "CE"}, {"name": "683/FF135SJ", "vin": "WME4533421K154152", "coordinates": [9.17098, 45.44409, 0], "smartPhoneRequired": true, "interior": "GOOD", "exterior": "GOOD", "address": "SPexSS11, 23, 20143 Milano", "fuel": 100, "engineType": "CE"}, {"name": "666/FF105SJ", "vin": "WME4533421K152776", "coordinates": [9.23227, 45.5053, 0], "smartPhoneRequired": true, "interior": "GOOD", "exterior": "GOOD", "address": "Via Privata Iglesias, 36, 20128 Milano", "fuel": 100, "engineType": "CE"}, {"name": "431/FF832KW", "vin": "WME4533421K148424", "coordinates": [9.21934, 45.48146, 0], "smartPhoneRequired": true, "interior": "GOOD", "exterior": "GOOD", "address": "Via Garofalo, 35, 20131 Milano", "fuel": 46, "engineType": "CE"}, {"name": "654/FF083SJ", "vin": "WME4533421K152207", "coordinates": [9.17201, 45.51619, 0], "smartPhoneRequired": true, "interior": "GOOD", "exterior": "GOOD", "address": "Via Alessandro Astesani, 3, 20161 Milano", "fuel": 59, "engineType": "CE"}, {"name": "366/FF695KW", "vin": "WME4533421K147622", "coordinates": [9.16462, 45.4796, 0], "smartPhoneRequired": true, "interior": "GOOD", "exterior": "GOOD", "address": "Via Ferrucci Francesco, 6, 20145 Milano", "fuel": 100, "engineType": "CE"}, {"name": "576/FF110NT", "vin": "WME4533421K151310", "coordinates": [9.14431, 45.44525, 0], "smartPhoneRequired": true, "interior": "GOOD", "exterior": "GOOD", "address": "Via Privata Michele Faraday, 1-7, 20143 Milano", "fuel": 100, "engineType": "CE"}, {"name": "367/FF696KW", "vin": "WME4533421K147757", "coordinates": [9.19447, 45.50248, 0], "smartPhoneRequired": true, "interior": "GOOD", "exterior": "GOOD", "address": "Via Trescore, 19, 20159 Milano", "fuel": 53, "engineType": "CE"}, {"name": "184/FF351BT", "vin": "WME4533421K145752", "coordinates": [9.16568, 45.45094, 0], "smartPhoneRequired": true, "interior": "GOOD", "exterior": "GOOD", "address": "Via Bergognone, 63, 20144 Milano", "fuel": 100, "engineType": "CE"}, {"name": "425/FF825KW", "vin": "WME4533421K148981", "coordinates": [9.18841, 45.43968, 0], "smartPhoneRequired": true, "interior": "GOOD", "exterior": "GOOD", "address": "Via dei Bognetti, 9, 20141 Milano", "fuel": 18, "engineType": "CE"}, {"name": "253/FF421BT", "vin": "WME4533421K146179", "coordinates": [9.21744, 45.51139, 0], "smartPhoneRequired": true, "interior": "GOOD", "exterior": "GOOD", "address": "Via Bernardo Rucellai, 41, 20126 Milano", "fuel": 81, "engineType": "CE"}, {"name": "540/FF021NT", "vin": "WME4533421K141567", "coordinates": [9.19623, 45.48445, 0], "smartPhoneRequired": true, "interior": "GOOD", "exterior": "GOOD", "address": "Via Giovanni Battista Pirelli, 1108, 20124 Milano", "fuel": 50, "engineType": "CE"}, {"name": "020/FF135BT", "vin": "WME4533421K140451", "coordinates": [9.1807, 45.44897, 0], "smartPhoneRequired": true, "interior": "GOOD", "exterior": "GOOD", "address": "Via Gentilino, 7, 20136 Milano", "fuel": 37, "engineType": "CE"}, {"name": "590/FF140NT", "vin": "WME4533421K152693", "coordinates": [9.16974, 45.48316, 0], "smartPhoneRequired": true, "interior": "GOOD", "exterior": "GOOD", "address": "Via Giulio Cesare Procaccini, 37-41, 20154 Milano", "fuel": 96, "engineType": "CE"}, {"name": "487/FF905KW", "vin": "WME4533421K147104", "coordinates": [9.19678, 45.48409, 0], "smartPhoneRequired": true, "interior": "GOOD", "exterior": "GOOD", "address": "Via Giovanni Battista Pirelli, 32, 20124 Milano", "fuel": 62, "engineType": "CE"}, {"name": "130/FF266BT", "vin": "WME4533421K149335", "coordinates": [9.19769, 45.47059, 0], "smartPhoneRequired": true, "interior": "GOOD", "exterior": "GOOD", "address": "Via Marina, 2, 20121 Milano", "fuel": 93, "engineType": "CE"}, {"name": "231/FF399BT", "vin": "WME4533421K146732", "coordinates": [9.16406, 45.45713, 0], "smartPhoneRequired": true, "interior": "GOOD", "exterior": "GOOD", "address": "Via Andrea Salaino, 14, 20144 Milano", "fuel": 100, "engineType": "CE"}, {"name": "672/FF117SJ", "vin": "WME4533421K152899", "coordinates": [9.16556, 45.45128, 0], "smartPhoneRequired": true, "interior": "GOOD", "exterior": "GOOD", "address": "Via Bergognone, 39-61, 20144 Milano", "fuel": 100, "engineType": "CE"}, {"name": "014/FF129BT", "vin": "WME4533421K147649", "coordinates": [9.16411, 45.49198, 0], "smartPhoneRequired": true, "interior": "GOOD", "exterior": "GOOD", "address": "Via Giuseppe Govone, 60, 20155 Milano", "fuel": 100, "engineType": "CE"}, {"name": "033/FF148BT", "vin": "WME4533421K144789", "coordinates": [9.22126, 45.47928, 0], "smartPhoneRequired": true, "interior": "GOOD", "exterior": "GOOD", "address": "Via Filippino Lippi, 3, 20131 Milano", "fuel": 90, "engineType": "CE"}, {"name": "032/FF147BT", "vin": "WME4533421K148233", "coordinates": [9.18623, 45.51279, 0], "smartPhoneRequired": true, "interior": "GOOD", "exterior": "GOOD", "address": "Via Ettore Majorana, 20161 Milano", "fuel": 100, "engineType": "CE"}, {"name": "102/FF238BT", "vin": "WME4533421K144317", "coordinates": [9.15661, 45.49741, 0], "smartPhoneRequired": true, "interior": "GOOD", "exterior": "GOOD", "address": "Via Ercolano, 3, 20155 Milano", "fuel": 78, "engineType": "CE"}, {"name": "063/FF178BT", "vin": "WME4533421K146954", "coordinates": [9.26442, 45.41695, 0], "smartPhoneRequired": true, "interior": "GOOD", "exterior": "GOOD", "address": "Via Cesare Battisti, 19, 20097 San Donato Milanese MI", "fuel": 71, "engineType": "CE"}, {"name": "601/FF299NT", "vin": "WME4533421K150598", "coordinates": [9.15522, 45.44597, 0], "smartPhoneRequired": true, "interior": "GOOD", "exterior": "GOOD", "address": "Via Giovanni Enrico Pestalozzi, 10-12, 20143 Milano", "fuel": 84, "engineType": "CE"}, {"name": "110/FF246BT", "vin": "WME4533421K145373", "coordinates": [9.13856, 45.50327, 0], "smartPhoneRequired": true, "interior": "GOOD", "exterior": "GOOD", "address": "Via Privata Luigi Zamboni, 20156 Milano", "fuel": 90, "engineType": "CE"}, {"name": "089/FF204BT", "vin": "WME4533421K149453", "coordinates": [9.1158, 45.45651, 0], "smartPhoneRequired": true, "interior": "GOOD", "exterior": "GOOD", "address": "Via Bisceglie, 30, 20152 Milano", "fuel": 100, "engineType": "CE"}, {"name": "207/FF374BT", "vin": "WME4533421K148567", "coordinates": [9.16273, 45.44825, 0], "smartPhoneRequired": true, "interior": "GOOD", "exterior": "GOOD", "address": "Via Eugenio Villoresi, 7, 20143 Milano", "fuel": 53, "engineType": "CE"}, {"name": "159/FF296BT", "vin": "WME4533421K148669", "coordinates": [9.15662, 45.4409, 0], "smartPhoneRequired": true, "interior": "GOOD", "exterior": "GOOD", "address": "Via Bonaventura Zumbini, 32-36, 20143 Milano", "fuel": 81, "engineType": "CE"}, {"name": "519/FF000NT", "vin": "WME4533421K146571", "coordinates": [9.17468, 45.50088, 0], "smartPhoneRequired": true, "interior": "GOOD", "exterior": "GOOD", "address": "Via Caianello, 6, 20158 Milano", "fuel": 100, "engineType": "CE"}, {"name": "135/FF271BT", "vin": "WME4533421K141157", "coordinates": [9.15318, 45.48565, 0], "smartPhoneRequired": true, "interior": "GOOD", "exterior": "GOOD", "address": "Viale Teodorico, 19, 20149 Milano", "fuel": 78, "engineType": "CE"}, {"name": "271/FF443BT", "vin": "WME4533421K145245", "coordinates": [9.1544, 45.49182, 0], "smartPhoneRequired": true, "interior": "GOOD", "exterior": "GOOD", "address": "Viale Monte Ceneri, 39-67, 20155 Milano", "fuel": 81, "engineType": "CE"}, {"name": "741/FF239SJ", "vin": "WME4533421K153472", "coordinates": [9.23438, 45.48153, 0], "smartPhoneRequired": true, "interior": "GOOD", "exterior": "GOOD", "address": "Via Antonio Grossich, 8, 20131 Milano", "fuel": 96, "engineType": "CE"}, {"name": "398/FF743KW", "vin": "WME4533421K145645", "coordinates": [9.14933, 45.45086, 0], "smartPhoneRequired": true, "interior": "GOOD", "exterior": "GOOD", "address": "Via Giambellino, 31-39, 20146 Milano", "fuel": 56, "engineType": "CE"}, {"name": "049/FF164BT", "vin": "WME4533421K148252", "coordinates": [9.19006, 45.50839, 0], "smartPhoneRequired": true, "interior": "GOOD", "exterior": "GOOD", "address": "Piazza dell'Ospedale Maggiore, 6, 20162 Milano", "fuel": 53, "engineType": "CE"}, {"name": "012/FF127BT", "vin": "WME4533421K147549", "coordinates": [9.16006, 45.45532, 0], "smartPhoneRequired": true, "interior": "GOOD", "exterior": "GOOD", "address": "Via Osvaldo Gnocchi Viani, 1-3, 20144 Milano", "fuel": 43, "engineType": "CE"}, {"name": "002/FF117BT", "vin": "WME4533421K147394", "coordinates": [9.14873, 45.47407, 0], "smartPhoneRequired": true, "interior": "GOOD", "exterior": "GOOD", "address": "Via Giuseppe Pellizza da Volpedo, 12, 20149 Milano", "fuel": 68, "engineType": "CE"}, {"name": "536/FF017NT", "vin": "WME4533421K148706", "coordinates": [9.16701, 45.48142, 0], "smartPhoneRequired": true, "interior": "GOOD", "exterior": "GOOD", "address": "Via Francesco Londonio, 31, 20154 Milano", "fuel": 87, "engineType": "CE"}, {"name": "378/FF708KW", "vin": "WME4533421K145133", "coordinates": [9.19669, 45.47282, 0], "smartPhoneRequired": true, "interior": "GOOD", "exterior": "GOOD", "address": "Via Palestro, 4, 20121 Milano", "fuel": 84, "engineType": "CE"}, {"name": "649/FF074SJ", "vin": "WME4533421K151856", "coordinates": [9.16592, 45.48007, 0], "smartPhoneRequired": true, "interior": "GOOD", "exterior": "GOOD", "address": "Corso Sempione, 33, 20145 Milano", "fuel": 78, "engineType": "CE"}, {"name": "050/FF165BT", "vin": "WME4533421K144756", "coordinates": [9.13562, 45.48507, 0], "smartPhoneRequired": true, "interior": "GOOD", "exterior": "GOOD", "address": "Via Giuseppe Pogatschnig, 34, 20148 Milano", "fuel": 96, "engineType": "CE"}, {"name": "665/FF101SJ", "vin": "WME4533421K152714", "coordinates": [9.18043, 45.47787, 0], "smartPhoneRequired": true, "interior": "GOOD", "exterior": "GOOD", "address": "Via Bramante, 5, 20154 Milano", "fuel": 43, "engineType": "CE"}, {"name": "192/FF359BT", "vin": "WME4533421K146282", "coordinates": [9.15609, 45.48227, 0], "smartPhoneRequired": true, "interior": "GOOD", "exterior": "GOOD", "address": "Via Alcuino, 2-6, 20149 Milano", "fuel": 78, "engineType": "CE"}, {"name": "465/FF883KW", "vin": "WME4533421K145503", "coordinates": [9.19265, 45.51097, 0], "smartPhoneRequired": true, "interior": "GOOD", "exterior": "GOOD", "address": "Via Carlo Girola, 30, 20162 Milano", "fuel": 100, "engineType": "CE"}, {"name": "169/FF306BT", "vin": "WME4533421K141908", "coordinates": [9.21591, 45.49559, 0], "smartPhoneRequired": true, "interior": "GOOD", "exterior": "GOOD", "address": "Via Spoleto, 1, 20125 Milano", "fuel": 50, "engineType": "CE"}, {"name": "113/FF249BT", "vin": "WME4533421K145797", "coordinates": [9.26432, 45.41716, 0], "smartPhoneRequired": true, "interior": "GOOD", "exterior": "GOOD", "address": "Via Cesare Battisti, 21, 20097 San Donato Milanese MI", "fuel": 100, "engineType": "CE"}, {"name": "060/FF175BT", "vin": "WME4533421K146846", "coordinates": [9.13303, 45.45784, 0], "smartPhoneRequired": true, "interior": "GOOD", "exterior": "GOOD", "address": "Via Gio' Ponti, 4, 20147 Milano", "fuel": 84, "engineType": "CE"}, {"name": "644/FF064SJ", "vin": "WME4533421K151496", "coordinates": [9.22991, 45.49083, 0], "smartPhoneRequired": true, "interior": "GOOD", "exterior": "GOOD", "address": "Via Teodosio, 104, 20131 Milano", "fuel": 71, "engineType": "CE"}, {"name": "676/FF123SJ", "vin": "WME4533421K153402", "coordinates": [9.16793, 45.49879, 0], "smartPhoneRequired": true, "interior": "GOOD", "exterior": "GOOD", "address": "Via Giovita Scalvini, 11, 20158 Milano", "fuel": 18, "engineType": "CE"}, {"name": "534/FF015NT", "vin": "WME4533421K148511", "coordinates": [9.20554, 45.44405, 0], "smartPhoneRequired": true, "interior": "GOOD", "exterior": "GOOD", "address": "Via Orobia, 5-13, 20139 Milano", "fuel": 68, "engineType": "CE"}, {"name": "117/FF253BT", "vin": "WME4533421K146290", "coordinates": [9.14612, 45.47447, 0], "smartPhoneRequired": true, "interior": "GOOD", "exterior": "GOOD", "address": "Via Eleuterio Pagliano, 25-29, 20149 Milano", "fuel": 100, "engineType": "CE"}, {"name": "550/FF941KW", "vin": "WME4533421K144631", "coordinates": [9.1245, 45.44275, 0], "smartPhoneRequired": true, "interior": "GOOD", "exterior": "GOOD", "address": "Via Francesco Gonin, 17-39, 20147 Milano", "fuel": 100, "engineType": "CE"}, {"name": "107/FF243BT", "vin": "WME4533421K145090", "coordinates": [9.1594, 45.49118, 0], "smartPhoneRequired": true, "interior": "GOOD", "exterior": "GOOD", "address": "Via Michele Amari, 6, 20155 Milano", "fuel": 87, "engineType": "CE"}, {"name": "230/FF398BT", "vin": "WME4533421K146724", "coordinates": [9.18309, 45.46655, 0], "smartPhoneRequired": true, "interior": "GOOD", "exterior": "GOOD", "address": "Via Giorgio Giulini, 6, 20123 Milano", "fuel": 46, "engineType": "CE"}, {"name": "142/FF279BT", "vin": "WME4533421K146311", "coordinates": [9.20584, 45.44444, 0], "smartPhoneRequired": true, "interior": "GOOD", "exterior": "GOOD", "address": "Largo Isarco, 2, 20139 Milano", "fuel": 71, "engineType": "CE"}, {"name": "158/FF295BT", "vin": "WME4533421K140876", "coordinates": [9.22156, 45.44651, 0], "smartPhoneRequired": true, "interior": "GOOD", "exterior": "GOOD", "address": "Via Giovanni Cadolini, 39, 20137 Milano", "fuel": 90, "engineType": "CE"}, {"name": "663/FF098SJ", "vin": "WME4533421K146101", "coordinates": [9.19403, 45.48067, 0], "smartPhoneRequired": true, "interior": "GOOD", "exterior": "GOOD", "address": "Via Marco Polo, 9, 20124 Milano", "fuel": 62, "engineType": "CE"}, {"name": "043/FF158BT", "vin": "WME4533421K146219", "coordinates": [9.15827, 45.44132, 0], "smartPhoneRequired": true, "interior": "GOOD", "exterior": "GOOD", "address": "Via Bonaventura Zumbini, 6, 20143 Milano", "fuel": 93, "engineType": "CE"}, {"name": "657/FF089SJ", "vin": "WME4533421K152412", "coordinates": [9.15769, 45.44548, 0], "smartPhoneRequired": true, "interior": "GOOD", "exterior": "GOOD", "address": "Via Dionigi Bussola, 7, 20143 Milano", "fuel": 68, "engineType": "CE"}, {"name": "242/FF410BT", "vin": "WME4533421K149561", "coordinates": [9.23517, 45.49636, 0], "smartPhoneRequired": true, "interior": "GOOD", "exterior": "GOOD", "address": "Via Bruno Cesana, 6, 20132 Milano", "fuel": 100, "engineType": "CE"}, {"name": "359/FF688KW", "vin": "WME4533421K147256", "coordinates": [9.14635, 45.46564, 0], "smartPhoneRequired": true, "interior": "GOOD", "exterior": "GOOD", "address": "SPexSS11, 6-10, 20146 Milano", "fuel": 68, "engineType": "CE"}, {"name": "132/FF268BT", "vin": "WME4533421K141822", "coordinates": [9.13969, 45.46593, 0], "smartPhoneRequired": true, "interior": "GOOD", "exterior": "GOOD", "address": "Via Privata Poggibonsi, 6-8, 20146 Milano", "fuel": 100, "engineType": "CE"}, {"name": "188/FF355BT", "vin": "WME4533421K146209", "coordinates": [9.14584, 45.4407, 0], "smartPhoneRequired": true, "interior": "GOOD", "exterior": "GOOD", "address": "Via Francesco Olgiati, 19, 20143 Milano", "fuel": 90, "engineType": "CE"}, {"name": "343/FF672KW", "vin": "WME4533421K146412", "coordinates": [9.14009, 45.49031, 0], "smartPhoneRequired": true, "interior": "GOOD", "exterior": "GOOD", "address": "Viale Alcide De Gasperi 30, 20149 Milano", "fuel": 100, "engineType": "CE"}, {"name": "612/FF310NT", "vin": "WME4533421K152258", "coordinates": [9.22484, 45.49988, 0], "smartPhoneRequired": true, "interior": "GOOD", "exterior": "GOOD", "address": "Via Gerolamo Rovetta, 18, 20127 Milano", "fuel": 90, "engineType": "CE"}, {"name": "131/FF267BT", "vin": "WME4533421K149474", "coordinates": [9.21964, 45.50063, 0], "smartPhoneRequired": true, "interior": "GOOD", "exterior": "GOOD", "address": "Via Privata Grado, 16, 20125 Milano", "fuel": 93, "engineType": "CE"}, {"name": "482/FF900KW", "vin": "WME4533421K146625", "coordinates": [9.20331, 45.42109, 0], "smartPhoneRequired": true, "interior": "GOOD", "exterior": "GOOD", "address": "Via Giuseppe Ripamonti, 342, 20141 Milano", "fuel": 100, "engineType": "CE"}, {"name": "076/FF191BT", "vin": "WME4533421K148748", "coordinates": [9.22249, 45.46747, 0], "smartPhoneRequired": true, "interior": "GOOD", "exterior": "GOOD", "address": "Via Gerolamo Turroni, 10, 20129 Milano", "fuel": 100, "engineType": "CE"}, {"name": "684/FF137SJ", "vin": "WME4533421K154297", "coordinates": [9.19101, 45.46199, 0], "smartPhoneRequired": true, "interior": "GOOD", "exterior": "GOOD", "address": "Via Rastrelli, 2-4, 20122 Milano", "fuel": 100, "engineType": "CE"}, {"name": "618/FF316NT", "vin": "WME4533421K152965", "coordinates": [9.14707, 45.48038, 0], "smartPhoneRequired": true, "interior": "GOOD", "exterior": "GOOD", "address": "Via Francesco Albani, 30-32, 20148 Milano", "fuel": 100, "engineType": "CE"}, {"name": "553/FF944KW", "vin": "WME4533421K145007", "coordinates": [9.19474, 45.47966, 0], "smartPhoneRequired": true, "interior": "GOOD", "exterior": "GOOD", "address": "Via Galileo Galilei, 1-3, 20124 Milano", "fuel": 28, "engineType": "CE"}, {"name": "048/FF163BT", "vin": "WME4533421K144752", "coordinates": [9.20375, 45.45359, 0], "smartPhoneRequired": true, "interior": "GOOD", "exterior": "GOOD", "address": "Via Serviliano Lattuada, 4, 20135 Milano", "fuel": 96, "engineType": "CE"}, {"name": "652/FF081SJ", "vin": "WME4533421K152169", "coordinates": [9.24351, 45.45445, 0], "smartPhoneRequired": true, "interior": "GOOD", "exterior": "GOOD", "address": "Via Gianfranco Malipiero, 2-8, 20138 Milano", "fuel": 81, "engineType": "CE"}, {"name": "175/FF312BT", "vin": "WME4533421K145234", "coordinates": [9.22353, 45.48254, 0], "smartPhoneRequired": true, "interior": "GOOD", "exterior": "GOOD", "address": "Viale Lombardia, 17, 20131 Milano", "fuel": 71, "engineType": "CE"}, {"name": "508/FF926KW", "vin": "WME4533421K145060", "coordinates": [9.17124, 45.45983, 0], "smartPhoneRequired": true, "interior": "GOOD", "exterior": "GOOD", "address": "Via Olona, 23-25, 20123 Milano", "fuel": 53, "engineType": "CE"}, {"name": "501/FF919KW", "vin": "WME4533421K147910", "coordinates": [9.14449, 45.44113, 0], "smartPhoneRequired": true, "interior": "GOOD", "exterior": "GOOD", "address": "Via S. Giuseppe Cottolengo, 32, 20143 Milano", "fuel": 34, "engineType": "CE"}, {"name": "234/FF402BT", "vin": "WME4533421K147240", "coordinates": [9.12759, 45.46859, 0], "smartPhoneRequired": true, "interior": "GOOD", "exterior": "GOOD", "address": "Via Novara, 10, 20147 Milano", "fuel": 81, "engineType": "CE"}, {"name": "029/FF144BT", "vin": "WME4533421K144601", "coordinates": [9.2102, 45.45771, 0], "smartPhoneRequired": true, "interior": "GOOD", "exterior": "GOOD", "address": "Via Emilio Morosini, 33, 20135 Milano", "fuel": 100, "engineType": "CE"}, {"name": "095/FF210BT", "vin": "WME4533421K149881", "coordinates": [9.16368, 45.4892, 0], "smartPhoneRequired": true, "interior": "GOOD", "exterior": "GOOD", "address": "Via Principe Eugenio, 14, 20155 Milano", "fuel": 59, "engineType": "CE"}, {"name": "800/FF234BT", "vin": "WME4530421Y095559", "coordinates": [9.23658, 45.47566, 0], "smartPhoneRequired": true, "interior": "GOOD", "exterior": "GOOD", "address": "Via Carlo Valvassori Peroni, 17, 20133 Milano", "fuel": 53, "engineType": "CE"}, {"name": "319/FF493BT", "vin": "WME4533421K149359", "coordinates": [9.23258, 45.44278, 0], "smartPhoneRequired": true, "interior": "GOOD", "exterior": "GOOD", "address": "Via Vincenzo Toffetti, 75a, 20139 Milano", "fuel": 71, "engineType": "CE"}, {"name": "527/FF008NT", "vin": "WME4533421K147512", "coordinates": [9.18169, 45.44657, 0], "smartPhoneRequired": true, "interior": "GOOD", "exterior": "GOOD", "address": "Via Antonio Tantardini, 15, 20136 Milano", "fuel": 75, "engineType": "CE"}, {"name": "091/FF206BT", "vin": "WME4533421K149577", "coordinates": [9.19785, 45.47078, 0], "smartPhoneRequired": true, "interior": "GOOD", "exterior": "GOOD", "address": "Via Marina, 3, 20121 Milano", "fuel": 56, "engineType": "CE"}, {"name": "407/FF761KW", "vin": "WME4533421K148360", "coordinates": [9.16908, 45.45138, 0], "smartPhoneRequired": true, "interior": "GOOD", "exterior": "GOOD", "address": "Via Valenza, 5-13, 20144 Milano", "fuel": 62, "engineType": "CE"}, {"name": "518/FF936KW", "vin": "WME4533421K144734", "coordinates": [9.16158, 45.45658, 0], "smartPhoneRequired": true, "interior": "GOOD", "exterior": "GOOD", "address": "Via Cola di Rienzo, 2, 20144 Milano", "fuel": 87, "engineType": "CE"}, {"name": "605/FF303NT", "vin": "WME4533421K151164", "coordinates": [9.21076, 45.49058, 0], "smartPhoneRequired": true, "interior": "GOOD", "exterior": "GOOD", "address": "Via Ferrante Aporti, 26-28, 20127 Milano", "fuel": 90, "engineType": "CE"}, {"name": "083/FF198BT", "vin": "WME4533421K149062", "coordinates": [9.20151, 45.50647, 0], "smartPhoneRequired": true, "interior": "GOOD", "exterior": "GOOD", "address": "Via Romolo Bitti, 24, 20125 Milano", "fuel": 75, "engineType": "CE"}, {"name": "186/FF353BT", "vin": "WME4533421K145875", "coordinates": [9.20119, 45.4503, 0], "smartPhoneRequired": true, "interior": "GOOD", "exterior": "GOOD", "address": "Via Gaetana Agnesi, 5, 20135 Milano", "fuel": 56, "engineType": "CE"}, {"name": "275/FF447BT", "vin": "WME4533421K145882", "coordinates": [9.23007, 45.47718, 0], "smartPhoneRequired": true, "interior": "GOOD", "exterior": "GOOD", "address": "Via Giuseppe Ponzio, 28, 20133 Milano", "fuel": 100, "engineType": "CE"}, {"name": "127/FF263BT", "vin": "WME4533421K148493", "coordinates": [9.19095, 45.46145, 0], "smartPhoneRequired": true, "interior": "GOOD", "exterior": "GOOD", "address": "Via Flavio Baracchini, 8-10, 20122 Milano", "fuel": 100, "engineType": "CE"}, {"name": "171/FF308BT", "vin": "WME4533421K141980", "coordinates": [9.22062, 45.46773, 0], "smartPhoneRequired": true, "interior": "GOOD", "exterior": "GOOD", "address": "Via Privata Valentino Pasini, 23, 20129 Milano", "fuel": 100, "engineType": "CE"}, {"name": "664/FF099SJ", "vin": "WME4533421K152697", "coordinates": [9.23762, 45.49811, 0], "smartPhoneRequired": true, "interior": "GOOD", "exterior": "GOOD", "address": "Via Privata Benadir, 2645, 20132 Milano", "fuel": 90, "engineType": "CE"}, {"name": "687/FF150SJ", "vin": "WME4533421K150652", "coordinates": [9.19719, 45.43372, 0], "smartPhoneRequired": true, "interior": "GOOD", "exterior": "GOOD", "address": "Via Bernardino Verro, 90, 20141 Milano", "fuel": 37, "engineType": "CE"}, {"name": "017/FF132BT", "vin": "WME4533421K142796", "coordinates": [9.17354, 45.50794, 0], "smartPhoneRequired": true, "interior": "GOOD", "exterior": "GOOD", "address": "Via Enrico Cialdini, 2-12, 20161 Milano", "fuel": 40, "engineType": "CE"}, {"name": "080/FF195BT", "vin": "WME4533421K148878", "coordinates": [9.20791, 45.47487, 0], "smartPhoneRequired": true, "interior": "GOOD", "exterior": "GOOD", "address": "Via Marcello Malpighi, 12, 20129 Milano", "fuel": 100, "engineType": "CE"}, {"name": "128/FF264BT", "vin": "WME4533421K140894", "coordinates": [9.18922, 45.49601, 0], "smartPhoneRequired": true, "interior": "GOOD", "exterior": "GOOD", "address": "Via Paolo Bassi, 22, 20159 Milano", "fuel": 12, "engineType": "CE"}, {"name": "700/FF173SJ", "vin": "WME4533421K151431", "coordinates": [9.20303, 45.46482, 0], "smartPhoneRequired": true, "interior": "GOOD", "exterior": "GOOD", "address": "Via Conservatorio, 3, 20122 Milano", "fuel": 87, "engineType": "CE"}, {"name": "442/FF851KW", "vin": "WME4533421K142104", "coordinates": [9.19922, 45.46869, 0], "smartPhoneRequired": true, "interior": "GOOD", "exterior": "GOOD", "address": "Corso Venezia, 14, 20122 Milano", "fuel": 96, "engineType": "CE"}, {"name": "696/FF167SJ", "vin": "WME4533421K151283", "coordinates": [9.16473, 45.48688, 0], "smartPhoneRequired": true, "interior": "GOOD", "exterior": "GOOD", "address": "Via Privata Francesco Koristka, 10, 20154 Milano", "fuel": 100, "engineType": "CE"}, {"name": "673/FF120SJ", "vin": "WME4533421K147206", "coordinates": [9.15519, 45.44503, 0], "smartPhoneRequired": true, "interior": "GOOD", "exterior": "GOOD", "address": "Via Giovanni Enrico Pestalozzi, 19, 20143 Milano", "fuel": 75, "engineType": "CE"}, {"name": "408/FF765KW", "vin": "WME4533421K149755", "coordinates": [9.14667, 45.40163, 0], "smartPhoneRequired": true, "interior": "GOOD", "exterior": "GOOD", "address": "Viale Milano Fiori, 2, 20090 Assago MI", "fuel": 56, "engineType": "CE"}, {"name": "689/FF156SJ", "vin": "WME4533421K150703", "coordinates": [9.21011, 45.46889, 0], "smartPhoneRequired": true, "interior": "GOOD", "exterior": "GOOD", "address": "Via Carlo Poerio, 5, 20129 Milano", "fuel": 40, "engineType": "CE"}, {"name": "120/FF256BT", "vin": "WME4533421K146348", "coordinates": [9.1925, 45.45925, 0], "smartPhoneRequired": true, "interior": "GOOD", "exterior": "GOOD", "address": "Largo Francesco Richini, 7, 20122 Milano", "fuel": 78, "engineType": "CE"}, {"name": "031/FF146BT", "vin": "WME4533421K144633", "coordinates": [9.16939, 45.4612, 0], "smartPhoneRequired": true, "interior": "GOOD", "exterior": "GOOD", "address": "Via Gian Battista Vico, 3, 20123 Milano", "fuel": 87, "engineType": "CE"}, {"name": "616/FF314NT", "vin": "WME4533421K152631", "coordinates": [9.17465, 45.51046, 0], "smartPhoneRequired": true, "interior": "GOOD", "exterior": "GOOD", "address": "Via Nicotera Giovanni, 8, 20161 Milano", "fuel": 100, "engineType": "CE"}, {"name": "521/FF002NT", "vin": "WME4533421K146674", "coordinates": [9.16125, 45.45675, 0], "smartPhoneRequired": true, "interior": "GOOD", "exterior": "GOOD", "address": "Piazza Giovanni Antonio Bazzi, 2, 20144 Milano", "fuel": 84, "engineType": "CE"}, {"name": "723/FF216SJ", "vin": "WME4533421K152683", "coordinates": [9.20925, 45.44295, 0], "smartPhoneRequired": true, "interior": "GOOD", "exterior": "GOOD", "address": "Via Arcivescovo Calabiana, 11, 20139 Milano", "fuel": 100, "engineType": "CE"}, {"name": "073/FF188BT", "vin": "WME4533421K141239", "coordinates": [9.14168, 45.46689, 0], "smartPhoneRequired": true, "interior": "GOOD", "exterior": "GOOD", "address": "Via Antonello da Messina, 6, 20146 Milano", "fuel": 84, "engineType": "CE"}, {"name": "357/FF686KW", "vin": "WME4533421K147139", "coordinates": [9.23318, 45.48006, 0], "smartPhoneRequired": true, "interior": "GOOD", "exterior": "GOOD", "address": "Via Edoardo Bassini, 29, 20133 Milano", "fuel": 56, "engineType": "CE"}, {"name": "369/FF698KW", "vin": "WME4533421K148318", "coordinates": [9.19027, 45.47989, 0], "smartPhoneRequired": true, "interior": "GOOD", "exterior": "GOOD", "address": "Bastioni di Porta Nuova, 9, 20121 Milano", "fuel": 25, "engineType": "CE"}, {"name": "625/FF324NT", "vin": "WME4533421K146615", "coordinates": [9.14059, 45.47453, 0], "smartPhoneRequired": true, "interior": "GOOD", "exterior": "GOOD", "address": "Piazza Monte Falterona, 12, 20148 Milano", "fuel": 100, "engineType": "CE"}, {"name": "123/FF259BT", "vin": "WME4533421K146927", "coordinates": [9.22653, 45.43509, 0], "smartPhoneRequired": true, "interior": "GOOD", "exterior": "GOOD", "address": "Via Augusto Osimo, 10-12, 20139 Milano", "fuel": 100, "engineType": "CE"}, {"name": "112/FF248BT", "vin": "WME4533421K145703", "coordinates": [9.16988, 45.40695, 0], "smartPhoneRequired": true, "interior": "GOOD", "exterior": "GOOD", "address": "Via Costantino Baroni, 57, 20142 Milano", "fuel": 12, "engineType": "CE"}, {"name": "040/FF155BT", "vin": "WME4533421K146058", "coordinates": [9.15276, 45.44164, 0], "smartPhoneRequired": true, "interior": "GOOD", "exterior": "GOOD", "address": "Via Ettore Ponti, 48, 20143 Milano", "fuel": 87, "engineType": "CE"}, {"name": "087/FF202BT", "vin": "WME4533421K149213", "coordinates": [9.23886, 45.47092, 0], "smartPhoneRequired": true, "interior": "GOOD", "exterior": "GOOD", "address": "Via Giovanni Antonio Amadeo, 58, 20134 Milano", "fuel": 56, "engineType": "CE"}, {"name": "249/FF417BT", "vin": "WME4533421K144347", "coordinates": [9.22697, 45.46417, 0], "smartPhoneRequired": true, "interior": "GOOD", "exterior": "GOOD", "address": "Via Giacomo Zanella, 23-27, 20133 Milano", "fuel": 81, "engineType": "CE"}, {"name": "108/FF244BT", "vin": "WME4533421K145161", "coordinates": [9.20846, 45.51581, 0], "smartPhoneRequired": true, "interior": "GOOD", "exterior": "GOOD", "address": "Via Giuseppe la Farina, 2-10, 20126 Milano", "fuel": 81, "engineType": "CE"}, {"name": "172/FF309BT", "vin": "WME4533421K142458", "coordinates": [9.23656, 45.47969, 0], "smartPhoneRequired": true, "interior": "GOOD", "exterior": "GOOD", "address": "Via Carlo Valvassori Peroni, 45, 20133 Milano", "fuel": 100, "engineType": "CE"}, {"name": "622/FF321NT", "vin": "WME4533421K146234", "coordinates": [9.20438, 45.51047, 0], "smartPhoneRequired": true, "interior": "GOOD", "exterior": "GOOD", "address": "Via Mainoni D'intignano Luigi, 17A, 20125 Milano", "fuel": 84, "engineType": "CE"}, {"name": "388/FF730KW", "vin": "WME4533421K147065", "coordinates": [9.20057, 45.47265, 0], "smartPhoneRequired": true, "interior": "GOOD", "exterior": "GOOD", "address": "Via Palestro, 18, 20121 Milano", "fuel": 81, "engineType": "CE"}, {"name": "630/FF329NT", "vin": "WME4533421K146884", "coordinates": [9.16843, 45.47632, 0], "smartPhoneRequired": true, "interior": "GOOD", "exterior": "GOOD", "address": "Via Antonio Canova, 14, 20145 Milano", "fuel": 100, "engineType": "CE"}, {"name": "198/FF365BT", "vin": "WME4533421K146654", "coordinates": [9.17417, 45.48683, 0], "smartPhoneRequired": true, "interior": "GOOD", "exterior": "GOOD", "address": "Piazza Coriolano, 1-9, 20154 Milano", "fuel": 100, "engineType": "CE"}, {"name": "732/FF228SJ", "vin": "WME4533421K152961", "coordinates": [9.21842, 45.49607, 0], "smartPhoneRequired": true, "interior": "GOOD", "exterior": "GOOD", "address": "Via Popoli Uniti, 8-14, 20125 Milano", "fuel": 56, "engineType": "CE"}, {"name": "057/FF172BT", "vin": "WME4533421K140943", "coordinates": [9.25613, 45.50908, 0], "smartPhoneRequired": true, "interior": "GOOD", "exterior": "GOOD", "address": "Via Angelo Rizzoli, 49, 20132 Milano", "fuel": 71, "engineType": "CE"}, {"name": "199/FF366BT", "vin": "WME4533421K146667", "coordinates": [9.17302, 45.47289, 0], "smartPhoneRequired": true, "interior": "GOOD", "exterior": "GOOD", "address": "Viale Luigi Camoens, 20121 Milano", "fuel": 100, "engineType": "CE"}, {"name": "122/FF258BT", "vin": "WME4533421K146869", "coordinates": [9.1981, 45.49849, 0], "smartPhoneRequired": true, "interior": "GOOD", "exterior": "GOOD", "address": "Via Arbe, 49, 20125 Milano", "fuel": 100, "engineType": "CE"}, {"name": "096/FF211BT", "vin": "WME4533421K149917", "coordinates": [9.1644, 45.48466, 0], "smartPhoneRequired": true, "interior": "GOOD", "exterior": "GOOD", "address": "Via Lodovico Castelvetro, 18, 20154 Milano", "fuel": 90, "engineType": "CE"}, {"name": "205/FF372BT", "vin": "WME4533421K148399", "coordinates": [9.16137, 45.44621, 0], "smartPhoneRequired": true, "interior": "GOOD", "exterior": "GOOD", "address": "Via D'adda Carlo, 24, 20143 Milano", "fuel": 84, "engineType": "CE"}, {"name": "640/FF059SJ", "vin": "WME4533421K151393", "coordinates": [9.16107, 45.49419, 0], "smartPhoneRequired": true, "interior": "GOOD", "exterior": "GOOD", "address": "Via Giuseppe Govone, 85, 20155 Milano", "fuel": 93, "engineType": "CE"}, {"name": "457/FF867KW", "vin": "WME4533421K140490", "coordinates": [9.15958, 45.45628, 0], "smartPhoneRequired": true, "interior": "GOOD", "exterior": "GOOD", "address": "Via Mois\u00e8 Loria, 23, 20144 Milano", "fuel": 81, "engineType": "CE"}, {"name": "383/FF725KW", "vin": "WME4533421K142911", "coordinates": [9.17525, 45.4362, 0], "smartPhoneRequired": true, "interior": "GOOD", "exterior": "GOOD", "address": "Via Francesco de Sanctis, 4-6, 20141 Milano", "fuel": 31, "engineType": "CE"}, {"name": "701/FF174SJ", "vin": "WME4533421K151488", "coordinates": [9.18335, 45.48518, 0], "smartPhoneRequired": true, "interior": "GOOD", "exterior": "GOOD", "address": "Via Enrico Tazzoli, 2, 20154 Milano", "fuel": 87, "engineType": "CE"}, {"name": "003/FF118BT", "vin": "WME4533421K147428", "coordinates": [9.15276, 45.46729, 0], "smartPhoneRequired": true, "interior": "GOOD", "exterior": "GOOD", "address": "Via Carlo Ravizza, 1, 20146 Milano", "fuel": 62, "engineType": "CE"}, {"name": "491/FF909KW", "vin": "WME4533421K147171", "coordinates": [9.18968, 45.47873, 0], "smartPhoneRequired": true, "interior": "GOOD", "exterior": "GOOD", "address": "Via Castelfidardo, 8-10, 20121 Milano", "fuel": 100, "engineType": "CE"}, {"name": "713/FF196SJ", "vin": "WME4533421K152386", "coordinates": [9.2103, 45.52546, 0], "smartPhoneRequired": true, "interior": "GOOD", "exterior": "GOOD", "address": "Via Raffaello Giolli, 15, 20162 Milano", "fuel": 18, "engineType": "CE"}, {"name": "400/FF745KW", "vin": "WME4533421K145922", "coordinates": [9.23078, 45.49319, 0], "smartPhoneRequired": true, "interior": "GOOD", "exterior": "GOOD", "address": "Via Carlo Esterle, 3, 20132 Milano", "fuel": 75, "engineType": "CE"}, {"name": "307/FF481BT", "vin": "WME4533421K140863", "coordinates": [9.17199, 45.45471, 0], "smartPhoneRequired": true, "interior": "GOOD", "exterior": "GOOD", "address": "Corso Cristoforo Colombo, 5, 20144 Milano", "fuel": 100, "engineType": "CE"}, {"name": "655/FF084SJ", "vin": "WME4533421K152250", "coordinates": [9.13518, 45.4464, 0], "smartPhoneRequired": true, "interior": "GOOD", "exterior": "GOOD", "address": "Via Giambellino, 129, 20146 Milano", "fuel": 100, "engineType": "CE"}, {"name": "699/FF172SJ", "vin": "WME4533421K151417", "coordinates": [9.2496, 45.43334, 0], "smartPhoneRequired": true, "interior": "GOOD", "exterior": "GOOD", "address": "Via Carlo Feltrinelli, 16, 20138 Milano", "fuel": 53, "engineType": "CE"}, {"name": "653/FF082SJ", "vin": "WME4533421K152196", "coordinates": [9.17893, 45.50469, 0], "smartPhoneRequired": true, "interior": "GOOD", "exterior": "GOOD", "address": "Via Magellano, 4-6, 20158 Milano", "fuel": 87, "engineType": "CE"}, {"name": "667/FF109SJ", "vin": "WME4533421K146683", "coordinates": [9.18511, 45.44315, 0], "smartPhoneRequired": true, "interior": "GOOD", "exterior": "GOOD", "address": "Piazza Caduti del Lavoro, 5, 20141 Milano", "fuel": 96, "engineType": "CE"}, {"name": "327/FF651KW", "vin": "WME4533421K150115", "coordinates": [9.24771, 45.48281, 0], "smartPhoneRequired": true, "interior": "GOOD", "exterior": "GOOD", "address": "Via Privata Oslavia, 17, 20134 Milano", "fuel": 100, "engineType": "CE"}, {"name": "671/FF116SJ", "vin": "WME4533421K152889", "coordinates": [9.21664, 45.49583, 0], "smartPhoneRequired": true, "interior": "GOOD", "exterior": "GOOD", "address": "Via Popoli Uniti, 21, 20125 Milano", "fuel": 96, "engineType": "CE"}, {"name": "698/FF171SJ", "vin": "WME4533421K151413", "coordinates": [9.15046, 45.46904, 0], "smartPhoneRequired": true, "interior": "GOOD", "exterior": "GOOD", "address": "Via Carlo Ravizza, 24, 20149 Milano", "fuel": 81, "engineType": "CE"}, {"name": "670/FF114SJ", "vin": "WME4533421K152871", "coordinates": [9.15755, 45.45066, 0], "smartPhoneRequired": true, "interior": "GOOD", "exterior": "GOOD", "address": "Via Tortona, 37-39, 20144 Milano", "fuel": 100, "engineType": "CE"}, {"name": "155/FF292BT", "vin": "WME4533421K148605", "coordinates": [9.17695, 45.49525, 0], "smartPhoneRequired": true, "interior": "GOOD", "exterior": "GOOD", "address": "Viale Vincenzo Lancetti, 37, 20158 Milano", "fuel": 100, "engineType": "CE"}, {"name": "111/FF247BT", "vin": "WME4533421K145630", "coordinates": [9.16229, 45.46522, 0], "smartPhoneRequired": true, "interior": "GOOD", "exterior": "GOOD", "address": "Via Giovanni Battista Soresina, 3, 20144 Milano", "fuel": 50, "engineType": "CE"}, {"name": "129/FF265BT", "vin": "WME4533421K148882", "coordinates": [9.1464, 45.49678, 0], "smartPhoneRequired": true, "interior": "GOOD", "exterior": "GOOD", "address": "Via Varesina, 52, 20156 Milano", "fuel": 71, "engineType": "CE"}, {"name": "422/FF817KW", "vin": "WME4533421K149529", "coordinates": [9.20272, 45.44938, 0], "smartPhoneRequired": true, "interior": "GOOD", "exterior": "GOOD", "address": "Via Crema, 15, 20135 Milano", "fuel": 71, "engineType": "CE"}, {"name": "629/FF328NT", "vin": "WME4533421K146862", "coordinates": [9.12581, 45.45048, 0], "smartPhoneRequired": true, "interior": "GOOD", "exterior": "GOOD", "address": "Via Angelo Inganni, 57-65, 20147 Milano", "fuel": 100, "engineType": "CE"}, {"name": "092/FF207BT", "vin": "WME4533421K149740", "coordinates": [9.21789, 45.49592, 0], "smartPhoneRequired": true, "interior": "GOOD", "exterior": "GOOD", "address": "Via Popoli Uniti, 15, 20125 Milano", "fuel": 100, "engineType": "CE"}, {"name": "707/FF183SJ", "vin": "WME4533421K151914", "coordinates": [9.14263, 45.4449, 0], "smartPhoneRequired": true, "interior": "GOOD", "exterior": "GOOD", "address": "Via Lodovico Il Moro, 61-71, 20143 Milano", "fuel": 37, "engineType": "CE"}, {"name": "782/FF091VV", "vin": "WME4530421Y100284", "coordinates": [9.17037, 45.44413, 0], "smartPhoneRequired": true, "interior": "GOOD", "exterior": "GOOD", "address": "Viale Liguria, 21, 20143 Milano", "fuel": 87, "engineType": "CE"}, {"name": "406/FF760KW", "vin": "WME4533421K148314", "coordinates": [9.14558, 45.4455, 0], "smartPhoneRequired": true, "interior": "GOOD", "exterior": "GOOD", "address": "Via Lodovico Il Moro, 49-53, 20143 Milano", "fuel": 90, "engineType": "CE"}, {"name": "355/FF684KW", "vin": "WME4533421K147031", "coordinates": [9.20221, 45.4468, 0], "smartPhoneRequired": true, "interior": "GOOD", "exterior": "GOOD", "address": "SPexSS11, 26, 20135 Milano", "fuel": 100, "engineType": "CE"}, {"name": "005/FF120BT", "vin": "WME4533421K147448", "coordinates": [9.13733, 45.46969, 0], "smartPhoneRequired": true, "interior": "GOOD", "exterior": "GOOD", "address": "Viale Aretusa, 7-15, 20148 Milano", "fuel": 100, "engineType": "CE"}, {"name": "312/FF486BT", "vin": "WME4533421K147720", "coordinates": [9.18249, 45.46049, 0], "smartPhoneRequired": true, "interior": "GOOD", "exterior": "GOOD", "address": "Via Torino, 67, 20123 Milano", "fuel": 90, "engineType": "CE"}, {"name": "569/FF098NT", "vin": "WME4533421K150389", "coordinates": [9.21031, 45.51157, 0], "smartPhoneRequired": true, "interior": "GOOD", "exterior": "GOOD", "address": "Via Libero Temolo, 2, 20126 Milano", "fuel": 53, "engineType": "CE"}, {"name": "241/FF409BT", "vin": "WME4533421K148526", "coordinates": [9.21716, 45.49535, 0], "smartPhoneRequired": true, "interior": "GOOD", "exterior": "GOOD", "address": "Via Giulio e Corrado Venini, 93, 20125 Milano", "fuel": 81, "engineType": "CE"}, {"name": "354/FF683KW", "vin": "WME4533421K147018", "coordinates": [9.20792, 45.50951, 0], "smartPhoneRequired": true, "interior": "GOOD", "exterior": "GOOD", "address": "Via Privata San Basilio, 21, 20125 Milano", "fuel": 100, "engineType": "CE"}, {"name": "212/FF379BT", "vin": "WME4533421K145046", "coordinates": [9.25055, 45.45301, 0], "smartPhoneRequired": true, "interior": "GOOD", "exterior": "GOOD", "address": "Via Mecenate, 87, 20138 Milano", "fuel": 81, "engineType": "CE"}, {"name": "208/FF375BT", "vin": "WME4533421K149641", "coordinates": [9.19546, 45.50363, 0], "smartPhoneRequired": true, "interior": "GOOD", "exterior": "GOOD", "address": "Via Privata Mario Galli, 1-3, 20159 Milano", "fuel": 100, "engineType": "CE"}, {"name": "034/FF149BT", "vin": "WME4533421K148262", "coordinates": [9.21231, 45.47577, 0], "smartPhoneRequired": true, "interior": "GOOD", "exterior": "GOOD", "address": "Via Antonio Stoppani, 5-7, 20129 Milano", "fuel": 100, "engineType": "CE"}, {"name": "306/FF480BT", "vin": "WME4533421K146406", "coordinates": [9.23929, 45.46434, 0], "smartPhoneRequired": true, "interior": "GOOD", "exterior": "GOOD", "address": "Via Alfonso Gatto, 20129 Milano", "fuel": 100, "engineType": "CE"}, {"name": "153/FF290BT", "vin": "WME4533421K147962", "coordinates": [9.1386, 45.46477, 0], "smartPhoneRequired": true, "interior": "GOOD", "exterior": "GOOD", "address": "Via Amero Cagnoni, 2-10, 20146 Milano", "fuel": 81, "engineType": "CE"}, {"name": "724/FF217SJ", "vin": "WME4533421K152718", "coordinates": [9.18368, 45.49036, 0], "smartPhoneRequired": true, "interior": "GOOD", "exterior": "GOOD", "address": "Via Carlo Farini, 40, 20159 Milano", "fuel": 56, "engineType": "CE"}, {"name": "079/FF194BT", "vin": "WME4533421K148818", "coordinates": [9.21205, 45.46088, 0], "smartPhoneRequired": true, "interior": "GOOD", "exterior": "GOOD", "address": "Via Bezzecca, 13, 20135 Milano", "fuel": 81, "engineType": "CE"}, {"name": "412/FF769KW", "vin": "WME4533421K140413", "coordinates": [9.15255, 45.45343, 0], "smartPhoneRequired": true, "interior": "GOOD", "exterior": "GOOD", "address": "Piazza Napoli, 24-28, 20146 Milano", "fuel": 87, "engineType": "CE"}, {"name": "346/FF675KW", "vin": "WME4533421K146479", "coordinates": [9.16243, 45.49304, 0], "smartPhoneRequired": true, "interior": "GOOD", "exterior": "GOOD", "address": "Via Giuseppe Govone, 67, 20155 Milano", "fuel": 100, "engineType": "CE"}, {"name": "739/FF236SJ", "vin": "WME4533421K153294", "coordinates": [9.19677, 45.48407, 0], "smartPhoneRequired": true, "interior": "GOOD", "exterior": "GOOD", "address": "Via Giovanni Battista Pirelli, 32, 20124 Milano", "fuel": 87, "engineType": "CE"}, {"name": "452/FF862KW", "vin": "WME4533421K140996", "coordinates": [9.24154, 45.46158, 0], "smartPhoneRequired": true, "interior": "GOOD", "exterior": "GOOD", "address": "Via Cipriano Facchinetti, 4, 20138 Milano", "fuel": 62, "engineType": "CE"}, {"name": "766/FF075VV", "vin": "WME4530421Y098440", "coordinates": [9.20055, 45.47269, 0], "smartPhoneRequired": true, "interior": "GOOD", "exterior": "GOOD", "address": "Via Palestro, 18, 20121 Milano", "fuel": 87, "engineType": "CE"}, {"name": "610/FF308NT", "vin": "WME4533421K151929", "coordinates": [9.14861, 45.4625, 0], "smartPhoneRequired": true, "interior": "GOOD", "exterior": "GOOD", "address": "SPexSS11, 67-71, 20146 Milano", "fuel": 65, "engineType": "CE"}, {"name": "680/FF131SJ", "vin": "WME4533421K148497", "coordinates": [9.21127, 45.52019, 0], "smartPhoneRequired": true, "interior": "GOOD", "exterior": "GOOD", "address": "Viale Sarca, 223, 20126 Milano", "fuel": 34, "engineType": "CE"}, {"name": "216/FF383BT", "vin": "WME4533421K146982", "coordinates": [9.19612, 45.5099, 0], "smartPhoneRequired": true, "interior": "GOOD", "exterior": "GOOD", "address": "Via Valfurva, 9, 20162 Milano", "fuel": 53, "engineType": "CE"}, {"name": "335/FF659KW", "vin": "WME4533421K146173", "coordinates": [9.13176, 45.46843, 0], "smartPhoneRequired": true, "interior": "GOOD", "exterior": "GOOD", "address": "Via M. Morgantini, 32, 20148 Milano", "fuel": 100, "engineType": "CE"}, {"name": "458/FF869KW", "vin": "WME4533421K140395", "coordinates": [9.18106, 45.48301, 0], "smartPhoneRequired": true, "interior": "GOOD", "exterior": "GOOD", "address": "Via Ceresio, 6-10, 20154 Milano", "fuel": 96, "engineType": "CE"}, {"name": "493/FF911KW", "vin": "WME4533421K147324", "coordinates": [9.13112, 45.45702, 0], "smartPhoneRequired": true, "interior": "GOOD", "exterior": "GOOD", "address": "Via Francesco Primaticcio, 133, 20147 Milano", "fuel": 100, "engineType": "CE"}, {"name": "737/FF234SJ", "vin": "WME4533421K153021", "coordinates": [9.2532, 45.44618, 0], "smartPhoneRequired": true, "interior": "GOOD", "exterior": "GOOD", "address": "Viale Ungheria, 57-79, 20138 Milano", "fuel": 84, "engineType": "CE"}, {"name": "765/FF074VV", "vin": "WME4530421Y095566", "coordinates": [9.19624, 45.48493, 0], "smartPhoneRequired": true, "interior": "GOOD", "exterior": "GOOD", "address": "Via Clelia del Grillo Borromeo, 20124 Milano", "fuel": 100, "engineType": "CE"}, {"name": "252/FF420BT", "vin": "WME4533421K144593", "coordinates": [9.18745, 45.44902, 0], "smartPhoneRequired": true, "interior": "GOOD", "exterior": "GOOD", "address": "Piazza Angelo Sraffa, 2, 20136 Milano", "fuel": 53, "engineType": "CE"}, {"name": "404/FF752KW", "vin": "WME4533421K147125", "coordinates": [9.12754, 45.43788, 0], "smartPhoneRequired": true, "interior": "GOOD", "exterior": "GOOD", "address": "Via Enna, 8, 20142 Milano", "fuel": 53, "engineType": "CE"}, {"name": "056/FF171BT", "vin": "WME4533421K146820", "coordinates": [9.20272, 45.4997, 0], "smartPhoneRequired": true, "interior": "GOOD", "exterior": "GOOD", "address": "Via Privata Umberto Fracchia, 9, 20125 Milano", "fuel": 31, "engineType": "CE"}, {"name": "372/FF702KW", "vin": "WME4533421K142152", "coordinates": [9.16445, 45.49741, 0], "smartPhoneRequired": true, "interior": "GOOD", "exterior": "GOOD", "address": "Piazzale Lugano, 21, 20158 Milano", "fuel": 100, "engineType": "CE"}, {"name": "754/FF058VV", "vin": "WME4530421Y095556", "coordinates": [9.2522, 45.4264, 0], "smartPhoneRequired": true, "interior": "GOOD", "exterior": "GOOD", "address": "Via 8 Ottobre 2001, 8, 20138 Milano", "fuel": 75, "engineType": "CE"}, {"name": "166/FF303BT", "vin": "WME4533421K149254", "coordinates": [9.16674, 45.49826, 0], "smartPhoneRequired": true, "interior": "GOOD", "exterior": "GOOD", "address": "Via Giovita Scalvini, 4, 20158 Milano", "fuel": 75, "engineType": "CE"}, {"name": "415/FF773KW", "vin": "WME4533421K141958", "coordinates": [9.15471, 45.48201, 0], "smartPhoneRequired": true, "interior": "GOOD", "exterior": "GOOD", "address": "Via Gattamelata, 6, 20149 Milano", "fuel": 43, "engineType": "CE"}, {"name": "045/FF160BT", "vin": "WME4533421K142388", "coordinates": [9.14405, 45.48285, 0], "smartPhoneRequired": true, "interior": "GOOD", "exterior": "GOOD", "address": "Piazza Carlo Stuparich, 8, 20148 Milano", "fuel": 90, "engineType": "CE"}, {"name": "098/FF213BT", "vin": "WME4533421K150012", "coordinates": [9.17379, 45.45801, 0], "smartPhoneRequired": true, "interior": "GOOD", "exterior": "GOOD", "address": "Via S. Calocero, 16, 20123 Milano", "fuel": 96, "engineType": "CE"}, {"name": "648/FF072SJ", "vin": "WME4533421K151760", "coordinates": [9.18493, 45.4332, 0], "smartPhoneRequired": true, "interior": "GOOD", "exterior": "GOOD", "address": "Via Felice Perussia, 2, 20141 Milano", "fuel": 93, "engineType": "CE"}, {"name": "013/FF128BT", "vin": "WME4533421K142705", "coordinates": [9.23281, 45.49247, 0], "smartPhoneRequired": true, "interior": "GOOD", "exterior": "GOOD", "address": "Via Tolmezzo, 6, 20132 Milano", "fuel": 71, "engineType": "CE"}]}