{"placemarks": [{"name": "GUM  8160", "vin": "WMEEJ3BA8FK800229", "coordinates": [-73.9426, 40.73178, 0], "smartPhoneRequired": false, "interior": "GOOD", "exterior": "GOOD", "address": "428-448 Kingsland Ave, Brooklyn, NY 11222, USA", "fuel": 100, "engineType": "CE"}, {"name": "HAR 7905", "vin": "WMEEJ3BA8EK770230", "coordinates": [-73.94123, 40.71309, 0], "smartPhoneRequired": false, "interior": "GOOD", "exterior": "GOOD", "address": "55-57 Bushwick Ave, Brooklyn, NY 11211, USA", "fuel": 100, "engineType": "CE"}, {"name": "GUM7997", "vin": "WMEEJ3BA1FK798663", "coordinates": [-73.92913, 40.68943, 0], "smartPhoneRequired": false, "interior": "GOOD", "exterior": "GOOD", "address": "768-770 Quincy St, Brooklyn, NY 11221, USA", "fuel": 42, "engineType": "CE"}, {"name": "HAR 7934", "vin": "WMEEJ3BA6EK764295", "coordinates": [-73.96603, 40.65332, 0], "smartPhoneRequired": false, "interior": "GOOD", "exterior": "GOOD", "address": "100 Parkside Ave, Brooklyn, NY 11226, USA", "fuel": 100, "engineType": "CE"}, {"name": "GTP 8941", "vin": "WMEEJ3BA5FK797080", "coordinates": [-73.8963, 40.74769, 0], "smartPhoneRequired": false, "interior": "GOOD", "exterior": "GOOD", "address": "69-09 37th Rd, Flushing, NY 11377, USA", "fuel": 57, "engineType": "CE"}, {"name": "HAR 7944", "vin": "WMEEJ3BA3EK773603", "coordinates": [-73.93639, 40.69817, 0], "smartPhoneRequired": false, "interior": "GOOD", "exterior": "GOOD", "address": "12 Arion Pl, Brooklyn, NY 11206, USA", "fuel": 63, "engineType": "CE"}, {"name": "GSW 7780", "vin": "WMEEJ3BA9FK796305", "coordinates": [-73.99476, 40.69381, 0], "smartPhoneRequired": false, "interior": "GOOD", "exterior": "GOOD", "address": "213 Henry St, Brooklyn, NY 11201, USA", "fuel": 72, "engineType": "CE"}, {"name": "GTR 8205", "vin": "WMEEJ3BA9FK797146", "coordinates": [-73.96337, 40.71425, 0], "smartPhoneRequired": false, "interior": "GOOD", "exterior": "GOOD", "address": "264 Berry St, Brooklyn, NY 11249, USA", "fuel": 87, "engineType": "CE"}, {"name": "GTS3759", "vin": "WMEEJ3BA5FK798763", "coordinates": [-73.91771, 40.77984, 0], "smartPhoneRequired": false, "interior": "GOOD", "exterior": "GOOD", "address": "2228-2232 21st St, Astoria, NY 11105, USA", "fuel": 72, "engineType": "CE"}, {"name": "GUM  8169", "vin": "WMEEJ3BA8FK800005", "coordinates": [-73.90784, 40.74608, 0], "smartPhoneRequired": false, "interior": "GOOD", "exterior": "GOOD", "address": "56-4-56-8 Woodside Ave, Woodside, NY 11377, USA", "fuel": 48, "engineType": "CE"}, {"name": "GSW 7809", "vin": "WMEEJ3BA2FK796128", "coordinates": [-73.97606, 40.65631, 0], "smartPhoneRequired": false, "interior": "GOOD", "exterior": "GOOD", "address": "2-14 Horace Ct, Brooklyn, NY 11218, USA", "fuel": 93, "engineType": "CE"}, {"name": "GTR 8194", "vin": "WMEEJ3BA3FK797014", "coordinates": [-74.01276, 40.6792, 0], "smartPhoneRequired": false, "interior": "GOOD", "exterior": "GOOD", "address": "150-168 King St, Brooklyn, NY 11231, USA", "fuel": 100, "engineType": "CE"}, {"name": "GTP 8959", "vin": "WMEEJ3BA5FK795068", "coordinates": [-73.99318, 40.64426, 0], "smartPhoneRequired": false, "interior": "GOOD", "exterior": "GOOD", "address": "3951-3999 10th Ave, Brooklyn, NY 11219, USA", "fuel": 57, "engineType": "CE"}, {"name": "GSW 7845", "vin": "WMEEJ3BA8FK795856", "coordinates": [-73.99149, 40.57798, 0], "smartPhoneRequired": false, "interior": "GOOD", "exterior": "GOOD", "address": "2801-2813 W 24th St, Brooklyn, NY 11224, USA", "fuel": 100, "engineType": "CE"}, {"name": "GSW 7816", "vin": "WMEEJ3BAXFK796460", "coordinates": [-74.03096, 40.62435, 0], "smartPhoneRequired": false, "interior": "GOOD", "exterior": "GOOD", "address": "280 85th St, Brooklyn, NY 11209, USA", "fuel": 100, "engineType": "CE"}, {"name": "GTP 9006", "vin": "WMEEJ3BA6FK796651", "coordinates": [-73.92949, 40.76557, 0], "smartPhoneRequired": false, "interior": "GOOD", "exterior": "GOOD", "address": "31-28-31-58 23rd St, Astoria, NY 11106, USA", "fuel": 100, "engineType": "CE"}, {"name": "GTP 9036", "vin": "WMEEJ3BA0FK797312", "coordinates": [-73.97002, 40.59916, 0], "smartPhoneRequired": false, "interior": "GOOD", "exterior": "GOOD", "address": "2056-2058 E 2nd St, Brooklyn, NY 11223, USA", "fuel": 63, "engineType": "CE"}, {"name": "GUM  8121", "vin": "WMEEJ3BA6FK800066", "coordinates": [-73.95487, 40.70407, 0], "smartPhoneRequired": false, "interior": "GOOD", "exterior": "GOOD", "address": "306 Marcy Ave, Brooklyn, NY 11211, USA", "fuel": 54, "engineType": "CE"}, {"name": "GTR 8253", "vin": "WMEEJ3BA6FK796990", "coordinates": [-73.97979, 40.65131, 0], "smartPhoneRequired": false, "interior": "GOOD", "exterior": "GOOD", "address": "29 E 2nd St, Brooklyn, NY 11218, USA", "fuel": 84, "engineType": "CE"}, {"name": "GSW 7750", "vin": "WMEEJ3BA1FK798212", "coordinates": [-74.0009, 40.6349, 0], "smartPhoneRequired": false, "interior": "GOOD", "exterior": "GOOD", "address": "1047-1051 55th St, Brooklyn, NY 11219, USA", "fuel": 100, "engineType": "CE"}, {"name": "GSW 7767", "vin": "WMEEJ3BA9FK795770", "coordinates": [-73.95639, 40.67496, 0], "smartPhoneRequired": false, "interior": "GOOD", "exterior": "GOOD", "address": "689 Franklin Ave, Brooklyn, NY 11238, USA", "fuel": 36, "engineType": "CE"}, {"name": "GTP 8942", "vin": "WMEEJ3BA8FK797008", "coordinates": [-73.91119, 40.78142, 0], "smartPhoneRequired": false, "interior": "GOOD", "exterior": "GOOD", "address": "2045 Crescent St, Astoria, NY 11105, USA", "fuel": 96, "engineType": "CE"}, {"name": "HAR 7982", "vin": "WMEEJ3BA0EK766513", "coordinates": [-74.00441, 40.63341, 0], "smartPhoneRequired": false, "interior": "GOOD", "exterior": "GOOD", "address": "1001-1031 59th St, Brooklyn, NY 11219, USA", "fuel": 100, "engineType": "CE"}, {"name": "GTR 8286", "vin": "WMEEJ3BA9FK798670", "coordinates": [-73.9528, 40.72545, 0], "smartPhoneRequired": false, "interior": "GOOD", "exterior": "GOOD", "address": "985 Lorimer St, Brooklyn, NY 11222, USA", "fuel": 60, "engineType": "CE"}, {"name": "GTS3765", "vin": "WMEEJ3BA5FK798004", "coordinates": [-73.96691, 40.58517, 0], "smartPhoneRequired": false, "interior": "GOOD", "exterior": "GOOD", "address": "49 Nixon Ct, Brooklyn, NY 11223, USA", "fuel": 33, "engineType": "CE"}, {"name": "GTP 9015", "vin": "WMEEJ3BA1FK798078", "coordinates": [-73.97944, 40.61933, 0], "smartPhoneRequired": false, "interior": "GOOD", "exterior": "GOOD", "address": "5710-5798 21st Ave, Brooklyn, NY 11204, USA", "fuel": 39, "engineType": "CE"}, {"name": "GTP 8982", "vin": "WMEEJ3BA0FK798279", "coordinates": [-73.96454, 40.71555, 0], "smartPhoneRequired": false, "interior": "GOOD", "exterior": "GOOD", "address": "273-285 Wythe Ave, Brooklyn, NY 11249, USA", "fuel": 39, "engineType": "CE"}, {"name": "GUM8162", "vin": "WMEEJ3BAXFK800359", "coordinates": [-73.93433, 40.77713, 0], "smartPhoneRequired": false, "interior": "GOOD", "exterior": "GOOD", "address": "25-1-25-99 2nd St, Astoria, NY 11102, USA", "fuel": 100, "engineType": "CE"}, {"name": "GTS3727", "vin": "WMEEJ3BA0FK798282", "coordinates": [-73.93207, 40.6759, 0], "smartPhoneRequired": false, "interior": "GOOD", "exterior": "GOOD", "address": "1686-1694 Dean St, Brooklyn, NY 11213, USA", "fuel": 48, "engineType": "CE"}, {"name": "GTR 8281", "vin": "WMEEJ3BAXFK797110", "coordinates": [-74.00906, 40.65685, 0], "smartPhoneRequired": false, "interior": "GOOD", "exterior": "GOOD", "address": "632-644 2nd Ave, Brooklyn, NY 11232, USA", "fuel": 57, "engineType": "CE"}, {"name": "GSW 7810", "vin": "WMEEJ3BA1FK797917", "coordinates": [-73.98204, 40.7023, 0], "smartPhoneRequired": false, "interior": "GOOD", "exterior": "GOOD", "address": "275 Front St, Brooklyn, NY 11201, USA", "fuel": 57, "engineType": "CE"}, {"name": "GTP 8897", "vin": "WMEEJ3BA8FK797347", "coordinates": [-73.95787, 40.63388, 0], "smartPhoneRequired": false, "interior": "GOOD", "exterior": "GOOD", "address": "1169 Ocean Ave, Brooklyn, NY 11230, USA", "fuel": 63, "engineType": "CE"}, {"name": "HAR 7930", "vin": "WMEEJ3BA2EK775083", "coordinates": [-74.00557, 40.67694, 0], "smartPhoneRequired": false, "interior": "GOOD", "exterior": "GOOD", "address": "19 W 9th St, Brooklyn, NY 11231, USA", "fuel": 100, "engineType": "CE"}, {"name": "GTP 8884", "vin": "WMEEJ3BA6FK797167", "coordinates": [-73.92868, 40.77392, 0], "smartPhoneRequired": false, "interior": "GOOD", "exterior": "GOOD", "address": "26-24 14th St, Long Island City, NY 11102, USA", "fuel": 87, "engineType": "CE"}, {"name": "GTP 8953", "vin": "WMEEJ3BA2FK798235", "coordinates": [-74.00557, 40.61457, 0], "smartPhoneRequired": false, "interior": "GOOD", "exterior": "GOOD", "address": "1507 80th St, Brooklyn, NY 11228, USA", "fuel": 100, "engineType": "CE"}, {"name": "GTR 8251", "vin": "WMEEJ3BA5FK797869", "coordinates": [-74.00523, 40.63629, 0], "smartPhoneRequired": false, "interior": "GOOD", "exterior": "GOOD", "address": "5606 9th Ave, Brooklyn, NY 11220, USA", "fuel": 100, "engineType": "CE"}, {"name": "GTP 8960", "vin": "WMEEJ3BA6FK796987", "coordinates": [-73.93354, 40.66801, 0], "smartPhoneRequired": false, "interior": "GOOD", "exterior": "GOOD", "address": "1693 Union St, Brooklyn, NY 11213, USA", "fuel": 60, "engineType": "CE"}, {"name": "GTP 9039", "vin": "WMEEJ3BA1FK797464", "coordinates": [-73.99392, 40.63429, 0], "smartPhoneRequired": false, "interior": "GOOD", "exterior": "GOOD", "address": "1258-1264 51st St, Brooklyn, NY 11219, USA", "fuel": 36, "engineType": "CE"}, {"name": "GSW 7775", "vin": "WMEEJ3BA4FK796194", "coordinates": [-73.95692, 40.66163, 0], "smartPhoneRequired": false, "interior": "GOOD", "exterior": "GOOD", "address": "1811 Bedford Ave, Brooklyn, NY 11225, USA", "fuel": 63, "engineType": "CE"}, {"name": "GUM  8126", "vin": "WMEEJ3BA2FK800730", "coordinates": [-73.93645, 40.70873, 0], "smartPhoneRequired": false, "interior": "GOOD", "exterior": "GOOD", "address": "289 Meserole St, Brooklyn, NY 11206, USA", "fuel": 100, "engineType": "CE"}, {"name": "HAR 7986", "vin": "WMEEJ3BA3EK763783", "coordinates": [-73.91779, 40.77961, 0], "smartPhoneRequired": false, "interior": "GOOD", "exterior": "GOOD", "address": "22-37-22-39 21st St, Astoria, NY 11105, USA", "fuel": 81, "engineType": "CE"}, {"name": "HAR 7951", "vin": "WMEEJ3BA6EK773336", "coordinates": [-73.95911, 40.69302, 0], "smartPhoneRequired": false, "interior": "GOOD", "exterior": "GOOD", "address": "918 Kent Ave, Brooklyn, NY 11205, USA", "fuel": 51, "engineType": "CE"}, {"name": "GTS3710", "vin": "WMEEJ3BA9FK798524", "coordinates": [-73.93622, 40.76721, 0], "smartPhoneRequired": false, "interior": "GOOD", "exterior": "GOOD", "address": "32-0-32-98 11th St, Astoria, NY 11106, USA", "fuel": 100, "engineType": "CE"}, {"name": "GSW 7849", "vin": "WMEEJ3BA9FK796238", "coordinates": [-73.90731, 40.68798, 0], "smartPhoneRequired": false, "interior": "GOOD", "exterior": "GOOD", "address": "633-639 Central Ave, Brooklyn, NY 11207, USA", "fuel": 42, "engineType": "CE"}, {"name": "GSW 7824", "vin": "WMEEJ3BA3FK795621", "coordinates": [-74.002, 40.64831, 0], "smartPhoneRequired": false, "interior": "GOOD", "exterior": "GOOD", "address": "629 41st St, Brooklyn, NY 11232, USA", "fuel": 100, "engineType": "CE"}, {"name": "GSW 7813", "vin": "WMEEJ3BA1FK796475", "coordinates": [-73.90826, 40.67903, 0], "smartPhoneRequired": false, "interior": "GOOD", "exterior": "GOOD", "address": "73 Mother Gaston Blvd, Brooklyn, NY 11233, USA", "fuel": 100, "engineType": "CE"}, {"name": "GTP 8985", "vin": "WMEEJ3BA9FK796448", "coordinates": [-73.95757, 40.72418, 0], "smartPhoneRequired": false, "interior": "GOOD", "exterior": "GOOD", "address": "118-166 N 14th St, Brooklyn, NY 11249, USA", "fuel": 57, "engineType": "CE"}, {"name": "GTR 8196", "vin": "WMEEJ3BA3FK797482", "coordinates": [-73.9386, 40.72214, 0], "smartPhoneRequired": false, "interior": "GOOD", "exterior": "GOOD", "address": "68 Lombardy St, Brooklyn, NY 11222, USA", "fuel": 54, "engineType": "CE"}, {"name": "GTP 8987", "vin": "WMEEJ3BA1FK797884", "coordinates": [-73.99759, 40.63327, 0], "smartPhoneRequired": false, "interior": "GOOD", "exterior": "GOOD", "address": "5414 12th Ave, Brooklyn, NY 11219, USA", "fuel": 57, "engineType": "CE"}, {"name": "GTR 8190", "vin": "WMEEJ3BA6FK798643", "coordinates": [-73.93118, 40.70672, 0], "smartPhoneRequired": false, "interior": "GOOD", "exterior": "GOOD", "address": "48 Knickerbocker Ave, Brooklyn, NY 11237, USA", "fuel": 54, "engineType": "CE"}, {"name": "GUM  8133", "vin": "WMEEJ3BA3FK800025", "coordinates": [-73.98098, 40.63466, 0], "smartPhoneRequired": false, "interior": "GOOD", "exterior": "GOOD", "address": "1610 42nd St, Brooklyn, NY 11204, USA", "fuel": 69, "engineType": "CE"}, {"name": "GTP 8889", "vin": "WMEEJ3BAXFK795955", "coordinates": [-73.96001, 40.69342, 0], "smartPhoneRequired": false, "interior": "GOOD", "exterior": "GOOD", "address": "165 Taaffe Pl, Brooklyn, NY 11205, USA", "fuel": 69, "engineType": "CE"}, {"name": "HAR 7904", "vin": "WMEEJ3BAXEK753283", "coordinates": [-74.03595, 40.62706, 0], "smartPhoneRequired": false, "interior": "GOOD", "exterior": "GOOD", "address": "95 83rd St, Brooklyn, NY 11209, USA", "fuel": 72, "engineType": "CE"}, {"name": "GUM  8161", "vin": "WMEEJ3BAXFK800085", "coordinates": [-73.97088, 40.628, 0], "smartPhoneRequired": false, "interior": "GOOD", "exterior": "GOOD", "address": "839 Ocean Pkwy, Brooklyn, NY 11230, USA", "fuel": 100, "engineType": "CE"}, {"name": "GTS3781", "vin": "WMEEJ3BA0FK799058", "coordinates": [-73.93452, 40.717, 0], "smartPhoneRequired": false, "interior": "GOOD", "exterior": "GOOD", "address": "333 Vandervoort Ave, Brooklyn, NY 11211, USA", "fuel": 54, "engineType": "CE"}, {"name": "HAR 7935", "vin": "WMEEJ3BA8EK769532", "coordinates": [-73.96822, 40.58497, 0], "smartPhoneRequired": false, "interior": "GOOD", "exterior": "GOOD", "address": "49 Nixon Ct, Brooklyn, NY 11223, USA", "fuel": 45, "engineType": "CE"}, {"name": "GTR 8244", "vin": "WMEEJ3BA6FK797413", "coordinates": [-73.96348, 40.71457, 0], "smartPhoneRequired": false, "interior": "GOOD", "exterior": "GOOD", "address": "63-107 S 1st St, Brooklyn, NY 11249, USA", "fuel": 57, "engineType": "CE"}, {"name": "HAR 7921", "vin": "WMEEJ3BA7EK768999", "coordinates": [-73.89828, 40.75229, 0], "smartPhoneRequired": false, "interior": "GOOD", "exterior": "GOOD", "address": "64-5 34th Ave, Woodside, NY 11377, USA", "fuel": 33, "engineType": "CE"}, {"name": "GUM  8173", "vin": "WMEEJ3BA7FK800920", "coordinates": [-74.01065, 40.63428, 0], "smartPhoneRequired": false, "interior": "GOOD", "exterior": "GOOD", "address": "806 62nd St, Brooklyn, NY 11220, USA", "fuel": 78, "engineType": "CE"}, {"name": "GTP 9044", "vin": "WMEEJ3BA4FK797541", "coordinates": [-73.94902, 40.68862, 0], "smartPhoneRequired": false, "interior": "GOOD", "exterior": "GOOD", "address": "534-550 Greene Ave, Brooklyn, NY 11216, USA", "fuel": 51, "engineType": "CE"}, {"name": "GTR 8211", "vin": "WMEEJ3BA9FK797809", "coordinates": [-73.97975, 40.60886, 0], "smartPhoneRequired": false, "interior": "GOOD", "exterior": "GOOD", "address": "1571 W 6th St, Brooklyn, NY 11204, USA", "fuel": 45, "engineType": "CE"}, {"name": "GTR 8225", "vin": "WMEEJ3BA8FK797137", "coordinates": [-73.99022, 40.66221, 0], "smartPhoneRequired": false, "interior": "GOOD", "exterior": "GOOD", "address": "279 18th St, Brooklyn, NY 11215, USA", "fuel": 75, "engineType": "CE"}, {"name": "HAR 7971", "vin": "WMEEJ3BAXEK766261", "coordinates": [-73.95662, 40.73001, 0], "smartPhoneRequired": false, "interior": "GOOD", "exterior": "GOOD", "address": "89 Greenpoint Ave, Brooklyn, NY 11222, USA", "fuel": 93, "engineType": "CE"}, {"name": "GTP 9001", "vin": "WMEEJ3BA2FK797344", "coordinates": [-73.94119, 40.74877, 0], "smartPhoneRequired": false, "interior": "GOOD", "exterior": "GOOD", "address": "42-57 27th St, Long Island City, NY 11101, USA", "fuel": 100, "engineType": "CE"}, {"name": "GTS3764", "vin": "WMEEJ3BA3FK798261", "coordinates": [-73.99017, 40.70171, 0], "smartPhoneRequired": false, "interior": "GOOD", "exterior": "GOOD", "address": "1-37 York St, Brooklyn, NY 11201, USA", "fuel": 45, "engineType": "CE"}, {"name": "GUM  8164", "vin": "WMEEJ3BA1FK800248", "coordinates": [-74.02739, 40.63873, 0], "smartPhoneRequired": false, "interior": "GOOD", "exterior": "GOOD", "address": "201-205 67th St, Brooklyn, NY 11220, USA", "fuel": 93, "engineType": "CE"}, {"name": "HAR 7926", "vin": "WMEEJ3BAXEK772304", "coordinates": [-73.98028, 40.64061, 0], "smartPhoneRequired": false, "interior": "GOOD", "exterior": "GOOD", "address": "1458 35th St, Brooklyn, NY 11218, USA", "fuel": 54, "engineType": "CE"}, {"name": "GTP 8876", "vin": "WMEEJ3BA4FK797149", "coordinates": [-73.95651, 40.67507, 0], "smartPhoneRequired": false, "interior": "GOOD", "exterior": "GOOD", "address": "612 Prospect Pl, Brooklyn, NY 11238, USA", "fuel": 100, "engineType": "CE"}, {"name": "GSW 7802", "vin": "WMEEJ3BA7FK796321", "coordinates": [-73.89142, 40.76769, 0], "smartPhoneRequired": false, "interior": "GOOD", "exterior": "GOOD", "address": "22-36 78th St, Flushing, NY 11370, USA", "fuel": 100, "engineType": "CE"}, {"name": "GUM  8168", "vin": "WMEEJ3BA6FK800553", "coordinates": [-73.98541, 40.61999, 0], "smartPhoneRequired": false, "interior": "GOOD", "exterior": "GOOD", "address": "1913 61st St, Brooklyn, NY 11204, USA", "fuel": 66, "engineType": "CE"}, {"name": "GSW 7782", "vin": "WMEEJ3BAXFK795163", "coordinates": [-73.96515, 40.71701, 0], "smartPhoneRequired": false, "interior": "GOOD", "exterior": "GOOD", "address": "39-51 N 1st St, Brooklyn, NY 11249, USA", "fuel": 51, "engineType": "CE"}, {"name": "GVK  7087", "vin": "WMEEJ3BA4FK800096", "coordinates": [-73.97664, 40.63962, 0], "smartPhoneRequired": false, "interior": "GOOD", "exterior": "GOOD", "address": "511 E 3rd St, Brooklyn, NY 11218, USA", "fuel": 100, "engineType": "CE"}, {"name": "GTR 8257", "vin": "WMEEJ3BA7FK797503", "coordinates": [-73.99578, 40.62802, 0], "smartPhoneRequired": false, "interior": "GOOD", "exterior": "GOOD", "address": "5901-5913 14th Ave, Brooklyn, NY 11219, USA", "fuel": 36, "engineType": "CE"}, {"name": "HAR 7962", "vin": "WMEEJ3BA7EK771563", "coordinates": [-73.99452, 40.63199, 0], "smartPhoneRequired": false, "interior": "GOOD", "exterior": "GOOD", "address": "1315 54th St, Brooklyn, NY 11219, USA", "fuel": 90, "engineType": "CE"}, {"name": "GTS3642", "vin": "WMEEJ3BA1FK798937", "coordinates": [-73.94068, 40.69487, 0], "smartPhoneRequired": false, "interior": "GOOD", "exterior": "GOOD", "address": "709 Willoughby Ave, Brooklyn, NY 11206, USA", "fuel": 100, "engineType": "CE"}, {"name": "HAR 7975", "vin": "WMEEJ3BA7EK767450", "coordinates": [-73.90998, 40.6911, 0], "smartPhoneRequired": false, "interior": "GOOD", "exterior": "GOOD", "address": "1189 Halsey St, Brooklyn, NY 11207, USA", "fuel": 100, "engineType": "CE"}, {"name": "GSW 7743", "vin": "WMEEJ3BA0FK796984", "coordinates": [-73.90752, 40.77736, 0], "smartPhoneRequired": false, "interior": "GOOD", "exterior": "GOOD", "address": "32-5-32-99 21st Ave, Astoria, NY 11105, USA", "fuel": 63, "engineType": "CE"}, {"name": "HAR 7978", "vin": "WMEEJ3BA6EK767052", "coordinates": [-73.99508, 40.69675, 0], "smartPhoneRequired": false, "interior": "GOOD", "exterior": "GOOD", "address": "161 Hicks St, Brooklyn, NY 11201, USA", "fuel": 60, "engineType": "CE"}, {"name": "GVK  7001", "vin": "WMEEJ3BA6FK800701", "coordinates": [-73.91874, 40.73509, 0], "smartPhoneRequired": false, "interior": "GOOD", "exterior": "GOOD", "address": "47-6-47-98 Laurel Hill Blvd, Woodside, NY 11377, USA", "fuel": 63, "engineType": "CE"}, {"name": "GTR 8284", "vin": "WMEEJ3BA9FK797065", "coordinates": [-73.94657, 40.70776, 0], "smartPhoneRequired": false, "interior": "GOOD", "exterior": "GOOD", "address": "86 Meserole St, Brooklyn, NY 11206, USA", "fuel": 100, "engineType": "CE"}, {"name": "GSW 7727", "vin": "WMEEJ3BA0FK796161", "coordinates": [-73.90898, 40.69596, 0], "smartPhoneRequired": false, "interior": "GOOD", "exterior": "GOOD", "address": "447 Irving Ave, Brooklyn, NY 11237, USA", "fuel": 100, "engineType": "CE"}, {"name": "GTR 8204", "vin": "WMEEJ3BA9FK797101", "coordinates": [-74.0382, 40.61636, 0], "smartPhoneRequired": false, "interior": "GOOD", "exterior": "GOOD", "address": "9501-9511 Shore Rd, Brooklyn, NY 11209, USA", "fuel": 93, "engineType": "CE"}, {"name": "GUM  8171", "vin": "WMEEJ3BA4FK800163", "coordinates": [-73.95561, 40.72176, 0], "smartPhoneRequired": false, "interior": "GOOD", "exterior": "GOOD", "address": "20 Berry St, Brooklyn, NY 11249, USA", "fuel": 45, "engineType": "CE"}, {"name": "GTS3645", "vin": "WMEEJ3BA0FK798914", "coordinates": [-73.98143, 40.62859, 0], "smartPhoneRequired": false, "interior": "GOOD", "exterior": "GOOD", "address": "1763 49th St, Brooklyn, NY 11204, USA", "fuel": 100, "engineType": "CE"}, {"name": "GTP 9014", "vin": "WMEEJ3BA1FK797318", "coordinates": [-73.91668, 40.77936, 0], "smartPhoneRequired": false, "interior": "GOOD", "exterior": "GOOD", "address": "21-20-21-98 22nd Rd, Astoria, NY 11105, USA", "fuel": 100, "engineType": "CE"}, {"name": "GUM  8124", "vin": "WMEEJ3BA7FK799980", "coordinates": [-73.96931, 40.69533, 0], "smartPhoneRequired": false, "interior": "GOOD", "exterior": "GOOD", "address": "78 Clinton Ave, Brooklyn, NY 11205, USA", "fuel": 57, "engineType": "CE"}, {"name": "GTP 9010", "vin": "WMEEJ3BA0FK797598", "coordinates": [-73.98983, 40.58594, 0], "smartPhoneRequired": false, "interior": "GOOD", "exterior": "GOOD", "address": "2056 Shore Pkwy, Brooklyn, NY 11214, USA", "fuel": 96, "engineType": "CE"}, {"name": "HAR 7918", "vin": "WMEEJ3BA9EK753940", "coordinates": [-73.96379, 40.687, 0], "smartPhoneRequired": false, "interior": "GOOD", "exterior": "GOOD", "address": "199 Greene Ave, Brooklyn, NY 11238, USA", "fuel": 57, "engineType": "CE"}, {"name": "GTS3760", "vin": "WMEEJ3BA6FK798495", "coordinates": [-73.90784, 40.74039, 0], "smartPhoneRequired": false, "interior": "GOOD", "exterior": "GOOD", "address": "47-11 58th St, Flushing, NY 11377, USA", "fuel": 93, "engineType": "CE"}, {"name": "GTR 8201", "vin": "WMEEJ3BA3FK797692", "coordinates": [-73.96655, 40.7076, 0], "smartPhoneRequired": false, "interior": "GOOD", "exterior": "GOOD", "address": "65-75 S 11th St, Brooklyn, NY 11249, USA", "fuel": 100, "engineType": "CE"}, {"name": "GTP 8913", "vin": "WMEEJ3BA2FK797649", "coordinates": [-73.96392, 40.62379, 0], "smartPhoneRequired": false, "interior": "GOOD", "exterior": "GOOD", "address": "1045 E 12th St, Brooklyn, NY 11230, USA", "fuel": 78, "engineType": "CE"}, {"name": "HAR 7945", "vin": "WMEEJ3BA6EK766001", "coordinates": [-73.91562, 40.78307, 0], "smartPhoneRequired": false, "interior": "GOOD", "exterior": "GOOD", "address": "19-5-19-9 21st Ave, Astoria, NY 11105, USA", "fuel": 100, "engineType": "CE"}, {"name": "HAR 7959", "vin": "WMEEJ3BAXEK762114", "coordinates": [-73.99789, 40.67628, 0], "smartPhoneRequired": false, "interior": "GOOD", "exterior": "GOOD", "address": "195 Nelson St, Brooklyn, NY 11231, USA", "fuel": 96, "engineType": "CE"}, {"name": "HAR 7966", "vin": "WMEEJ3BA4EK767566", "coordinates": [-73.9479, 40.75577, 0], "smartPhoneRequired": false, "interior": "GOOD", "exterior": "GOOD", "address": "41-16 Vernon Blvd, Long Island City, NY 11101, USA", "fuel": 100, "engineType": "CE"}, {"name": "GSW 7838", "vin": "WMEEJ3BA5FK796981", "coordinates": [-73.9694, 40.57548, 0], "smartPhoneRequired": false, "interior": "GOOD", "exterior": "GOOD", "address": "101-125 Sea Breeze Ave, Brooklyn, NY 11224, USA", "fuel": 81, "engineType": "CE"}, {"name": "HAR 7912", "vin": "WMEEJ3BA7EK770798", "coordinates": [-74.02469, 40.61587, 0], "smartPhoneRequired": false, "interior": "GOOD", "exterior": "GOOD", "address": "148 Battery Ave, Brooklyn, NY 11209, USA", "fuel": 72, "engineType": "CE"}, {"name": "GTR 8200", "vin": "WMEEJ3BA3FK797532", "coordinates": [-73.90692, 40.75433, 0], "smartPhoneRequired": false, "interior": "GOOD", "exterior": "GOOD", "address": "32-36 54th St, Flushing, NY 11377, USA", "fuel": 45, "engineType": "CE"}, {"name": "GTP 8879", "vin": "WMEEJ3BA8FK797140", "coordinates": [-73.96522, 40.71439, 0], "smartPhoneRequired": false, "interior": "GOOD", "exterior": "GOOD", "address": "67 S 2nd St, Brooklyn, NY 11249, USA", "fuel": 69, "engineType": "CE"}, {"name": "GUM  8129", "vin": "WMEEJ3BA4FK800695", "coordinates": [-73.96122, 40.70515, 0], "smartPhoneRequired": false, "interior": "GOOD", "exterior": "GOOD", "address": "140 Ross St, Brooklyn, NY 11211, USA", "fuel": 100, "engineType": "CE"}, {"name": "GTR 8219", "vin": "WMEEJ3BAXFK798287", "coordinates": [-73.96849, 40.64763, 0], "smartPhoneRequired": false, "interior": "GOOD", "exterior": "GOOD", "address": "66 Westminster Rd, Brooklyn, NY 11218, USA", "fuel": 75, "engineType": "CE"}, {"name": "HAR 7967", "vin": "WMEEJ3BA3EK768479", "coordinates": [-73.98141, 40.63864, 0], "smartPhoneRequired": false, "interior": "GOOD", "exterior": "GOOD", "address": "1481 38th St, Brooklyn, NY 11218, USA", "fuel": 54, "engineType": "CE"}, {"name": "GSW 7791", "vin": "WMEEJ3BA0FK795950", "coordinates": [-73.94216, 40.76093, 0], "smartPhoneRequired": false, "interior": "GOOD", "exterior": "GOOD", "address": "36-24 9th St, Astoria, NY 11106, USA", "fuel": 100, "engineType": "CE"}, {"name": "GTR 8207", "vin": "WMEEJ3BA3FK797143", "coordinates": [-73.92875, 40.66768, 0], "smartPhoneRequired": false, "interior": "GOOD", "exterior": "GOOD", "address": "1776-1786 Union St, Brooklyn, NY 11213, USA", "fuel": 39, "engineType": "CE"}, {"name": "GTR 8210", "vin": "WMEEJ3BA9FK797356", "coordinates": [-73.98407, 40.66031, 0], "smartPhoneRequired": false, "interior": "GOOD", "exterior": "GOOD", "address": "425 Prospect Ave, Brooklyn, NY 11215, USA", "fuel": 57, "engineType": "CE"}, {"name": "GUM  8134", "vin": "WMEEJ3BA2FK800047", "coordinates": [-73.93873, 40.67691, 0], "smartPhoneRequired": false, "interior": "GOOD", "exterior": "GOOD", "address": "110 Albany Ave, Brooklyn, NY 11213, USA", "fuel": 100, "engineType": "CE"}, {"name": "GTR 8197", "vin": "WMEEJ3BA3FK797658", "coordinates": [-73.93532, 40.76732, 0], "smartPhoneRequired": false, "interior": "GOOD", "exterior": "GOOD", "address": "11-15 Broadway, Astoria, NY 11106, USA", "fuel": 100, "engineType": "CE"}, {"name": "GVK  7089", "vin": "WMEEJ3BA6FK800424", "coordinates": [-73.93798, 40.704, 0], "smartPhoneRequired": false, "interior": "GOOD", "exterior": "GOOD", "address": "168 Moore St, Brooklyn, NY 11206, USA", "fuel": 51, "engineType": "CE"}, {"name": "HAR 7917", "vin": "WMEEJ3BA4EK766742", "coordinates": [-73.99032, 40.60896, 0], "smartPhoneRequired": false, "interior": "GOOD", "exterior": "GOOD", "address": "2072-2098 76th St, Brooklyn, NY 11214, USA", "fuel": 63, "engineType": "CE"}, {"name": "HAR 7969", "vin": "WMEEJ3BA0EK764695", "coordinates": [-74.01573, 40.64019, 0], "smartPhoneRequired": false, "interior": "GOOD", "exterior": "GOOD", "address": "475 59th St, Brooklyn, NY 11220, USA", "fuel": 100, "engineType": "CE"}, {"name": "HAR 7958", "vin": "WMEEJ3BAXEK764865", "coordinates": [-73.95913, 40.69347, 0], "smartPhoneRequired": false, "interior": "GOOD", "exterior": "GOOD", "address": "877-913 Kent Ave, Brooklyn, NY 11205, USA", "fuel": 100, "engineType": "CE"}, {"name": "GTS3744", "vin": "WMEEJ3BA8FK798370", "coordinates": [-73.96408, 40.71408, 0], "smartPhoneRequired": false, "interior": "GOOD", "exterior": "GOOD", "address": "288 Berry St, Brooklyn, NY 11249, USA", "fuel": 100, "engineType": "CE"}, {"name": "GTS3747", "vin": "WMEEJ3BAXFK798533", "coordinates": [-73.92923, 40.7748, 0], "smartPhoneRequired": false, "interior": "GOOD", "exterior": "GOOD", "address": "26-1-26-7 12th St, Astoria, NY 11102, USA", "fuel": 60, "engineType": "CE"}, {"name": "GTP 8988", "vin": "WMEEJ3BA4FK797068", "coordinates": [-73.93218, 40.72728, 0], "smartPhoneRequired": false, "interior": "GOOD", "exterior": "GOOD", "address": "562-570 Gardner Ave, Brooklyn, NY 11222, USA", "fuel": 100, "engineType": "CE"}, {"name": "GTP 8949", "vin": "WMEEJ3BA5FK797838", "coordinates": [-73.95639, 40.72071, 0], "smartPhoneRequired": false, "interior": "GOOD", "exterior": "GOOD", "address": "119 N 11th St, Brooklyn, NY 11249, USA", "fuel": 33, "engineType": "CE"}, {"name": "GSW 7729", "vin": "WMEEJ3BA1FK794435", "coordinates": [-73.97205, 40.64016, 0], "smartPhoneRequired": false, "interior": "GOOD", "exterior": "GOOD", "address": "465-495 E 7th St, Brooklyn, NY 11218, USA", "fuel": 33, "engineType": "CE"}, {"name": "GTR 8188", "vin": "WMEEJ3BA5FK797113", "coordinates": [-73.99049, 40.63408, 0], "smartPhoneRequired": false, "interior": "GOOD", "exterior": "GOOD", "address": "1359 49th St, Brooklyn, NY 11219, USA", "fuel": 100, "engineType": "CE"}, {"name": "GTR 8271", "vin": "WMEEJ3BA8FK797428", "coordinates": [-73.92621, 40.71356, 0], "smartPhoneRequired": false, "interior": "GOOD", "exterior": "GOOD", "address": "189-207 Gardner Ave, Brooklyn, NY 11237, USA", "fuel": 33, "engineType": "CE"}, {"name": "GTR 8285", "vin": "WMEEJ3BA9FK797440", "coordinates": [-73.9765, 40.63379, 0], "smartPhoneRequired": false, "interior": "GOOD", "exterior": "GOOD", "address": "707 E 2nd St, Brooklyn, NY 11218, USA", "fuel": 100, "engineType": "CE"}, {"name": "GSW 7850", "vin": "WMEEJ3BA9FK796255", "coordinates": [-74.02589, 40.6233, 0], "smartPhoneRequired": false, "interior": "GOOD", "exterior": "GOOD", "address": "8320 5th Ave, Brooklyn, NY 11209, USA", "fuel": 57, "engineType": "CE"}, {"name": "GTS3693", "vin": "WMEEJ3BA6FK799002", "coordinates": [-74.01197, 40.67866, 0], "smartPhoneRequired": false, "interior": "GOOD", "exterior": "GOOD", "address": "142 King St, Brooklyn, NY 11231, USA", "fuel": 100, "engineType": "CE"}, {"name": "GTP 9035", "vin": "WMEEJ3BA0FK797309", "coordinates": [-73.94233, 40.68566, 0], "smartPhoneRequired": false, "interior": "GOOD", "exterior": "GOOD", "address": "398-400 Madison St, Brooklyn, NY 11221, USA", "fuel": 84, "engineType": "CE"}, {"name": "GTR 8248", "vin": "WMEEJ3BA5FK797497", "coordinates": [-73.91801, 40.77272, 0], "smartPhoneRequired": false, "interior": "GOOD", "exterior": "GOOD", "address": "24-34 28th St, Long Island City, NY 11102, USA", "fuel": 96, "engineType": "CE"}, {"name": "GTR 8242", "vin": "WMEEJ3BA5FK796687", "coordinates": [-74.00862, 40.65712, 0], "smartPhoneRequired": false, "interior": "GOOD", "exterior": "GOOD", "address": "607-619 2nd Ave, Brooklyn, NY 11232, USA", "fuel": 100, "engineType": "CE"}, {"name": "GTS3770", "vin": "WMEEJ3BA8FK798983", "coordinates": [-73.92467, 40.73808, 0], "smartPhoneRequired": false, "interior": "GOOD", "exterior": "GOOD", "address": "40-15-40-17 50th Ave, Sunnyside, NY 11104, USA", "fuel": 96, "engineType": "CE"}, {"name": "GTP 9016", "vin": "WMEEJ3BA1FK798257", "coordinates": [-73.90013, 40.76783, 0], "smartPhoneRequired": false, "interior": "GOOD", "exterior": "GOOD", "address": "22-13-22-15 Hazen St, East Elmhurst, NY 11370, USA", "fuel": 100, "engineType": "CE"}, {"name": "GTP 8939", "vin": "WMEEJ3BA6FK795886", "coordinates": [-73.94589, 40.69504, 0], "smartPhoneRequired": false, "interior": "GOOD", "exterior": "GOOD", "address": "155 Vernon Ave, Brooklyn, NY 11206, USA", "fuel": 100, "engineType": "CE"}, {"name": "GTR 8246", "vin": "WMEEJ3BA6FK797959", "coordinates": [-73.9827, 40.64033, 0], "smartPhoneRequired": false, "interior": "GOOD", "exterior": "GOOD", "address": "1401-1425 37th St, Brooklyn, NY 11218, USA", "fuel": 39, "engineType": "CE"}, {"name": "GTR 8192", "vin": "WMEEJ3BA7FK797050", "coordinates": [-73.9532, 40.73761, 0], "smartPhoneRequired": false, "interior": "GOOD", "exterior": "GOOD", "address": "404 McGuinness Blvd, Brooklyn, NY 11222, USA", "fuel": 100, "engineType": "CE"}, {"name": "HAR 7963", "vin": "WMEEJ3BA8EK764170", "coordinates": [-73.97418, 40.65797, 0], "smartPhoneRequired": false, "interior": "GOOD", "exterior": "GOOD", "address": "97 Prospect Park Southwest, Brooklyn, NY 11218, USA", "fuel": 57, "engineType": "CE"}, {"name": "GTS3762", "vin": "WMEEJ3BA5FK798455", "coordinates": [-73.96597, 40.6445, 0], "smartPhoneRequired": false, "interior": "GOOD", "exterior": "GOOD", "address": "209 Rugby Rd, Brooklyn, NY 11226, USA", "fuel": 39, "engineType": "CE"}, {"name": "GTR 8181", "vin": "WMEEJ3BA5FK797953", "coordinates": [-73.99714, 40.63627, 0], "smartPhoneRequired": false, "interior": "GOOD", "exterior": "GOOD", "address": "1117 51st St, Brooklyn, NY 11219, USA", "fuel": 69, "engineType": "CE"}, {"name": "GSW 7764", "vin": "WMEEJ3BA7FK796299", "coordinates": [-73.93816, 40.68164, 0], "smartPhoneRequired": false, "interior": "GOOD", "exterior": "GOOD", "address": "212-214 MacDonough St, Brooklyn, NY 11216, USA", "fuel": 100, "engineType": "CE"}, {"name": "GTS3705", "vin": "WMEEJ3BA7FK798974", "coordinates": [-74.01135, 40.67874, 0], "smartPhoneRequired": false, "interior": "GOOD", "exterior": "GOOD", "address": "326 Van Brunt St, Brooklyn, NY 11231, USA", "fuel": 100, "engineType": "CE"}, {"name": "GTR 8272", "vin": "WMEEJ3BA8FK797509", "coordinates": [-73.94296, 40.71901, 0], "smartPhoneRequired": false, "interior": "GOOD", "exterior": "GOOD", "address": "201-203 Richardson St, Brooklyn, NY 11222, USA", "fuel": 100, "engineType": "CE"}, {"name": "GSW 7749", "vin": "WMEEJ3BA2FK796954", "coordinates": [-73.99453, 40.66804, 0], "smartPhoneRequired": false, "interior": "GOOD", "exterior": "GOOD", "address": "70A 15th St, Brooklyn, NY 11215, USA", "fuel": 78, "engineType": "CE"}, {"name": "GTR 8199", "vin": "WMEEJ3BA3FK797059", "coordinates": [-73.90287, 40.7431, 0], "smartPhoneRequired": false, "interior": "GOOD", "exterior": "GOOD", "address": "40-50 62nd St, Flushing, NY 11377, USA", "fuel": 100, "engineType": "CE"}, {"name": "GSW 7748", "vin": "WMEEJ3BA0FK797116", "coordinates": [-74.00899, 40.65713, 0], "smartPhoneRequired": false, "interior": "GOOD", "exterior": "GOOD", "address": "607-619 2nd Ave, Brooklyn, NY 11232, USA", "fuel": 51, "engineType": "CE"}, {"name": "GSW 7820", "vin": "WMEEJ3BAXFK797107", "coordinates": [-74.02088, 40.62476, 0], "smartPhoneRequired": false, "interior": "GOOD", "exterior": "GOOD", "address": "601 79th St, Brooklyn, NY 11209, USA", "fuel": 100, "engineType": "CE"}, {"name": "GTS3648", "vin": "WMEEJ3BA1FK798341", "coordinates": [-73.91334, 40.77226, 0], "smartPhoneRequired": false, "interior": "GOOD", "exterior": "GOOD", "address": "23-57-23-61 33rd St, Astoria, NY 11105, USA", "fuel": 100, "engineType": "CE"}, {"name": "GTR 8180", "vin": "WMEEJ3BA1FK797125", "coordinates": [-73.91266, 40.78024, 0], "smartPhoneRequired": false, "interior": "GOOD", "exterior": "GOOD", "address": "21-14 Crescent St, Long Island City, NY 11105, USA", "fuel": 90, "engineType": "CE"}, {"name": "GTS3773", "vin": "WMEEJ3BA0FK798461", "coordinates": [-73.98643, 40.64332, 0], "smartPhoneRequired": false, "interior": "GOOD", "exterior": "GOOD", "address": "1206 36th St, Brooklyn, NY 11218, USA", "fuel": 27, "engineType": "CE"}, {"name": "GSW 7853", "vin": "WMEEJ3BA3FK796221", "coordinates": [-73.95049, 40.68844, 0], "smartPhoneRequired": false, "interior": "GOOD", "exterior": "GOOD", "address": "506 Greene Ave, Brooklyn, NY 11216, USA", "fuel": 51, "engineType": "CE"}, {"name": "GUM7996", "vin": "WMEEJ3BA1FK798601", "coordinates": [-73.93963, 40.70779, 0], "smartPhoneRequired": false, "interior": "GOOD", "exterior": "GOOD", "address": "234 Meserole St, Brooklyn, NY 11206, USA", "fuel": 51, "engineType": "CE"}, {"name": "GTS3667", "vin": "WMEEJ3BA2FK798882", "coordinates": [-73.8927, 40.76943, 0], "smartPhoneRequired": false, "interior": "GOOD", "exterior": "GOOD", "address": "21-30 77th St, East Elmhurst, NY 11370, USA", "fuel": 100, "engineType": "CE"}, {"name": "GTR 8290", "vin": "WMEEJ3BAXFK797768", "coordinates": [-73.98217, 40.6382, 0], "smartPhoneRequired": false, "interior": "GOOD", "exterior": "GOOD", "address": "1483 39th St, Brooklyn, NY 11218, USA", "fuel": 63, "engineType": "CE"}, {"name": "HAR 7977", "vin": "WMEEJ3BA5EK768595", "coordinates": [-73.97355, 40.63851, 0], "smartPhoneRequired": false, "interior": "GOOD", "exterior": "GOOD", "address": "513 Cortelyou Rd, Brooklyn, NY 11218, USA", "fuel": 78, "engineType": "CE"}, {"name": "GTP 8893", "vin": "WMEEJ3BA2FK795058", "coordinates": [-74.00049, 40.63392, 0], "smartPhoneRequired": false, "interior": "GOOD", "exterior": "GOOD", "address": "5518 11th Ave, Brooklyn, NY 11219, USA", "fuel": 30, "engineType": "CE"}, {"name": "GTR 8247", "vin": "WMEEJ3BA7FK797128", "coordinates": [-73.96434, 40.62574, 0], "smartPhoneRequired": false, "interior": "GOOD", "exterior": "GOOD", "address": "960 E 12th St, Brooklyn, NY 11230, USA", "fuel": 96, "engineType": "CE"}, {"name": "HAR 7901", "vin": "WMEEJ3BA0EK771226", "coordinates": [-73.94747, 40.66518, 0], "smartPhoneRequired": false, "interior": "GOOD", "exterior": "GOOD", "address": "518 Montgomery St, Brooklyn, NY 11225, USA", "fuel": 100, "engineType": "CE"}, {"name": "GTR 8186", "vin": "WMEEJ3BA4FK797572", "coordinates": [-73.94501, 40.68864, 0], "smartPhoneRequired": false, "interior": "GOOD", "exterior": "GOOD", "address": "270 Tompkins Ave, Brooklyn, NY 11216, USA", "fuel": 87, "engineType": "CE"}, {"name": "GTS3736", "vin": "WMEEJ3BA2FK798946", "coordinates": [-74.00897, 40.65715, 0], "smartPhoneRequired": false, "interior": "GOOD", "exterior": "GOOD", "address": "607-619 2nd Ave, Brooklyn, NY 11232, USA", "fuel": 48, "engineType": "CE"}, {"name": "GSW 7759", "vin": "WMEEJ3BA5FK796317", "coordinates": [-73.92249, 40.66715, 0], "smartPhoneRequired": false, "interior": "GOOD", "exterior": "GOOD", "address": "1206 E New York Ave, Brooklyn, NY 11212, USA", "fuel": 66, "engineType": "CE"}, {"name": "GSW 7817", "vin": "WMEEJ3BA9FK798054", "coordinates": [-74.02434, 40.611, 0], "smartPhoneRequired": false, "interior": "GOOD", "exterior": "GOOD", "address": "9390-9478 7th Ave, Brooklyn, NY 11228, USA", "fuel": 75, "engineType": "CE"}, {"name": "GSW 7803", "vin": "WMEEJ3BA1FK796430", "coordinates": [-73.92793, 40.69029, 0], "smartPhoneRequired": false, "interior": "GOOD", "exterior": "GOOD", "address": "778-790 Lexington Ave, Brooklyn, NY 11221, USA", "fuel": 48, "engineType": "CE"}, {"name": "GTP 8952", "vin": "WMEEJ3BA3FK797076", "coordinates": [-73.99473, 40.66029, 0], "smartPhoneRequired": false, "interior": "GOOD", "exterior": "GOOD", "address": "222-234 23rd St, Brooklyn, NY 11232, USA", "fuel": 48, "engineType": "CE"}, {"name": "GUM  8117", "vin": "WMEEJ3BA5FK800141", "coordinates": [-73.97062, 40.5974, 0], "smartPhoneRequired": false, "interior": "GOOD", "exterior": "GOOD", "address": "2090 E 1st St, Brooklyn, NY 11223, USA", "fuel": 45, "engineType": "CE"}, {"name": "GTS3768", "vin": "WMEEJ3BA7FK798408", "coordinates": [-73.93232, 40.77604, 0], "smartPhoneRequired": false, "interior": "GOOD", "exterior": "GOOD", "address": "6 26th Ave, Astoria, NY 11102, USA", "fuel": 60, "engineType": "CE"}, {"name": "HAR 7987", "vin": "WMEEJ3BA3EK764500", "coordinates": [-74.02268, 40.61667, 0], "smartPhoneRequired": false, "interior": "GOOD", "exterior": "GOOD", "address": "66 Parrott Pl, Brooklyn, NY 11228, USA", "fuel": 100, "engineType": "CE"}, {"name": "HAR 7968", "vin": "WMEEJ3BA4EK766286", "coordinates": [-74.02206, 40.64769, 0], "smartPhoneRequired": false, "interior": "GOOD", "exterior": "GOOD", "address": "5400-5498 1st Ave, Brooklyn, NY 11220, USA", "fuel": 100, "engineType": "CE"}, {"name": "GUM  8174", "vin": "WMEEJ3BA4FK800874", "coordinates": [-74.00508, 40.67901, 0], "smartPhoneRequired": false, "interior": "GOOD", "exterior": "GOOD", "address": "5 Luquer St, Brooklyn, NY 11231, USA", "fuel": 100, "engineType": "CE"}, {"name": "GTR 8212", "vin": "WMEEJ3BA9FK798250", "coordinates": [-73.96339, 40.71419, 0], "smartPhoneRequired": false, "interior": "GOOD", "exterior": "GOOD", "address": "270 Berry St, Brooklyn, NY 11249, USA", "fuel": 100, "engineType": "CE"}, {"name": "GTR 8273", "vin": "WMEEJ3BA8FK797574", "coordinates": [-73.9672, 40.6846, 0], "smartPhoneRequired": false, "interior": "GOOD", "exterior": "GOOD", "address": "460 Clinton Ave, Brooklyn, NY 11238, USA", "fuel": 100, "engineType": "CE"}, {"name": "GTS3694", "vin": "WMEEJ3BA7FK798473", "coordinates": [-73.93858, 40.68308, 0], "smartPhoneRequired": false, "interior": "GOOD", "exterior": "GOOD", "address": "392 Halsey St, Brooklyn, NY 11216, USA", "fuel": 75, "engineType": "CE"}, {"name": "GTR 8294", "vin": "WMEEJ3BA8FK796960", "coordinates": [-73.97223, 40.69001, 0], "smartPhoneRequired": false, "interior": "GOOD", "exterior": "GOOD", "address": "258 Carlton Ave, Brooklyn, NY 11205, USA", "fuel": 96, "engineType": "CE"}, {"name": "HAR 7902", "vin": "WMEEJ3BA9EK756353", "coordinates": [-73.95863, 40.71657, 0], "smartPhoneRequired": false, "interior": "GOOD", "exterior": "GOOD", "address": "141-153 N 5th St, Brooklyn, NY 11211, USA", "fuel": 84, "engineType": "CE"}, {"name": "GTP 8940", "vin": "WMEEJ3BAXFK795308", "coordinates": [-73.9632, 40.71909, 0], "smartPhoneRequired": false, "interior": "GOOD", "exterior": "GOOD", "address": "164 Kent Ave, Brooklyn, NY 11249, USA", "fuel": 48, "engineType": "CE"}, {"name": "GTP 9034", "vin": "WMEEJ3BA0FK797035", "coordinates": [-73.93786, 40.7257, 0], "smartPhoneRequired": false, "interior": "GOOD", "exterior": "GOOD", "address": "42-62 Apollo St, Brooklyn, NY 11222, USA", "fuel": 100, "engineType": "CE"}, {"name": "GSW 7855", "vin": "WMEEJ3BA5FK796060", "coordinates": [-73.99653, 40.66235, 0], "smartPhoneRequired": false, "interior": "GOOD", "exterior": "GOOD", "address": "171 22nd St, Brooklyn, NY 11232, USA", "fuel": 100, "engineType": "CE"}, {"name": "GTR 8209", "vin": "WMEEJ3BA8FK798627", "coordinates": [-73.98431, 40.63765, 0], "smartPhoneRequired": false, "interior": "GOOD", "exterior": "GOOD", "address": "1437 41st St, Brooklyn, NY 11218, USA", "fuel": 57, "engineType": "CE"}, {"name": "GTS3733", "vin": "WMEEJ3BA2FK798297", "coordinates": [-73.95993, 40.633, 0], "smartPhoneRequired": false, "interior": "GOOD", "exterior": "GOOD", "address": "729 E 18th St, Brooklyn, NY 11230, USA", "fuel": 100, "engineType": "CE"}, {"name": "GUM  8130", "vin": "WMEEJ3BA4FK800941", "coordinates": [-73.98243, 40.66052, 0], "smartPhoneRequired": false, "interior": "GOOD", "exterior": "GOOD", "address": "84 Windsor Pl, Brooklyn, NY 11215, USA", "fuel": 100, "engineType": "CE"}, {"name": "GTS3766", "vin": "WMEEJ3BA6FK798559", "coordinates": [-73.95772, 40.71971, 0], "smartPhoneRequired": false, "interior": "GOOD", "exterior": "GOOD", "address": "123-133 N 9th St, Brooklyn, NY 11249, USA", "fuel": 81, "engineType": "CE"}, {"name": "GTR 8195", "vin": "WMEEJ3BA3FK797479", "coordinates": [-73.96074, 40.64139, 0], "smartPhoneRequired": false, "interior": "GOOD", "exterior": "GOOD", "address": "1901 Dorchester Rd, Brooklyn, NY 11226, USA", "fuel": 54, "engineType": "CE"}, {"name": "GTP 9009", "vin": "WMEEJ3BA0FK797553", "coordinates": [-73.94252, 40.72513, 0], "smartPhoneRequired": false, "interior": "GOOD", "exterior": "GOOD", "address": "170 Monitor St, Brooklyn, NY 11222, USA", "fuel": 39, "engineType": "CE"}, {"name": "GTS3689", "vin": "WMEEJ3BA1FK798467", "coordinates": [-74.01296, 40.60925, 0], "smartPhoneRequired": false, "interior": "GOOD", "exterior": "GOOD", "address": "129-131 Bay 8th St, Brooklyn, NY 11228, USA", "fuel": 69, "engineType": "CE"}, {"name": "GZT 7900", "vin": "WMEEJ3BA5FK798374", "coordinates": [-73.93038, 40.68992, 0], "smartPhoneRequired": false, "interior": "GOOD", "exterior": "GOOD", "address": "105 Malcolm X Blvd, Brooklyn, NY 11221, USA", "fuel": 100, "engineType": "CE"}, {"name": "GTP 8999", "vin": "WMEEJ3BA1FK798243", "coordinates": [-73.96344, 40.69543, 0], "smartPhoneRequired": false, "interior": "GOOD", "exterior": "GOOD", "address": "67 Steuben St, Brooklyn, NY 11205, USA", "fuel": 63, "engineType": "CE"}, {"name": "GTR 8187", "vin": "WMEEJ3BA5FK797032", "coordinates": [-73.98226, 40.63916, 0], "smartPhoneRequired": false, "interior": "GOOD", "exterior": "GOOD", "address": "1449 38th St, Brooklyn, NY 11218, USA", "fuel": 100, "engineType": "CE"}, {"name": "GSW 7869", "vin": "WMEEJ3BA4FK796406", "coordinates": [-73.95576, 40.66834, 0], "smartPhoneRequired": false, "interior": "GOOD", "exterior": "GOOD", "address": "1066 President St, Brooklyn, NY 11225, USA", "fuel": 45, "engineType": "CE"}, {"name": "GTP 8887", "vin": "WMEEJ3BA8FK796215", "coordinates": [-73.97848, 40.61942, 0], "smartPhoneRequired": false, "interior": "GOOD", "exterior": "GOOD", "address": "2116 57th St, Brooklyn, NY 11204, USA", "fuel": 100, "engineType": "CE"}, {"name": "GUM  8125", "vin": "WMEEJ3BA1FK798811", "coordinates": [-73.91824, 40.69454, 0], "smartPhoneRequired": false, "interior": "GOOD", "exterior": "GOOD", "address": "150 Linden St, Brooklyn, NY 11221, USA", "fuel": 54, "engineType": "CE"}, {"name": "GTS3776", "vin": "WMEEJ3BA3FK798311", "coordinates": [-73.97944, 40.70112, 0], "smartPhoneRequired": false, "interior": "GOOD", "exterior": "GOOD", "address": "Morris Avenue,, 11251", "fuel": 51, "engineType": "CE"}, {"name": "GSW 7843", "vin": "WMEEJ3BA6FK796200", "coordinates": [-73.98979, 40.59552, 0], "smartPhoneRequired": false, "interior": "GOOD", "exterior": "GOOD", "address": "8700-8734 25th Ave, Brooklyn, NY 11214, USA", "fuel": 54, "engineType": "CE"}, {"name": "GVK  7094", "vin": "WMEEJ3BA8FK800196", "coordinates": [-74.0139, 40.65495, 0], "smartPhoneRequired": false, "interior": "GOOD", "exterior": "GOOD", "address": "4101 1st Ave, Brooklyn, NY 11232, USA", "fuel": 33, "engineType": "CE"}, {"name": "GTR 8250", "vin": "WMEEJ3BA5FK797774", "coordinates": [-73.91083, 40.76069, 0], "smartPhoneRequired": false, "interior": "GOOD", "exterior": "GOOD", "address": "46-02 30th Rd, Long Island City, NY 11103, USA", "fuel": 100, "engineType": "CE"}, {"name": "GTP 9017", "vin": "WMEEJ3BA2FK797179", "coordinates": [-73.99377, 40.64249, 0], "smartPhoneRequired": false, "interior": "GOOD", "exterior": "GOOD", "address": "1029 42nd St, Brooklyn, NY 11219, USA", "fuel": 100, "engineType": "CE"}, {"name": "GTR 8259", "vin": "WMEEJ3BA7FK798215", "coordinates": [-73.93185, 40.70493, 0], "smartPhoneRequired": false, "interior": "GOOD", "exterior": "GOOD", "address": "29 Thames St, Brooklyn, NY 11206, USA", "fuel": 39, "engineType": "CE"}, {"name": "GTS3749", "vin": "WMEEJ3BAXFK799178", "coordinates": [-73.89315, 40.76726, 0], "smartPhoneRequired": false, "interior": "GOOD", "exterior": "GOOD", "address": "22-68-22-98 76th St, East Elmhurst, NY 11370, USA", "fuel": 93, "engineType": "CE"}, {"name": "HAR 7946", "vin": "WMEEJ3BA6EK774955", "coordinates": [-73.92386, 40.76574, 0], "smartPhoneRequired": false, "interior": "GOOD", "exterior": "GOOD", "address": "29-22-29-98 30th Dr, Astoria, NY 11102, USA", "fuel": 100, "engineType": "CE"}, {"name": "HAR 7985", "vin": "WMEEJ3BA3EK752878", "coordinates": [-73.96454, 40.67326, 0], "smartPhoneRequired": false, "interior": "GOOD", "exterior": "GOOD", "address": "125 N Service Rd, Brooklyn, NY 11238, USA", "fuel": 100, "engineType": "CE"}, {"name": "GTS3732", "vin": "WMEEJ3BA1FK799182", "coordinates": [-73.88841, 40.76728, 0], "smartPhoneRequired": false, "interior": "GOOD", "exterior": "GOOD", "address": "22-34-22-98 81st St, East Elmhurst, NY 11370, USA", "fuel": 100, "engineType": "CE"}, {"name": "HAR 7943", "vin": "WMEEJ3BA9EK772584", "coordinates": [-73.98165, 40.66777, 0], "smartPhoneRequired": false, "interior": "GOOD", "exterior": "GOOD", "address": "396-398 8th St, Brooklyn, NY 11215, USA", "fuel": 54, "engineType": "CE"}, {"name": "GTR 8208", "vin": "WMEEJ3BAXFK797673", "coordinates": [-73.90583, 40.77842, 0], "smartPhoneRequired": false, "interior": "GOOD", "exterior": "GOOD", "address": "20-19-20-21 33rd St, Astoria, NY 11105, USA", "fuel": 100, "engineType": "CE"}, {"name": "GTS3704", "vin": "WMEEJ3BA7FK798361", "coordinates": [-74.03404, 40.63672, 0], "smartPhoneRequired": false, "interior": "GOOD", "exterior": "GOOD", "address": "41-49 MacKay Pl, Brooklyn, NY 11209, USA", "fuel": 87, "engineType": "CE"}, {"name": "GTP 8938", "vin": "WMEEJ3BA6FK795841", "coordinates": [-73.94557, 40.70078, 0], "smartPhoneRequired": false, "interior": "GOOD", "exterior": "GOOD", "address": "11-39 Whipple St, Brooklyn, NY 11206, USA", "fuel": 100, "engineType": "CE"}, {"name": "HAL 2377", "vin": "WMEEJ3BA5FK797631", "coordinates": [-73.99631, 40.63943, 0], "smartPhoneRequired": false, "interior": "GOOD", "exterior": "GOOD", "address": "1033-1061 47th St, Brooklyn, NY 11219, USA", "fuel": 100, "engineType": "CE"}, {"name": "GXV 1452", "vin": "WMEEJ3BA5FK797550", "coordinates": [-73.89725, 40.74697, 0], "smartPhoneRequired": false, "interior": "GOOD", "exterior": "GOOD", "address": "65-34 38th Ave, Woodside, NY 11377, USA", "fuel": 72, "engineType": "CE"}, {"name": "GTR 8191", "vin": "WMEEJ3BA7FK797002", "coordinates": [-73.94765, 40.71926, 0], "smartPhoneRequired": false, "interior": "GOOD", "exterior": "GOOD", "address": "87-125 Bayard St, Brooklyn, NY 11222, USA", "fuel": 75, "engineType": "CE"}, {"name": "GTS3650", "vin": "WMEEJ3BA2FK798364", "coordinates": [-73.93781, 40.76706, 0], "smartPhoneRequired": false, "interior": "GOOD", "exterior": "GOOD", "address": "32-37 Vernon Blvd, Astoria, NY 11106, USA", "fuel": 100, "engineType": "CE"}, {"name": "HAR 7950", "vin": "WMEEJ3BA3EK768451", "coordinates": [-73.96981, 40.69223, 0], "smartPhoneRequired": false, "interior": "GOOD", "exterior": "GOOD", "address": "174 Vanderbilt Ave, Brooklyn, NY 11205, USA", "fuel": 96, "engineType": "CE"}, {"name": "GTP 8951", "vin": "WMEEJ3BA4FK796969", "coordinates": [-73.93608, 40.69469, 0], "smartPhoneRequired": false, "interior": "GOOD", "exterior": "GOOD", "address": "333 Hart St, Brooklyn, NY 11206, USA", "fuel": 100, "engineType": "CE"}, {"name": "GTR 8268", "vin": "WMEEJ3BA7FK798649", "coordinates": [-73.96573, 40.64293, 0], "smartPhoneRequired": false, "interior": "GOOD", "exterior": "GOOD", "address": "276 Rugby Rd, Brooklyn, NY 11226, USA", "fuel": 66, "engineType": "CE"}, {"name": "HAR 7925", "vin": "WMEEJ3BA9EK770575", "coordinates": [-73.94784, 40.68824, 0], "smartPhoneRequired": false, "interior": "GOOD", "exterior": "GOOD", "address": "740-754 Marcy Ave, Brooklyn, NY 11216, USA", "fuel": 66, "engineType": "CE"}, {"name": "HAR 7909", "vin": "WMEEJ3BA6EK764006", "coordinates": [-73.9975, 40.63467, 0], "smartPhoneRequired": false, "interior": "GOOD", "exterior": "GOOD", "address": "1159 53rd St, Brooklyn, NY 11219, USA", "fuel": 54, "engineType": "CE"}, {"name": "GTS3692", "vin": "WMEEJ3BA6FK798013", "coordinates": [-73.99481, 40.64398, 0], "smartPhoneRequired": false, "interior": "GOOD", "exterior": "GOOD", "address": "957 41st St, Brooklyn, NY 11219, USA", "fuel": 100, "engineType": "CE"}, {"name": "GSW 7842", "vin": "WMEEJ3BA4FK796342", "coordinates": [-73.91739, 40.69903, 0], "smartPhoneRequired": false, "interior": "GOOD", "exterior": "GOOD", "address": "256-264 Bleecker St, Brooklyn, NY 11237, USA", "fuel": 54, "engineType": "CE"}, {"name": "GTP 8936", "vin": "WMEEJ3BA9FK796966", "coordinates": [-73.9792, 40.65986, 0], "smartPhoneRequired": false, "interior": "GOOD", "exterior": "GOOD", "address": "495-497 Captain Vincent E. Brunton Way, Brooklyn, NY 11215, USA", "fuel": 100, "engineType": "CE"}, {"name": "GTP 9040", "vin": "WMEEJ3BA1FK798274", "coordinates": [-73.9608, 40.71496, 0], "smartPhoneRequired": false, "interior": "GOOD", "exterior": "GOOD", "address": "263 Bedford Ave, Brooklyn, NY 11211, USA", "fuel": 33, "engineType": "CE"}, {"name": "GTP 8962", "vin": "WMEEJ3BA6FK797122", "coordinates": [-73.99899, 40.64195, 0], "smartPhoneRequired": false, "interior": "GOOD", "exterior": "GOOD", "address": "901 46th St, Brooklyn, NY 11219, USA", "fuel": 78, "engineType": "CE"}, {"name": "GSW 7829", "vin": "WMEEJ3BA6FK795631", "coordinates": [-73.91473, 40.68621, 0], "smartPhoneRequired": false, "interior": "GOOD", "exterior": "GOOD", "address": "990-992 Halsey St, Brooklyn, NY 11207, USA", "fuel": 66, "engineType": "CE"}, {"name": "GTP 9000", "vin": "WMEEJ3BA2FK797098", "coordinates": [-73.91485, 40.77738, 0], "smartPhoneRequired": false, "interior": "GOOD", "exterior": "GOOD", "address": "22-65 26th St, Astoria, NY 11105, USA", "fuel": 100, "engineType": "CE"}, {"name": "GTS3757", "vin": "WMEEJ3BA4FK798835", "coordinates": [-73.94142, 40.69848, 0], "smartPhoneRequired": false, "interior": "GOOD", "exterior": "GOOD", "address": "834 Park Ave, Brooklyn, NY 11206, USA", "fuel": 100, "engineType": "CE"}, {"name": "GTP 8880", "vin": "WMEEJ3BAXFK794630", "coordinates": [-73.93887, 40.68606, 0], "smartPhoneRequired": false, "interior": "GOOD", "exterior": "GOOD", "address": "474-482 Madison St, Brooklyn, NY 11221, USA", "fuel": 60, "engineType": "CE"}, {"name": "GTS3695", "vin": "WMEEJ3BA4FK798317", "coordinates": [-73.97457, 40.59978, 0], "smartPhoneRequired": false, "interior": "GOOD", "exterior": "GOOD", "address": "189 Van Sicklen St, Brooklyn, NY 11223, USA", "fuel": 100, "engineType": "CE"}, {"name": "GTP 8894", "vin": "WMEEJ3BA2FK795576", "coordinates": [-73.94365, 40.66925, 0], "smartPhoneRequired": false, "interior": "GOOD", "exterior": "GOOD", "address": "744 Eastern Pkwy, Brooklyn, NY 11213, USA", "fuel": 96, "engineType": "CE"}, {"name": "GTP 9037", "vin": "WMEEJ3BA0FK797908", "coordinates": [-73.95714, 40.62983, 0], "smartPhoneRequired": false, "interior": "GOOD", "exterior": "GOOD", "address": "1321-1327 Ocean Ave, Brooklyn, NY 11230, USA", "fuel": 100, "engineType": "CE"}, {"name": "GSW 7825", "vin": "WMEEJ3BA0FK797844", "coordinates": [-73.91902, 40.73725, 0], "smartPhoneRequired": false, "interior": "GOOD", "exterior": "GOOD", "address": "50-2 47th St, Woodside, NY 11377, USA", "fuel": 63, "engineType": "CE"}, {"name": "GVK  7002", "vin": "WMEEJ3BA7FK800013", "coordinates": [-73.92519, 40.76496, 0], "smartPhoneRequired": false, "interior": "GOOD", "exterior": "GOOD", "address": "31-22 29th St, Astoria, NY 11106, USA", "fuel": 72, "engineType": "CE"}, {"name": "GVK  7095", "vin": "WMEEJ3BAXFK800524", "coordinates": [-74.0207, 40.64131, 0], "smartPhoneRequired": false, "interior": "GOOD", "exterior": "GOOD", "address": "321 61st St, Brooklyn, NY 11220, USA", "fuel": 100, "engineType": "CE"}, {"name": "GTP 8955", "vin": "WMEEJ3BA0FK795821", "coordinates": [-74.00896, 40.65717, 0], "smartPhoneRequired": false, "interior": "GOOD", "exterior": "GOOD", "address": "607-619 2nd Ave, Brooklyn, NY 11232, USA", "fuel": 60, "engineType": "CE"}, {"name": "GTS3730", "vin": "WMEEJ3BA1FK798484", "coordinates": [-73.94949, 40.74485, 0], "smartPhoneRequired": false, "interior": "GOOD", "exterior": "GOOD", "address": "11-22-11-40 47th Ave, Long Island City, NY 11101, USA", "fuel": 100, "engineType": "CE"}, {"name": "GUM  8120", "vin": "WMEEJ3BA5FK800138", "coordinates": [-73.93388, 40.68586, 0], "smartPhoneRequired": false, "interior": "GOOD", "exterior": "GOOD", "address": "698 Putnam Ave, Brooklyn, NY 11221, USA", "fuel": 66, "engineType": "CE"}, {"name": "HAR 7910", "vin": "WMEEJ3BA4EK771374", "coordinates": [-73.90318, 40.6908, 0], "smartPhoneRequired": false, "interior": "GOOD", "exterior": "GOOD", "address": "282-338 Moffat St, Brooklyn, NY 11237, USA", "fuel": 75, "engineType": "CE"}, {"name": "GSW 7831", "vin": "WMEEJ3BA8FK795128", "coordinates": [-73.97216, 40.58591, 0], "smartPhoneRequired": false, "interior": "GOOD", "exterior": "GOOD", "address": "2601-2699 W 3rd St, Brooklyn, NY 11223, USA", "fuel": 45, "engineType": "CE"}, {"name": "GZT 7901", "vin": "WMEEJ3BA0FK800225", "coordinates": [-74.01593, 40.6748, 0], "smartPhoneRequired": false, "interior": "GOOD", "exterior": "GOOD", "address": "452-454 Van Brunt St, Brooklyn, NY 11231, USA", "fuel": 60, "engineType": "CE"}, {"name": "GSW 7851", "vin": "WMEEJ3BA3FK796106", "coordinates": [-73.97895, 40.7015, 0], "smartPhoneRequired": false, "interior": "GOOD", "exterior": "GOOD", "address": "Morris Avenue,, 11251", "fuel": 48, "engineType": "CE"}, {"name": "GTP 9041", "vin": "WMEEJ3BA1FK798338", "coordinates": [-73.96897, 40.63351, 0], "smartPhoneRequired": false, "interior": "GOOD", "exterior": "GOOD", "address": "671-699 E 8th St, Brooklyn, NY 11230, USA", "fuel": 96, "engineType": "CE"}, {"name": "HAR 7929", "vin": "WMEEJ3BAXEK764252", "coordinates": [-73.92007, 40.7694, 0], "smartPhoneRequired": false, "interior": "GOOD", "exterior": "GOOD", "address": "26-48 30th St, Astoria, NY 11102, USA", "fuel": 100, "engineType": "CE"}, {"name": "GSW 7858", "vin": "WMEEJ3BA8FK796151", "coordinates": [-73.92339, 40.68711, 0], "smartPhoneRequired": false, "interior": "GOOD", "exterior": "GOOD", "address": "951 Putnam Ave, Brooklyn, NY 11221, USA", "fuel": 51, "engineType": "CE"}, {"name": "GTR 8256", "vin": "WMEEJ3BA7FK797470", "coordinates": [-74.01738, 40.63503, 0], "smartPhoneRequired": false, "interior": "GOOD", "exterior": "GOOD", "address": "6508 6th Ave, Brooklyn, NY 11220, USA", "fuel": 33, "engineType": "CE"}, {"name": "GTP 8958", "vin": "WMEEJ3BA4FK795806", "coordinates": [-73.92646, 40.71331, 0], "smartPhoneRequired": false, "interior": "GOOD", "exterior": "GOOD", "address": "233-253 Meadow St, Brooklyn, NY 11237, USA", "fuel": 60, "engineType": "CE"}, {"name": "GTS3666", "vin": "WMEEJ3BA2FK798350", "coordinates": [-73.94373, 40.6914, 0], "smartPhoneRequired": false, "interior": "GOOD", "exterior": "GOOD", "address": "739 Lafayette Ave, Brooklyn, NY 11221, USA", "fuel": 54, "engineType": "CE"}, {"name": "GSW 7783", "vin": "WMEEJ3BAXFK795745", "coordinates": [-74.00894, 40.65717, 0], "smartPhoneRequired": false, "interior": "GOOD", "exterior": "GOOD", "address": "607-619 2nd Ave, Brooklyn, NY 11232, USA", "fuel": 100, "engineType": "CE"}, {"name": "GTR 8287", "vin": "WMEEJ3BAXFK796975", "coordinates": [-74.00712, 40.6589, 0], "smartPhoneRequired": false, "interior": "GOOD", "exterior": "GOOD", "address": "551 2nd Ave, Brooklyn, NY 11232, USA", "fuel": 66, "engineType": "CE"}, {"name": "GTS3767", "vin": "WMEEJ3BA6FK798755", "coordinates": [-73.97365, 40.63853, 0], "smartPhoneRequired": false, "interior": "GOOD", "exterior": "GOOD", "address": "513 Cortelyou Rd, Brooklyn, NY 11218, USA", "fuel": 100, "engineType": "CE"}, {"name": "GSW 7872", "vin": "WMEEJ3BAXFK797155", "coordinates": [-73.89052, 40.76829, 0], "smartPhoneRequired": false, "interior": "GOOD", "exterior": "GOOD", "address": "22-15 79th St, East Elmhurst, NY 11370, USA", "fuel": 100, "engineType": "CE"}, {"name": "GXV 1453", "vin": "WMEEJ3BA2FK794590", "coordinates": [-73.95083, 40.71752, 0], "smartPhoneRequired": false, "interior": "GOOD", "exterior": "GOOD", "address": "35 Frost St, Brooklyn, NY 11211, USA", "fuel": 100, "engineType": "CE"}, {"name": "GTC 4854", "vin": "WMEEJ3BA9FK797017", "coordinates": [-74.0006, 40.59898, 0], "smartPhoneRequired": false, "interior": "GOOD", "exterior": "GOOD", "address": "8814 21st Ave, Brooklyn, NY 11214, USA", "fuel": 81, "engineType": "CE"}, {"name": "HAR 7936", "vin": "WMEEJ3BA6EK764653", "coordinates": [-73.9114, 40.69208, 0], "smartPhoneRequired": false, "interior": "GOOD", "exterior": "GOOD", "address": "1225 Hancock St, Brooklyn, NY 11221, USA", "fuel": 100, "engineType": "CE"}, {"name": "GTR 8220", "vin": "WMEEJ3BA7FK797047", "coordinates": [-73.90324, 40.77181, 0], "smartPhoneRequired": false, "interior": "GOOD", "exterior": "GOOD", "address": "21-61 43rd St, Long Island City, NY 11105, USA", "fuel": 100, "engineType": "CE"}, {"name": "HAR 7964", "vin": "WMEEJ3BAXEK764641", "coordinates": [-73.94819, 40.69784, 0], "smartPhoneRequired": false, "interior": "GOOD", "exterior": "GOOD", "address": "120 Ellery St, Brooklyn, NY 11206, USA", "fuel": 100, "engineType": "CE"}, {"name": "GTP 9026", "vin": "WMEEJ3BA4FK797491", "coordinates": [-73.98664, 40.69623, 0], "smartPhoneRequired": false, "interior": "GOOD", "exterior": "GOOD", "address": "91-131 Tillary St, Brooklyn, NY 11201, USA", "fuel": 81, "engineType": "CE"}, {"name": "GTR\u00a08213", "vin": "WMEEJ3BA9FK798264", "coordinates": [-73.99378, 40.64373, 0], "smartPhoneRequired": false, "interior": "GOOD", "exterior": "GOOD", "address": "4013 10th Ave, Brooklyn, NY 11219, USA", "fuel": 36, "engineType": "CE"}, {"name": "GSW 7723", "vin": "WMEEJ3BA2FK795710", "coordinates": [-73.94343, 40.6893, 0], "smartPhoneRequired": false, "interior": "GOOD", "exterior": "GOOD", "address": "639 Greene Ave, Brooklyn, NY 11221, USA", "fuel": 57, "engineType": "CE"}, {"name": "GSW 7728", "vin": "WMEEJ3BA0FK796354", "coordinates": [-73.97599, 40.65824, 0], "smartPhoneRequired": false, "interior": "GOOD", "exterior": "GOOD", "address": "552 16th St, Brooklyn, NY 11215, USA", "fuel": 100, "engineType": "CE"}, {"name": "GSW 7784", "vin": "WMEEJ3BAXFK795891", "coordinates": [-73.90096, 40.75246, 0], "smartPhoneRequired": false, "interior": "GOOD", "exterior": "GOOD", "address": "33-48-33-50 61st St, Woodside, NY 11377, USA", "fuel": 78, "engineType": "CE"}, {"name": "GUM  8127", "vin": "WMEEJ3BA2FK800856", "coordinates": [-73.98847, 40.58517, 0], "smartPhoneRequired": false, "interior": "GOOD", "exterior": "GOOD", "address": "2099 Shore Pkwy, Brooklyn, NY 11214, USA", "fuel": 100, "engineType": "CE"}, {"name": "HAR 7953", "vin": "WMEEJ3BA0EK767158", "coordinates": [-74.01671, 40.67711, 0], "smartPhoneRequired": false, "interior": "GOOD", "exterior": "GOOD", "address": "186 Van Dyke St, Brooklyn, NY 11231, USA", "fuel": 45, "engineType": "CE"}, {"name": "GUM  8132", "vin": "WMEEJ3BA5FK800592", "coordinates": [-74.01559, 40.65093, 0], "smartPhoneRequired": false, "interior": "GOOD", "exterior": "GOOD", "address": "184 47th St, Brooklyn, NY 11232, USA", "fuel": 72, "engineType": "CE"}, {"name": "GTR 8255", "vin": "WMEEJ3BA7FK797422", "coordinates": [-73.94807, 40.74903, 0], "smartPhoneRequired": false, "interior": "GOOD", "exterior": "GOOD", "address": "11-30-11-38 44th Rd, Long Island City, NY 11101, USA", "fuel": 100, "engineType": "CE"}, {"name": "HAK 6109", "vin": "WMEEJ3BA8FK798725", "coordinates": [-73.96763, 40.69734, 0], "smartPhoneRequired": false, "interior": "GOOD", "exterior": "GOOD", "address": "37 Washington Ave, Brooklyn, NY 11205, USA", "fuel": 100, "engineType": "CE"}, {"name": "HAR 7940", "vin": "WMEEJ3BA3EK765176", "coordinates": [-73.89476, 40.77067, 0], "smartPhoneRequired": false, "interior": "GOOD", "exterior": "GOOD", "address": "20-0-20-98 75th St, East Elmhurst, NY 11370, USA", "fuel": 84, "engineType": "CE"}, {"name": "GTP 8882", "vin": "WMEEJ3BA4FK795403", "coordinates": [-73.92158, 40.685, 0], "smartPhoneRequired": false, "interior": "GOOD", "exterior": "GOOD", "address": "812 Halsey St, Brooklyn, NY 11233, USA", "fuel": 100, "engineType": "CE"}, {"name": "GTS3661", "vin": "WMEEJ3BA0FK798850", "coordinates": [-73.92981, 40.68692, 0], "smartPhoneRequired": false, "interior": "GOOD", "exterior": "GOOD", "address": "181 Malcolm X Blvd, Brooklyn, NY 11221, USA", "fuel": 87, "engineType": "CE"}, {"name": "GSW 7801", "vin": "WMEEJ3BA7FK796206", "coordinates": [-73.97471, 40.69777, 0], "smartPhoneRequired": false, "interior": "GOOD", "exterior": "GOOD", "address": "13 Cumberland St, Brooklyn, NY 11205, USA", "fuel": 100, "engineType": "CE"}, {"name": "HAR 7957", "vin": "WMEEJ3BAXEK767099", "coordinates": [-73.9652, 40.7134, 0], "smartPhoneRequired": false, "interior": "GOOD", "exterior": "GOOD", "address": "68-70 S 3rd St, Brooklyn, NY 11249, USA", "fuel": 100, "engineType": "CE"}, {"name": "GTR 8276", "vin": "WMEEJ3BA8FK798224", "coordinates": [-73.96746, 40.68672, 0], "smartPhoneRequired": false, "interior": "GOOD", "exterior": "GOOD", "address": "373-381 Clinton Ave, Brooklyn, NY 11238, USA", "fuel": 81, "engineType": "CE"}, {"name": "GSW 7765", "vin": "WMEEJ3BA9FK795073", "coordinates": [-73.96569, 40.71604, 0], "smartPhoneRequired": false, "interior": "GOOD", "exterior": "GOOD", "address": "44 Grand St, Brooklyn, NY 11249, USA", "fuel": 100, "engineType": "CE"}, {"name": "GTP 8943", "vin": "WMEEJ3BA8FK797056", "coordinates": [-74.00207, 40.61852, 0], "smartPhoneRequired": false, "interior": "GOOD", "exterior": "GOOD", "address": "7315 15th Ave, Brooklyn, NY 11228, USA", "fuel": 51, "engineType": "CE"}, {"name": "GTP 8900", "vin": "WMEEJ3BA1FK795178", "coordinates": [-73.93113, 40.67583, 0], "smartPhoneRequired": false, "interior": "GOOD", "exterior": "GOOD", "address": "1716 Dean St, Brooklyn, NY 11213, USA", "fuel": 100, "engineType": "CE"}, {"name": "HAR 7915", "vin": "WMEEJ3BAXEK756815", "coordinates": [-74.00162, 40.63569, 0], "smartPhoneRequired": false, "interior": "GOOD", "exterior": "GOOD", "address": "5423 Fort Hamilton Pkwy, Brooklyn, NY 11219, USA", "fuel": 60, "engineType": "CE"}, {"name": "GTP 8992", "vin": "WMEEJ3BA4FK797104", "coordinates": [-73.91887, 40.70004, 0], "smartPhoneRequired": false, "interior": "GOOD", "exterior": "GOOD", "address": "297 Harman St, Brooklyn, NY 11237, USA", "fuel": 96, "engineType": "CE"}, {"name": "GTS3706", "vin": "WMEEJ3BA4FK798687", "coordinates": [-73.91248, 40.76824, 0], "smartPhoneRequired": false, "interior": "GOOD", "exterior": "GOOD", "address": "24-39-24-51 38th St, Astoria, NY 11103, USA", "fuel": 90, "engineType": "CE"}, {"name": "GTR 8262", "vin": "WMEEJ3BA7FK798425", "coordinates": [-73.92532, 40.76476, 0], "smartPhoneRequired": false, "interior": "GOOD", "exterior": "GOOD", "address": "31-15 29th St, Long Island City, NY 11106, USA", "fuel": 60, "engineType": "CE"}, {"name": "GTS3664", "vin": "WMEEJ3BA9FK799088", "coordinates": [-73.94665, 40.69762, 0], "smartPhoneRequired": false, "interior": "GOOD", "exterior": "GOOD", "address": "53-67 Tompkins Ave, Brooklyn, NY 11206, USA", "fuel": 84, "engineType": "CE"}, {"name": "GTR 8261", "vin": "WMEEJ3BA7FK798344", "coordinates": [-73.93604, 40.69927, 0], "smartPhoneRequired": false, "interior": "GOOD", "exterior": "GOOD", "address": "87 Beaver St, Brooklyn, NY 11206, USA", "fuel": 57, "engineType": "CE"}, {"name": "GSW 7776", "vin": "WMEEJ3BA5FK796351", "coordinates": [-74.00105, 40.68543, 0], "smartPhoneRequired": false, "interior": "GOOD", "exterior": "GOOD", "address": "152 Degraw St, Brooklyn, NY 11231, USA", "fuel": 100, "engineType": "CE"}, {"name": "GTR 8260", "vin": "WMEEJ3BA7FK798246", "coordinates": [-73.91133, 40.78033, 0], "smartPhoneRequired": false, "interior": "GOOD", "exterior": "GOOD", "address": "20-88-20-98 26th St, Astoria, NY 11105, USA", "fuel": 100, "engineType": "CE"}, {"name": "GTP 8954", "vin": "WMEEJ3BA0FK795138", "coordinates": [-73.93451, 40.76928, 0], "smartPhoneRequired": false, "interior": "GOOD", "exterior": "GOOD", "address": "11-31 31st Ave, Long Island City, NY 11106, USA", "fuel": 100, "engineType": "CE"}, {"name": "GSW 7762", "vin": "WMEEJ3BA7FK795153", "coordinates": [-73.94326, 40.69233, 0], "smartPhoneRequired": false, "interior": "GOOD", "exterior": "GOOD", "address": "833 Dekalb Ave, Brooklyn, NY 11221, USA", "fuel": 100, "engineType": "CE"}, {"name": "GSW 7821", "vin": "WMEEJ3BAXFK797396", "coordinates": [-74.01713, 40.63137, 0], "smartPhoneRequired": false, "interior": "GOOD", "exterior": "GOOD", "address": "6900-6998 7th Ave, Brooklyn, NY 11209, USA", "fuel": 84, "engineType": "CE"}, {"name": "GVK  7000", "vin": "WMEEJ3BA6FK800682", "coordinates": [-73.94745, 40.68288, 0], "smartPhoneRequired": false, "interior": "GOOD", "exterior": "GOOD", "address": "215 Hancock St, Brooklyn, NY 11216, USA", "fuel": 21, "engineType": "CE"}, {"name": "GVK  7091", "vin": "WMEEJ3BA7FK800173", "coordinates": [-73.95647, 40.70871, 0], "smartPhoneRequired": false, "interior": "GOOD", "exterior": "GOOD", "address": "322 S 5th St, Brooklyn, NY 11211, USA", "fuel": 100, "engineType": "CE"}, {"name": "GTS 3711", "vin": "WMEEJ3BAXFK798306", "coordinates": [-73.91906, 40.70678, 0], "smartPhoneRequired": false, "interior": "GOOD", "exterior": "GOOD", "address": "454 Suydam St, Brooklyn, NY 11237, USA", "fuel": 100, "engineType": "CE"}, {"name": "GSW 8877", "vin": "WMEEJ3BA3FK797935", "coordinates": [-74.00229, 40.6493, 0], "smartPhoneRequired": false, "interior": "GOOD", "exterior": "GOOD", "address": "4001 6th Ave, Brooklyn, NY 11232, USA", "fuel": 100, "engineType": "CE"}, {"name": "GUM  8166", "vin": "WMEEJ3BA0FK800144", "coordinates": [-73.91545, 40.78471, 0], "smartPhoneRequired": false, "interior": "GOOD", "exterior": "GOOD", "address": "20-0-20-98 18th St, Astoria, NY 11105, USA", "fuel": 57, "engineType": "CE"}, {"name": "GSW 7819", "vin": "WMEEJ3BA5FK796978", "coordinates": [-73.98413, 40.62751, 0], "smartPhoneRequired": false, "interior": "GOOD", "exterior": "GOOD", "address": "1719-1721 52nd St, Brooklyn, NY 11204, USA", "fuel": 48, "engineType": "CE"}, {"name": "GUM  8163", "vin": "WMEEJ3BAXFK800362", "coordinates": [-73.92879, 40.70752, 0], "smartPhoneRequired": false, "interior": "GOOD", "exterior": "GOOD", "address": "65 Porter Ave, Brooklyn, NY 11237, USA", "fuel": 100, "engineType": "CE"}, {"name": "GSW 7763", "vin": "WMEEJ3BA7FK796125", "coordinates": [-73.96011, 40.72972, 0], "smartPhoneRequired": false, "interior": "GOOD", "exterior": "GOOD", "address": "15 Greenpoint Ave, Brooklyn, NY 11222, USA", "fuel": 100, "engineType": "CE"}, {"name": "GSW 7744", "vin": "WMEEJ3BA2FK798302", "coordinates": [-73.98606, 40.60612, 0], "smartPhoneRequired": false, "interior": "GOOD", "exterior": "GOOD", "address": "1638-1662 W 13th St, Brooklyn, NY 11223, USA", "fuel": 63, "engineType": "CE"}, {"name": "GTR 8218", "vin": "WMEEJ3BAXFK798208", "coordinates": [-73.97585, 40.63551, 0], "smartPhoneRequired": false, "interior": "GOOD", "exterior": "GOOD", "address": "677-679 E 3rd St, Brooklyn, NY 11218, USA", "fuel": 75, "engineType": "CE"}, {"name": "GTP 8892", "vin": "WMEEJ3BA1FK795133", "coordinates": [-73.98515, 40.63355, 0], "smartPhoneRequired": false, "interior": "GOOD", "exterior": "GOOD", "address": "1532-1534 46th St, Brooklyn, NY 11219, USA", "fuel": 66, "engineType": "CE"}, {"name": "GTP 8981", "vin": "WMEEJ3BA5FK795720", "coordinates": [-73.93874, 40.76317, 0], "smartPhoneRequired": false, "interior": "GOOD", "exterior": "GOOD", "address": "34-52 11th St, Long Island City, NY 11106, USA", "fuel": 81, "engineType": "CE"}, {"name": "HAR 7903", "vin": "WMEEJ3BA5EK768340", "coordinates": [-74.00595, 40.67777, 0], "smartPhoneRequired": false, "interior": "GOOD", "exterior": "GOOD", "address": "10 Huntington St, Brooklyn, NY 11231, USA", "fuel": 100, "engineType": "CE"}, {"name": "GSW 7798", "vin": "WMEEJ3BA7FK795542", "coordinates": [-73.9561, 40.72789, 0], "smartPhoneRequired": false, "interior": "GOOD", "exterior": "GOOD", "address": "117-119 Oak St, Brooklyn, NY 11222, USA", "fuel": 69, "engineType": "CE"}, {"name": "GTS3703", "vin": "WMEEJ3BA6FK799159", "coordinates": [-73.92569, 40.67024, 0], "smartPhoneRequired": false, "interior": "GOOD", "exterior": "GOOD", "address": "1584 St Johns Pl, Brooklyn, NY 11213, USA", "fuel": 100, "engineType": "CE"}, {"name": "HAL 2283", "vin": "WMEEJ3BA4FK798334", "coordinates": [-73.98552, 40.59494, 0], "smartPhoneRequired": false, "interior": "GOOD", "exterior": "GOOD", "address": "26 Bay 43rd St, Brooklyn, NY 11214, USA", "fuel": 100, "engineType": "CE"}, {"name": "GSW 7726", "vin": "WMEEJ3BA3FK796333", "coordinates": [-74.03296, 40.62483, 0], "smartPhoneRequired": false, "interior": "GOOD", "exterior": "GOOD", "address": "200-234 85th St, Brooklyn, NY 11209, USA", "fuel": 100, "engineType": "CE"}, {"name": "GSW 7818", "vin": "WMEEJ3BA2FK795836", "coordinates": [-73.95722, 40.72747, 0], "smartPhoneRequired": false, "interior": "GOOD", "exterior": "GOOD", "address": "59 Franklin St, Brooklyn, NY 11222, USA", "fuel": 100, "engineType": "CE"}, {"name": "GSW 7785", "vin": "WMEEJ3BA2FK795433", "coordinates": [-73.98554, 40.5949, 0], "smartPhoneRequired": false, "interior": "GOOD", "exterior": "GOOD", "address": "1-43 Bay 43rd St, Brooklyn, NY 11214, USA", "fuel": 39, "engineType": "CE"}, {"name": "GTR 8206", "vin": "WMEEJ3BA9FK798314", "coordinates": [-73.99893, 40.60404, 0], "smartPhoneRequired": false, "interior": "GOOD", "exterior": "GOOD", "address": "8628 20th Ave, Brooklyn, NY 11214, USA", "fuel": 54, "engineType": "CE"}, {"name": "GVK  7093", "vin": "WMEEJ3BA8FK798885", "coordinates": [-73.96469, 40.71332, 0], "smartPhoneRequired": false, "interior": "GOOD", "exterior": "GOOD", "address": "69 S 3rd St, Brooklyn, NY 11249, USA", "fuel": 66, "engineType": "CE"}, {"name": "GTS3780", "vin": "WMEEJ3BAXFK799066", "coordinates": [-73.9336, 40.68441, 0], "smartPhoneRequired": false, "interior": "GOOD", "exterior": "GOOD", "address": "542A Hancock St, Brooklyn, NY 11233, USA", "fuel": 100, "engineType": "CE"}, {"name": "HAR 7916", "vin": "WMEEJ3BA8EK766274", "coordinates": [-73.97409, 40.65546, 0], "smartPhoneRequired": false, "interior": "GOOD", "exterior": "GOOD", "address": "239-247 Seeley St, Brooklyn, NY 11218, USA", "fuel": 100, "engineType": "CE"}, {"name": "GTR 8270", "vin": "WMEEJ3BA8FK797011", "coordinates": [-73.99773, 40.66206, 0], "smartPhoneRequired": false, "interior": "GOOD", "exterior": "GOOD", "address": "154 1/2 23rd St, Brooklyn, NY 11232, USA", "fuel": 100, "engineType": "CE"}, {"name": "GTR 8193", "vin": "WMEEJ3BA2FK798588", "coordinates": [-73.90662, 40.69572, 0], "smartPhoneRequired": false, "interior": "GOOD", "exterior": "GOOD", "address": "387-389 Weirfield St, Brooklyn, NY 11237, USA", "fuel": 100, "engineType": "CE"}, {"name": "HAR 7941", "vin": "WMEEJ3BA4EK764571", "coordinates": [-73.95552, 40.68784, 0], "smartPhoneRequired": false, "interior": "GOOD", "exterior": "GOOD", "address": "380 Greene Ave, Brooklyn, NY 11216, USA", "fuel": 30, "engineType": "CE"}, {"name": "GSW 7827", "vin": "WMEEJ3BA2FK794640", "coordinates": [-73.92654, 40.66952, 0], "smartPhoneRequired": false, "interior": "GOOD", "exterior": "GOOD", "address": "1511-1513 Lincoln Pl, Brooklyn, NY 11213, USA", "fuel": 100, "engineType": "CE"}, {"name": "GUM  8172", "vin": "WMEEJ3BA1FK800010", "coordinates": [-73.94263, 40.66433, 0], "smartPhoneRequired": false, "interior": "GOOD", "exterior": "GOOD", "address": "431A Kingston Ave, Brooklyn, NY 11213, USA", "fuel": 100, "engineType": "CE"}, {"name": "GTP 8886", "vin": "WMEEJ3BA8FK796179", "coordinates": [-73.94517, 40.71082, 0], "smartPhoneRequired": false, "interior": "GOOD", "exterior": "GOOD", "address": "139 Maujer St, Brooklyn, NY 11206, USA", "fuel": 57, "engineType": "CE"}, {"name": "GTP 8890", "vin": "WMEEJ3BA1FK794600", "coordinates": [-73.94243, 40.73067, 0], "smartPhoneRequired": false, "interior": "GOOD", "exterior": "GOOD", "address": "362-426 Kingsland Ave, Brooklyn, NY 11222, USA", "fuel": 100, "engineType": "CE"}, {"name": "HAR 7989", "vin": "WMEEJ3BA3EK764996", "coordinates": [-73.96162, 40.68728, 0], "smartPhoneRequired": false, "interior": "GOOD", "exterior": "GOOD", "address": "257 Greene Ave, Brooklyn, NY 11238, USA", "fuel": 36, "engineType": "CE"}, {"name": "GTP 8895", "vin": "WMEEJ3BA3FK794873", "coordinates": [-73.96976, 40.59822, 0], "smartPhoneRequired": false, "interior": "GOOD", "exterior": "GOOD", "address": "2095 E 2nd St, Brooklyn, NY 11223, USA", "fuel": 100, "engineType": "CE"}, {"name": "GSW 7840", "vin": "WMEEJ3BA5FK797161", "coordinates": [-73.94356, 40.70981, 0], "smartPhoneRequired": false, "interior": "GOOD", "exterior": "GOOD", "address": "222-234 Ave of Puerto Rico, Brooklyn, NY 11206, USA", "fuel": 100, "engineType": "CE"}, {"name": "GTP 9005", "vin": "WMEEJ3BA5FK797855", "coordinates": [-73.97289, 40.68849, 0], "smartPhoneRequired": false, "interior": "GOOD", "exterior": "GOOD", "address": "245 1/2 Cumberland St, Brooklyn, NY 11205, USA", "fuel": 100, "engineType": "CE"}, {"name": "HAR 7976", "vin": "WMEEJ3BA5EK766975", "coordinates": [-73.90305, 40.69223, 0], "smartPhoneRequired": false, "interior": "GOOD", "exterior": "GOOD", "address": "301 Cooper St, Brooklyn, NY 11237, USA", "fuel": 81, "engineType": "CE"}, {"name": "GTS3782", "vin": "WMEEJ3BA4FK798320", "coordinates": [-74.0004, 40.67187, 0], "smartPhoneRequired": false, "interior": "GOOD", "exterior": "GOOD", "address": "231-255 Creamer St, Brooklyn, NY 11231, USA", "fuel": 100, "engineType": "CE"}, {"name": "GTS3663", "vin": "WMEEJ3BA9FK798684", "coordinates": [-73.95751, 40.71962, 0], "smartPhoneRequired": false, "interior": "GOOD", "exterior": "GOOD", "address": "133 N 9th St, Brooklyn, NY 11249, USA", "fuel": 63, "engineType": "CE"}, {"name": "GTR 8274", "vin": "WMEEJ3BA8FK797686", "coordinates": [-73.9686, 40.62184, 0], "smartPhoneRequired": false, "interior": "GOOD", "exterior": "GOOD", "address": "1195 E 7th St, Brooklyn, NY 11230, USA", "fuel": 87, "engineType": "CE"}, {"name": "HAR 7920", "vin": "WMEEJ3BAXEK763022", "coordinates": [-74.01404, 40.67618, 0], "smartPhoneRequired": false, "interior": "GOOD", "exterior": "GOOD", "address": "108-116 Coffey St, Brooklyn, NY 11231, USA", "fuel": 60, "engineType": "CE"}, {"name": "GSW 7745", "vin": "WMEEJ3BA1FK797173", "coordinates": [-73.95058, 40.68922, 0], "smartPhoneRequired": false, "interior": "GOOD", "exterior": "GOOD", "address": "311 Clifton Pl, Brooklyn, NY 11216, USA", "fuel": 100, "engineType": "CE"}, {"name": "GTS3717", "vin": "WMEEJ3BA8FK798711", "coordinates": [-73.97041, 40.63704, 0], "smartPhoneRequired": false, "interior": "GOOD", "exterior": "GOOD", "address": "527 E 8th St, Brooklyn, NY 11218, USA", "fuel": 72, "engineType": "CE"}, {"name": "GTP 8896", "vin": "WMEEJ3BA3FK795408", "coordinates": [-73.90088, 40.75974, 0], "smartPhoneRequired": false, "interior": "GOOD", "exterior": "GOOD", "address": "625 30th Ave, Woodside, NY 11377, USA", "fuel": 100, "engineType": "CE"}, {"name": "GTP 8950", "vin": "WMEEJ3BA5FK797628", "coordinates": [-74.01748, 40.60733, 0], "smartPhoneRequired": false, "interior": "GOOD", "exterior": "GOOD", "address": "Poly Place,, 11228", "fuel": 78, "engineType": "CE"}, {"name": "GTR 8269", "vin": "WMEEJ3BA8FK796666", "coordinates": [-73.99255, 40.60496, 0], "smartPhoneRequired": false, "interior": "GOOD", "exterior": "GOOD", "address": "2135 82nd St, Brooklyn, NY 11214, USA", "fuel": 84, "engineType": "CE"}, {"name": "HAR 7927", "vin": "WMEEJ3BA7EK769960", "coordinates": [-73.96495, 40.71425, 0], "smartPhoneRequired": false, "interior": "GOOD", "exterior": "GOOD", "address": "72-74 S 2nd St, Brooklyn, NY 11249, USA", "fuel": 100, "engineType": "CE"}, {"name": "HAR 7974", "vin": "WMEEJ3BAXEK767264", "coordinates": [-73.94743, 40.71203, 0], "smartPhoneRequired": false, "interior": "GOOD", "exterior": "GOOD", "address": "82-86 Powers St, Brooklyn, NY 11211, USA", "fuel": 100, "engineType": "CE"}, {"name": "GSW 7768", "vin": "WMEEJ3BAXFK796135", "coordinates": [-74.02806, 40.63746, 0], "smartPhoneRequired": false, "interior": "GOOD", "exterior": "GOOD", "address": "201-217 68th St, Brooklyn, NY 11220, USA", "fuel": 87, "engineType": "CE"}, {"name": "GTP 8998", "vin": "WMEEJ3BA1FK797738", "coordinates": [-73.89771, 40.77376, 0], "smartPhoneRequired": false, "interior": "GOOD", "exterior": "GOOD", "address": "46-1 20th Ave, Astoria, NY 11105, USA", "fuel": 100, "engineType": "CE"}, {"name": "GTS3701", "vin": "WMEEJ3BA5FK797970", "coordinates": [-73.95816, 40.73491, 0], "smartPhoneRequired": false, "interior": "GOOD", "exterior": "GOOD", "address": "77 Eagle St, Brooklyn, NY 11222, USA", "fuel": 72, "engineType": "CE"}, {"name": "GTP 8891", "vin": "WMEEJ3BA9FK797664", "coordinates": [-73.94822, 40.66613, 0], "smartPhoneRequired": false, "interior": "GOOD", "exterior": "GOOD", "address": "348 Crown St, Brooklyn, NY 11225, USA", "fuel": 42, "engineType": "CE"}, {"name": "GTS3741", "vin": "WMEEJ3BA4FK798446", "coordinates": [-74.00393, 40.60256, 0], "smartPhoneRequired": false, "interior": "GOOD", "exterior": "GOOD", "address": "8771 19th Ave, Brooklyn, NY 11214, USA", "fuel": 54, "engineType": "CE"}, {"name": "GSW 7848", "vin": "WMEEJ3BA9FK796191", "coordinates": [-73.95622, 40.6777, 0], "smartPhoneRequired": false, "interior": "GOOD", "exterior": "GOOD", "address": "1024 Dean St, Brooklyn, NY 11238, USA", "fuel": 100, "engineType": "CE"}, {"name": "HAR 7965", "vin": "WMEEJ3BA0EK771338", "coordinates": [-73.93806, 40.68087, 0], "smartPhoneRequired": false, "interior": "GOOD", "exterior": "GOOD", "address": "132 Decatur St, Brooklyn, NY 11216, USA", "fuel": 39, "engineType": "CE"}, {"name": "GTC 4855", "vin": "WMEEJ3BA9FK796336", "coordinates": [-73.96117, 40.69438, 0], "smartPhoneRequired": false, "interior": "GOOD", "exterior": "GOOD", "address": "195 Classon Ave, Brooklyn, NY 11205, USA", "fuel": 100, "engineType": "CE"}, {"name": "HAR 7938", "vin": "WMEEJ3BA1EK764463", "coordinates": [-74.00738, 40.62941, 0], "smartPhoneRequired": false, "interior": "GOOD", "exterior": "GOOD", "address": "1030 65th St, Brooklyn, NY 11219, USA", "fuel": 54, "engineType": "CE"}, {"name": "GSW 7854", "vin": "WMEEJ3BA4FK796308", "coordinates": [-73.92643, 40.71336, 0], "smartPhoneRequired": false, "interior": "GOOD", "exterior": "GOOD", "address": "233-253 Meadow St, Brooklyn, NY 11237, USA", "fuel": 100, "engineType": "CE"}, {"name": "GTP 9024", "vin": "WMEEJ3BA4FK797393", "coordinates": [-73.9173, 40.77987, 0], "smartPhoneRequired": false, "interior": "GOOD", "exterior": "GOOD", "address": "21-11 22nd Rd, Long Island City, NY 11105, USA", "fuel": 100, "engineType": "CE"}, {"name": "GTS3731", "vin": "WMEEJ3BA1FK798730", "coordinates": [-73.94164, 40.71624, 0], "smartPhoneRequired": false, "interior": "GOOD", "exterior": "GOOD", "address": "233 Skillman Ave, Brooklyn, NY 11211, USA", "fuel": 100, "engineType": "CE"}, {"name": "HAR 7949", "vin": "WMEEJ3BA7EK773975", "coordinates": [-74.01328, 40.6525, 0], "smartPhoneRequired": false, "interior": "GOOD", "exterior": "GOOD", "address": "4323 2nd Ave, Brooklyn, NY 11215, USA", "fuel": 100, "engineType": "CE"}, {"name": "HAR 7952", "vin": "WMEEJ3BA8EK767845", "coordinates": [-73.90426, 40.75741, 0], "smartPhoneRequired": false, "interior": "GOOD", "exterior": "GOOD", "address": "577 31st Ave, Woodside, NY 11377, USA", "fuel": 100, "engineType": "CE"}, {"name": "GTS3734", "vin": "WMEEJ3BA2FK798476", "coordinates": [-74.00058, 40.67734, 0], "smartPhoneRequired": false, "interior": "GOOD", "exterior": "GOOD", "address": "546-548 Clinton St, Brooklyn, NY 11231, USA", "fuel": 100, "engineType": "CE"}, {"name": "GSW 7830", "vin": "WMEEJ3BA7FK795945", "coordinates": [-73.98756, 40.63496, 0], "smartPhoneRequired": false, "interior": "GOOD", "exterior": "GOOD", "address": "1422 46th St, Brooklyn, NY 11219, USA", "fuel": 39, "engineType": "CE"}, {"name": "HAR 7933", "vin": "WMEEJ3BA6EK768962", "coordinates": [-73.96083, 40.67505, 0], "smartPhoneRequired": false, "interior": "GOOD", "exterior": "GOOD", "address": "511 Park Pl, Brooklyn, NY 11238, USA", "fuel": 69, "engineType": "CE"}, {"name": "HAR 7900", "vin": "WMEEJ3BA8EK749118", "coordinates": [-73.97884, 40.64584, 0], "smartPhoneRequired": false, "interior": "GOOD", "exterior": "GOOD", "address": "234-236 E 2nd St, Brooklyn, NY 11218, USA", "fuel": 75, "engineType": "CE"}, {"name": "GUM  8165", "vin": "WMEEJ3BA7FK800254", "coordinates": [-74.00858, 40.60636, 0], "smartPhoneRequired": false, "interior": "GOOD", "exterior": "GOOD", "address": "138 Bay 14th St, Brooklyn, NY 11214, USA", "fuel": 69, "engineType": "CE"}, {"name": "GSW 7811", "vin": "WMEEJ3BA0FK797679", "coordinates": [-74.00777, 40.62786, 0], "smartPhoneRequired": false, "interior": "GOOD", "exterior": "GOOD", "address": "1062-1068 67th St, Brooklyn, NY 11219, USA", "fuel": 84, "engineType": "CE"}, {"name": "GTR 8221", "vin": "WMEEJ3BA2FK797814", "coordinates": [-73.99251, 40.63977, 0], "smartPhoneRequired": false, "interior": "GOOD", "exterior": "GOOD", "address": "1166 44th St, Brooklyn, NY 11219, USA", "fuel": 78, "engineType": "CE"}, {"name": "GTR 8293", "vin": "WMEEJ3BA6FK797119", "coordinates": [-73.95716, 40.67284, 0], "smartPhoneRequired": false, "interior": "GOOD", "exterior": "GOOD", "address": "753 Franklin Ave, Brooklyn, NY 11238, USA", "fuel": 21, "engineType": "CE"}, {"name": "GSW 7800", "vin": "WMEEJ3BA4FK796292", "coordinates": [-73.93161, 40.67243, 0], "smartPhoneRequired": false, "interior": "GOOD", "exterior": "GOOD", "address": "1383 Park Pl, Brooklyn, NY 11213, USA", "fuel": 100, "engineType": "CE"}, {"name": "GTP 9011", "vin": "WMEEJ3BA1FK796637", "coordinates": [-73.96513, 40.68049, 0], "smartPhoneRequired": false, "interior": "GOOD", "exterior": "GOOD", "address": "897 Pacific St, Brooklyn, NY 11238, USA", "fuel": 66, "engineType": "CE"}, {"name": "GSW 7747", "vin": "WMEEJ3BA2FK797005", "coordinates": [-74.00179, 40.63902, 0], "smartPhoneRequired": false, "interior": "GOOD", "exterior": "GOOD", "address": "906 51st St, Brooklyn, NY 11219, USA", "fuel": 45, "engineType": "CE"}, {"name": "HAR 7942", "vin": "WMEEJ3BA4EK765042", "coordinates": [-73.97981, 40.63767, 0], "smartPhoneRequired": false, "interior": "GOOD", "exterior": "GOOD", "address": "1509-1599 38th St, Brooklyn, NY 11218, USA", "fuel": 75, "engineType": "CE"}, {"name": "GTR 8241", "vin": "WMEEJ3BA4FK797717", "coordinates": [-74.00684, 40.5999, 0], "smartPhoneRequired": false, "interior": "GOOD", "exterior": "GOOD", "address": "8910 19th Ave, Brooklyn, NY 11214, USA", "fuel": 100, "engineType": "CE"}, {"name": "GTR 8245", "vin": "WMEEJ3BA6FK797458", "coordinates": [-73.97285, 40.59898, 0], "smartPhoneRequired": false, "interior": "GOOD", "exterior": "GOOD", "address": "2181-2211 McDonald Ave, Brooklyn, NY 11223, USA", "fuel": 100, "engineType": "CE"}, {"name": "HCZ 8515", "vin": "WMEEJ3BA1FK796122", "coordinates": [-73.97415, 40.6532, 0], "smartPhoneRequired": false, "interior": "GOOD", "exterior": "GOOD", "address": "227-251 Sherman St, Brooklyn, NY 11218, USA", "fuel": 60, "engineType": "CE"}, {"name": "HAR 7939", "vin": "WMEEJ3BA7EK749398", "coordinates": [-74.02357, 40.64628, 0], "smartPhoneRequired": false, "interior": "GOOD", "exterior": "GOOD", "address": "5734-5798 1st Ave, Brooklyn, NY 11220, USA", "fuel": 100, "engineType": "CE"}, {"name": "HAR 7979", "vin": "WMEEJ3BAXEK774764", "coordinates": [-74.02141, 40.63627, 0], "smartPhoneRequired": false, "interior": "GOOD", "exterior": "GOOD", "address": "440 67th St, Brooklyn, NY 11220, USA", "fuel": 100, "engineType": "CE"}, {"name": "GTP 9019", "vin": "WMEEJ3BA3FK798440", "coordinates": [-73.90986, 40.77942, 0], "smartPhoneRequired": false, "interior": "GOOD", "exterior": "GOOD", "address": "20-78 28th St, Queens, NY 11105, USA", "fuel": 100, "engineType": "CE"}, {"name": "GTS3746", "vin": "WMEEJ3BAXFK798404", "coordinates": [-73.98496, 40.68228, 0], "smartPhoneRequired": false, "interior": "GOOD", "exterior": "GOOD", "address": "499-533 Baltic St, Brooklyn, NY 11217, USA", "fuel": 100, "engineType": "CE"}, {"name": "GTP 8986", "vin": "WMEEJ3BA0FK795866", "coordinates": [-73.91387, 40.78395, 0], "smartPhoneRequired": false, "interior": "GOOD", "exterior": "GOOD", "address": "20-17-20-35 20th St, Astoria, NY 11105, USA", "fuel": 100, "engineType": "CE"}, {"name": "GVK  7092", "vin": "WMEEJ3BA8FK799986", "coordinates": [-73.99654, 40.65863, 0], "smartPhoneRequired": false, "interior": "GOOD", "exterior": "GOOD", "address": "254 26th St, Brooklyn, NY 11232, USA", "fuel": 100, "engineType": "CE"}, {"name": "GTS3714", "vin": "WMEEJ3BA9FK799074", "coordinates": [-73.94509, 40.6898, 0], "smartPhoneRequired": false, "interior": "GOOD", "exterior": "GOOD", "address": "2-14 Van Buren St, Brooklyn, NY 11221, USA", "fuel": 66, "engineType": "CE"}, {"name": "GTP 9022", "vin": "WMEEJ3BA4FK797023", "coordinates": [-73.99965, 40.62784, 0], "smartPhoneRequired": false, "interior": "GOOD", "exterior": "GOOD", "address": "6182 Dominick Sabatino Bridge - 1937, Brooklyn, NY 11219, USA", "fuel": 51, "engineType": "CE"}, {"name": "GTS3641", "vin": "WMEEJ3BA4FK798978", "coordinates": [-73.98306, 40.66168, 0], "smartPhoneRequired": false, "interior": "GOOD", "exterior": "GOOD", "address": "366 16th St, Brooklyn, NY 11215, USA", "fuel": 100, "engineType": "CE"}, {"name": "GTR 8265", "vin": "WMEEJ3BA5FK797841", "coordinates": [-73.88856, 40.76767, 0], "smartPhoneRequired": false, "interior": "GOOD", "exterior": "GOOD", "address": "22-34-22-98 81st St, East Elmhurst, NY 11370, USA", "fuel": 54, "engineType": "CE"}, {"name": "GTP 9021", "vin": "WMEEJ3BA4FK796972", "coordinates": [-74.0087, 40.62951, 0], "smartPhoneRequired": false, "interior": "GOOD", "exterior": "GOOD", "address": "6524 10th Ave, Brooklyn, NY 11219, USA", "fuel": 100, "engineType": "CE"}, {"name": "HAR 7932", "vin": "WMEEJ3BA5EK763333", "coordinates": [-73.94794, 40.689, 0], "smartPhoneRequired": false, "interior": "GOOD", "exterior": "GOOD", "address": "732 Marcy Ave, Brooklyn, NY 11216, USA", "fuel": 100, "engineType": "CE"}, {"name": "GSW 7812", "vin": "WMEEJ3BA2FK796999", "coordinates": [-73.91946, 40.744, 0], "smartPhoneRequired": false, "interior": "GOOD", "exterior": "GOOD", "address": "43-15 45th St, Sunnyside, NY 11104, USA", "fuel": 75, "engineType": "CE"}, {"name": "HAL 1755", "vin": "WMEEJ3BA3FK800493", "coordinates": [-73.98612, 40.658, 0], "smartPhoneRequired": false, "interior": "GOOD", "exterior": "GOOD", "address": "1921 8th Ave, Brooklyn, NY 11215, USA", "fuel": 100, "engineType": "CE"}, {"name": "HAR 7984", "vin": "WMEEJ3BA2EK764603", "coordinates": [-73.97001, 40.68621, 0], "smartPhoneRequired": false, "interior": "GOOD", "exterior": "GOOD", "address": "58 Greene Ave, Brooklyn, NY 11238, USA", "fuel": 100, "engineType": "CE"}, {"name": "GUM  8116", "vin": "WMEEJ3BA2FK800128", "coordinates": [-73.9638, 40.70664, 0], "smartPhoneRequired": false, "interior": "GOOD", "exterior": "GOOD", "address": "487 Bedford Ave, Brooklyn, NY 11211, USA", "fuel": 100, "engineType": "CE"}, {"name": "GTR 8223", "vin": "WMEEJ3BA6FK797086", "coordinates": [-73.91479, 40.77176, 0], "smartPhoneRequired": false, "interior": "GOOD", "exterior": "GOOD", "address": "32-02 24th Ave, Long Island City, NY 11102, USA", "fuel": 100, "engineType": "CE"}, {"name": "GTS3707", "vin": "WMEEJ3BA6FK798934", "coordinates": [-74.00097, 40.66026, 0], "smartPhoneRequired": false, "interior": "GOOD", "exterior": "GOOD", "address": "791 E 3rd St, Brooklyn, NY 11218, USA", "fuel": 100, "engineType": "CE"}, {"name": "GTR 8214", "vin": "WMEEJ3BA9FK798331", "coordinates": [-73.99129, 40.57659, 0], "smartPhoneRequired": false, "interior": "GOOD", "exterior": "GOOD", "address": "2850-2898 W 24th St, Brooklyn, NY 11224, USA", "fuel": 100, "engineType": "CE"}, {"name": "GTS3702", "vin": "WMEEJ3BA6FK798996", "coordinates": [-73.97702, 40.64897, 0], "smartPhoneRequired": false, "interior": "GOOD", "exterior": "GOOD", "address": "2814 Fort Hamilton Pkwy, Brooklyn, NY 11218, USA", "fuel": 72, "engineType": "CE"}, {"name": "GTR 8289", "vin": "WMEEJ3BA7FK798294", "coordinates": [-73.92474, 40.66869, 0], "smartPhoneRequired": false, "interior": "GOOD", "exterior": "GOOD", "address": "Eastern Parkway Service Road,, 11233", "fuel": 84, "engineType": "CE"}, {"name": "GSW 7814", "vin": "WMEEJ3BA0FK796502", "coordinates": [-73.90504, 40.77801, 0], "smartPhoneRequired": false, "interior": "GOOD", "exterior": "GOOD", "address": "20-15-20-17 35th St, Astoria, NY 11105, USA", "fuel": 100, "engineType": "CE"}, {"name": "GUM  8131", "vin": "WMEEJ3BA5FK800379", "coordinates": [-73.91887, 40.73512, 0], "smartPhoneRequired": false, "interior": "GOOD", "exterior": "GOOD", "address": "47-6-47-98 Laurel Hill Blvd, Woodside, NY 11377, USA", "fuel": 63, "engineType": "CE"}, {"name": "GTS3698", "vin": "WMEEJ3BA4FK798415", "coordinates": [-73.95999, 40.70597, 0], "smartPhoneRequired": false, "interior": "GOOD", "exterior": "GOOD", "address": "176 Ross St, Brooklyn, NY 11211, USA", "fuel": 100, "engineType": "CE"}, {"name": "GSW 7859", "vin": "WMEEJ3BA9FK795378", "coordinates": [-74.01029, 40.61924, 0], "smartPhoneRequired": false, "interior": "GOOD", "exterior": "GOOD", "address": "1245 78th St, Brooklyn, NY 11228, USA", "fuel": 57, "engineType": "CE"}, {"name": "GTR 8239", "vin": "WMEEJ3BA5FK797290", "coordinates": [-73.91913, 40.67893, 0], "smartPhoneRequired": false, "interior": "GOOD", "exterior": "GOOD", "address": "249-261 Howard Ave, Brooklyn, NY 11233, USA", "fuel": 33, "engineType": "CE"}, {"name": "GTP 9025", "vin": "WMEEJ3BA4FK797443", "coordinates": [-73.9388, 40.68383, 0], "smartPhoneRequired": false, "interior": "GOOD", "exterior": "GOOD", "address": "422-424 Battalion Chief Robert Turner's Way, Brooklyn, NY 11216, USA", "fuel": 63, "engineType": "CE"}, {"name": "GTS3718", "vin": "WMEEJ3BA5FK799055", "coordinates": [-73.98251, 40.67165, 0], "smartPhoneRequired": false, "interior": "GOOD", "exterior": "GOOD", "address": "353 4th St, Brooklyn, NY 11215, USA", "fuel": 90, "engineType": "CE"}, {"name": "GTS3769", "vin": "WMEEJ3BA1FK798792", "coordinates": [-73.94179, 40.72604, 0], "smartPhoneRequired": false, "interior": "GOOD", "exterior": "GOOD", "address": "283 Kingsland Ave, Brooklyn, NY 11222, USA", "fuel": 100, "engineType": "CE"}, {"name": "GTS3646", "vin": "WMEEJ3BA0FK798962", "coordinates": [-73.99267, 40.67338, 0], "smartPhoneRequired": false, "interior": "GOOD", "exterior": "GOOD", "address": "55-67 2nd Ave, Brooklyn, NY 11215, USA", "fuel": 60, "engineType": "CE"}, {"name": "GSW 7828", "vin": "WMEEJ3BA5FK795183", "coordinates": [-73.98386, 40.60965, 0], "smartPhoneRequired": false, "interior": "GOOD", "exterior": "GOOD", "address": "1516-1520 W 10th St, Brooklyn, NY 11204, USA", "fuel": 100, "engineType": "CE"}, {"name": "GTP 9046", "vin": "WMEEJ3BA4FK797586", "coordinates": [-73.94799, 40.67508, 0], "smartPhoneRequired": false, "interior": "GOOD", "exterior": "GOOD", "address": "762-770 St Marks Ave, Brooklyn, NY 11216, USA", "fuel": 100, "engineType": "CE"}, {"name": "HAR 7923", "vin": "WMEEJ3BA0EK768567", "coordinates": [-73.9946, 40.66814, 0], "smartPhoneRequired": false, "interior": "GOOD", "exterior": "GOOD", "address": "69-71 15th St, Brooklyn, NY 11215, USA", "fuel": 75, "engineType": "CE"}, {"name": "GSW 7847", "vin": "WMEEJ3BA9FK795851", "coordinates": [-73.99319, 40.67278, 0], "smartPhoneRequired": false, "interior": "GOOD", "exterior": "GOOD", "address": "69 2nd Ave, Brooklyn, NY 11215, USA", "fuel": 69, "engineType": "CE"}, {"name": "GTS3743", "vin": "WMEEJ3BA4FK799208", "coordinates": [-73.99396, 40.69989, 0], "smartPhoneRequired": false, "interior": "GOOD", "exterior": "GOOD", "address": "36 Cranberry St, Brooklyn, NY 11201, USA", "fuel": 60, "engineType": "CE"}, {"name": "GTS3716", "vin": "WMEEJ3BAXFK798614", "coordinates": [-74.02326, 40.6399, 0], "smartPhoneRequired": false, "interior": "GOOD", "exterior": "GOOD", "address": "6354-6490 3rd Ave, Brooklyn, NY 11220, USA", "fuel": 66, "engineType": "CE"}, {"name": "GTS3644", "vin": "WMEEJ3BA0FK798864", "coordinates": [-73.98293, 40.63223, 0], "smartPhoneRequired": false, "interior": "GOOD", "exterior": "GOOD", "address": "1627 46th St, Brooklyn, NY 11204, USA", "fuel": 72, "engineType": "CE"}, {"name": "GVK  7003", "vin": "WMEEJ3BA7FK800190", "coordinates": [-73.98249, 40.64363, 0], "smartPhoneRequired": false, "interior": "GOOD", "exterior": "GOOD", "address": "58 Clara St, Brooklyn, NY 11218, USA", "fuel": 69, "engineType": "CE"}, {"name": "GTR 8203", "vin": "WMEEJ3BA9FK797020", "coordinates": [-73.96477, 40.68679, 0], "smartPhoneRequired": false, "interior": "GOOD", "exterior": "GOOD", "address": "160-180 Greene Ave, Brooklyn, NY 11238, USA", "fuel": 100, "engineType": "CE"}, {"name": "HAR 7908", "vin": "WMEEJ3BA9EK774058", "coordinates": [-73.96333, 40.7154, 0], "smartPhoneRequired": false, "interior": "GOOD", "exterior": "GOOD", "address": "105 Grand St, Brooklyn, NY 11249, USA", "fuel": 100, "engineType": "CE"}, {"name": "GTP 8984", "vin": "WMEEJ3BA2FK797134", "coordinates": [-73.97862, 40.6291, 0], "smartPhoneRequired": false, "interior": "GOOD", "exterior": "GOOD", "address": "2-22 Webster Ave, Brooklyn, NY 11230, USA", "fuel": 42, "engineType": "CE"}, {"name": "GTR 8240", "vin": "WMEEJ3BA4FK797622", "coordinates": [-73.99045, 40.66081, 0], "smartPhoneRequired": false, "interior": "GOOD", "exterior": "GOOD", "address": "666 6th Ave, Brooklyn, NY 11215, USA", "fuel": 36, "engineType": "CE"}]}