{"placemarks": [{"name": "361/EV580NT", "vin": "WME4513341K771106", "coordinates": [12.53088, 41.87163, 0], "smartPhoneRequired": false, "interior": "GOOD", "exterior": "GOOD", "address": "Via delle Cave, 86, 00179 Roma", "fuel": 21, "engineType": "CE"}, {"name": "405/EV624NT", "vin": "WME4513341K773063", "coordinates": [12.45814, 41.81591, 0], "smartPhoneRequired": false, "interior": "GOOD", "exterior": "GOOD", "address": "Via Paride Stefanini, 00144 Roma", "fuel": 69, "engineType": "CE"}, {"name": "041/ET683WT", "vin": "WME4513341K744582", "coordinates": [12.44278, 41.96573, 0], "smartPhoneRequired": false, "interior": "GOOD", "exterior": "GOOD", "address": "Via Capena, 6, 00189 Roma", "fuel": 51, "engineType": "CE"}, {"name": "033/ET675WT", "vin": "WME4513341K743288", "coordinates": [12.45577, 41.91644, 0], "smartPhoneRequired": false, "interior": "GOOD", "exterior": "GOOD", "address": "Viale Giuseppe Mazzini, 146, 00195 Roma", "fuel": 100, "engineType": "CE"}, {"name": "132/ET774WT", "vin": "WME4513341K730558", "coordinates": [12.50433, 41.90491, 0], "smartPhoneRequired": false, "interior": "GOOD", "exterior": "GOOD", "address": "Via Palestro, 49, 00185 Roma", "fuel": 100, "engineType": "CE"}, {"name": "346/EV528NT", "vin": "WME4513341K746444", "coordinates": [12.47523, 41.93978, 0], "smartPhoneRequired": false, "interior": "GOOD", "exterior": "GOOD", "address": "Via Guido Banti, 2-20, 00191 Roma", "fuel": 100, "engineType": "CE"}, {"name": "200/ET842WT", "vin": "WME4513341K740680", "coordinates": [12.53717, 41.93983, 0], "smartPhoneRequired": false, "interior": "GOOD", "exterior": "GOOD", "address": "Via Soratte, 5, 00141 Roma", "fuel": 78, "engineType": "CE"}, {"name": "225/ET867WT", "vin": "WME4513341K741538", "coordinates": [12.48955, 41.92481, 0], "smartPhoneRequired": false, "interior": "GOOD", "exterior": "GOOD", "address": "Via Angelo Secchi, 4, 00197 Roma", "fuel": 54, "engineType": "CE"}, {"name": "533/EX612DK", "vin": "WME4513341K747825", "coordinates": [12.4582, 41.81593, 0], "smartPhoneRequired": false, "interior": "GOOD", "exterior": "GOOD", "address": "Via Paride Stefanini, 00144 Roma", "fuel": 21, "engineType": "CE"}, {"name": "034/FF872DC", "vin": "WME4513341K743372", "coordinates": [12.50177, 41.9029, 0], "smartPhoneRequired": false, "interior": "GOOD", "exterior": "GOOD", "address": "Royal Parking Termini_Via Marsala 30/32", "fuel": 72, "engineType": "CE"}, {"name": "217/ET859WT", "vin": "WME4513341K741449", "coordinates": [12.51436, 41.92034, 0], "smartPhoneRequired": false, "interior": "GOOD", "exterior": "GOOD", "address": "Via Tolmino, 31, 00198 Roma", "fuel": 57, "engineType": "CE"}, {"name": "153/ET795WT", "vin": "WME4513341K739673", "coordinates": [12.45833, 41.86348, 0], "smartPhoneRequired": false, "interior": "GOOD", "exterior": "GOOD", "address": "Via Ettore Paladini, 92, 00149 Roma", "fuel": 45, "engineType": "CE"}, {"name": "436/EV654NT", "vin": "WME4513341K771039", "coordinates": [12.50337, 41.86662, 0], "smartPhoneRequired": false, "interior": "GOOD", "exterior": "GOOD", "address": "Via Appia Antica, 65-73, 00179 Roma", "fuel": 100, "engineType": "CE"}, {"name": "293/ET935WT", "vin": "WME4513341K711768", "coordinates": [12.5096, 41.93086, 0], "smartPhoneRequired": false, "interior": "GOOD", "exterior": "GOOD", "address": "Via di Tor Fiorenza, 9-17, 00199 Roma", "fuel": 93, "engineType": "CE"}, {"name": "323/EV532NT", "vin": "WME4513341K745042", "coordinates": [12.54163, 41.8654, 0], "smartPhoneRequired": false, "interior": "GOOD", "exterior": "GOOD", "address": "Via Frascati, 38, 00178 Roma", "fuel": 100, "engineType": "CE"}, {"name": "244/ET886WT", "vin": "WME4513341K741977", "coordinates": [12.5297, 41.87423, 0], "smartPhoneRequired": false, "interior": "GOOD", "exterior": "GOOD", "address": "Via Tuscolana, 406, 00181 Roma", "fuel": 100, "engineType": "CE"}, {"name": "320/EV511NT", "vin": "WME4513341K744876", "coordinates": [12.48794, 41.87361, 0], "smartPhoneRequired": false, "interior": "GOOD", "exterior": "GOOD", "address": "Viale Marco Polo, 75, 00154 Roma", "fuel": 78, "engineType": "CE"}, {"name": "374/EV593NT", "vin": "WME4513341K771154", "coordinates": [12.49451, 41.83082, 0], "smartPhoneRequired": false, "interior": "GOOD", "exterior": "GOOD", "address": "Via Alessio Baldovinetti, 115-119, 00142 Roma", "fuel": 100, "engineType": "CE"}, {"name": "147/ET789WT", "vin": "WME4513341K737767", "coordinates": [12.46593, 41.8878, 0], "smartPhoneRequired": false, "interior": "GOOD", "exterior": "GOOD", "address": "Via Garibaldi, 28, 00153 Roma", "fuel": 93, "engineType": "CE"}, {"name": "272/ET914WT", "vin": "WME4513341K710682", "coordinates": [12.4761, 41.87146, 0], "smartPhoneRequired": false, "interior": "GOOD", "exterior": "GOOD", "address": "Via dei Magazzini Generali, 40, 00154 Roma", "fuel": 100, "engineType": "CE"}, {"name": "429/EV647NT", "vin": "WME4513341K772114", "coordinates": [12.48643, 41.92447, 0], "smartPhoneRequired": false, "interior": "GOOD", "exterior": "GOOD", "address": "Via Antonio Bertoloni, 48, 00197 Roma", "fuel": 54, "engineType": "CE"}, {"name": "005/ET647WT", "vin": "WME4513341K742196", "coordinates": [12.42693, 41.90407, 0], "smartPhoneRequired": false, "interior": "GOOD", "exterior": "GOOD", "address": "Via Andrea Alciato, 22, 00167 Roma", "fuel": 81, "engineType": "CE"}, {"name": "082/ET724WT", "vin": "WME4513341K739118", "coordinates": [12.4934, 41.91977, 0], "smartPhoneRequired": false, "interior": "GOOD", "exterior": "GOOD", "address": "Via Vincenzo Bellini, 23, 00198 Roma", "fuel": 100, "engineType": "CE"}, {"name": "479/EV316TP", "vin": "WME4513341K770098", "coordinates": [12.48335, 41.88632, 0], "smartPhoneRequired": false, "interior": "GOOD", "exterior": "GOOD", "address": "Via del Circo Massimo, 00186 Roma", "fuel": 96, "engineType": "CE"}, {"name": "292/ET934WT", "vin": "WME4513341K711739", "coordinates": [12.46075, 41.87507, 0], "smartPhoneRequired": false, "interior": "GOOD", "exterior": "GOOD", "address": "Via Lorenzo Valla, 46-48, 00152 Roma", "fuel": 84, "engineType": "CE"}, {"name": "112/FD399KA", "vin": "WME4513341K729649", "coordinates": [12.48161, 41.88903, 0], "smartPhoneRequired": false, "interior": "GOOD", "exterior": "GOOD", "address": "Piazza della Bocca della Verit\u00e0, 18, 00186 Roma", "fuel": 100, "engineType": "CE"}, {"name": "016/ET658WT", "vin": "WME4513341K742486", "coordinates": [12.47732, 41.91127, 0], "smartPhoneRequired": false, "interior": "GOOD", "exterior": "GOOD", "address": "Viale Gabriele D'Annunzio, 00187 Roma", "fuel": 36, "engineType": "CE"}, {"name": "579/EX667DK", "vin": "WME4513341K751666", "coordinates": [12.5256, 41.87582, 0], "smartPhoneRequired": false, "interior": "GOOD", "exterior": "GOOD", "address": "Via Muzio Scevola, 110-120, 00181 Roma", "fuel": 100, "engineType": "CE"}, {"name": "073/ET715WT", "vin": "WME4513341K738973", "coordinates": [12.43776, 41.92634, 0], "smartPhoneRequired": false, "interior": "GOOD", "exterior": "GOOD", "address": "Via Massimi, 135-137, 00136 Roma", "fuel": 27, "engineType": "CE"}, {"name": "032/ET674WT", "vin": "WME4513341K743275", "coordinates": [12.54097, 41.9396, 0], "smartPhoneRequired": false, "interior": "GOOD", "exterior": "GOOD", "address": "Via Jacopo Sannazzaro, 56, 00141 Roma", "fuel": 51, "engineType": "CE"}, {"name": "521/EX467DK", "vin": "WME4513341K751372", "coordinates": [12.42266, 41.94741, 0], "smartPhoneRequired": false, "interior": "GOOD", "exterior": "GOOD", "address": "Via Basilio Puoti, 47-59, 00135 Roma", "fuel": 100, "engineType": "CE"}, {"name": "507/EX424DK", "vin": "WME4513341K750708", "coordinates": [12.50177, 41.9029, 0], "smartPhoneRequired": false, "interior": "GOOD", "exterior": "GOOD", "address": "Royal Parking Termini_Via Marsala 30/32", "fuel": 93, "engineType": "CE"}, {"name": "230/ET872WT", "vin": "WME4513341K741666", "coordinates": [12.47794, 41.93511, 0], "smartPhoneRequired": false, "interior": "GOOD", "exterior": "GOOD", "address": "Via Enrico Elia, 47-55, 00196 Roma", "fuel": 100, "engineType": "CE"}, {"name": "257/ET899WT", "vin": "WME4513341K710364", "coordinates": [12.44449, 41.92792, 0], "smartPhoneRequired": false, "interior": "GOOD", "exterior": "GOOD", "address": "Via Decio Filipponi, 15-25, 00136 Roma", "fuel": 100, "engineType": "CE"}, {"name": "412/EV630NT", "vin": "WME4513341K772902", "coordinates": [12.41889, 41.94576, 0], "smartPhoneRequired": false, "interior": "GOOD", "exterior": "GOOD", "address": "Via Giovanni della Casa, 7, 00135 Roma", "fuel": 45, "engineType": "CE"}, {"name": "171/EZ012SZ", "vin": "WME4513341K740150", "coordinates": [12.52067, 41.87507, 0], "smartPhoneRequired": false, "interior": "GOOD", "exterior": "GOOD", "address": "Via Carlo Sigonio, 8, 00179 Roma", "fuel": 60, "engineType": "CE"}, {"name": "576/EX455DK", "vin": "WME4513341K750488", "coordinates": [12.45812, 41.81597, 0], "smartPhoneRequired": false, "interior": "GOOD", "exterior": "GOOD", "address": "Via Paride Stefanini, 00144 Roma", "fuel": 33, "engineType": "CE"}, {"name": "468/EV305TP", "vin": "WME4513341K771002", "coordinates": [12.47744, 41.87839, 0], "smartPhoneRequired": false, "interior": "GOOD", "exterior": "GOOD", "address": "Via Mastro Giorgio, 17, 00153 Roma", "fuel": 51, "engineType": "CE"}, {"name": "333/EV518NT", "vin": "WME4513341K745517", "coordinates": [12.42971, 41.89953, 0], "smartPhoneRequired": false, "interior": "GOOD", "exterior": "GOOD", "address": "Via Cardinal Parocchi, 17, 00167 Roma", "fuel": 75, "engineType": "CE"}, {"name": "453/EV670NT", "vin": "WME4513341K768635", "coordinates": [12.51749, 41.9165, 0], "smartPhoneRequired": false, "interior": "GOOD", "exterior": "GOOD", "address": "Via Giovanni Battista de Rossi, 29, 00161 Roma", "fuel": 100, "engineType": "CE"}, {"name": "235/ET877WT", "vin": "WME4513341K741824", "coordinates": [12.44455, 41.87799, 0], "smartPhoneRequired": false, "interior": "GOOD", "exterior": "GOOD", "address": "Via Ludovica Albertoni, 82-88, 00152 Roma", "fuel": 100, "engineType": "CE"}, {"name": "591/EX472DK", "vin": "WME4513341K751478", "coordinates": [12.45279, 41.91213, 0], "smartPhoneRequired": false, "interior": "GOOD", "exterior": "GOOD", "address": "Via Trionfale, 60, 00100 Roma", "fuel": 100, "engineType": "CE"}, {"name": "590/EX669DK", "vin": "WME4513341K751697", "coordinates": [12.51218, 41.91656, 0], "smartPhoneRequired": false, "interior": "GOOD", "exterior": "GOOD", "address": "Via Nomentana, 76, 00161 Roma", "fuel": 100, "engineType": "CE"}, {"name": "054/ET696WT", "vin": "WME4513341K738379", "coordinates": [12.48438, 41.82338, 0], "smartPhoneRequired": false, "interior": "GOOD", "exterior": "GOOD", "address": "Via dei Guastatori, 15-19, 00143 Roma", "fuel": 90, "engineType": "CE"}, {"name": "051/ET693WT", "vin": "WME4513341K738064", "coordinates": [12.49142, 41.89347, 0], "smartPhoneRequired": false, "interior": "GOOD", "exterior": "GOOD", "address": "41.89347, 12.49142", "fuel": 81, "engineType": "CE"}, {"name": "228/ET870WT", "vin": "WME4513341K741583", "coordinates": [12.47421, 41.85249, 0], "smartPhoneRequired": false, "interior": "GOOD", "exterior": "GOOD", "address": "Via del Valco di S. Paolo, 19, 00142 Roma", "fuel": 100, "engineType": "CE"}, {"name": "594/EX425DK", "vin": "WME4513341K751223", "coordinates": [12.42952, 41.94645, 0], "smartPhoneRequired": false, "interior": "GOOD", "exterior": "GOOD", "address": "Via delle Benedettine, 31, 00135 Roma", "fuel": 27, "engineType": "CE"}, {"name": "392/EV611NT", "vin": "WME4513341K773834", "coordinates": [12.45822, 41.81591, 0], "smartPhoneRequired": false, "interior": "GOOD", "exterior": "GOOD", "address": "Via Paride Stefanini, 00144 Roma", "fuel": 54, "engineType": "CE"}, {"name": "464/EV301TP", "vin": "WME4513341K770222", "coordinates": [12.43885, 41.92696, 0], "smartPhoneRequired": false, "interior": "GOOD", "exterior": "GOOD", "address": "Via Giancarlo Bitossi, 36, 00136 Roma", "fuel": 42, "engineType": "CE"}, {"name": "343/EV526NT", "vin": "WME4513341K745937", "coordinates": [12.48349, 41.84291, 0], "smartPhoneRequired": false, "interior": "GOOD", "exterior": "GOOD", "address": "Via Nicola Spedalieri, 21, 00142 Roma", "fuel": 72, "engineType": "CE"}, {"name": "574/EX700DK", "vin": "WME4513341K750724", "coordinates": [12.44959, 41.90705, 0], "smartPhoneRequired": false, "interior": "GOOD", "exterior": "GOOD", "address": "Via Angelo Emo, 3, 00136 Roma", "fuel": 96, "engineType": "CE"}, {"name": "036/ET678WT", "vin": "WME4513341K743423", "coordinates": [12.46713, 41.83427, 0], "smartPhoneRequired": false, "interior": "GOOD", "exterior": "GOOD", "address": "Viale dell'Astronomia, 2, 00144 Roma", "fuel": 100, "engineType": "CE"}, {"name": "043/ET685WT", "vin": "WME4513341K737954", "coordinates": [12.4854, 41.87064, 0], "smartPhoneRequired": false, "interior": "GOOD", "exterior": "GOOD", "address": "Piazzale 12 Ottobre 1492, 00154 Roma", "fuel": 87, "engineType": "CE"}, {"name": "141/ET783WT", "vin": "WME4513341K727435", "coordinates": [12.48459, 41.81994, 0], "smartPhoneRequired": false, "interior": "GOOD", "exterior": "GOOD", "address": "Via degli Artificieri, 63, 00143 Roma", "fuel": 15, "engineType": "CE"}, {"name": "157/ET799WT", "vin": "WME4513341K739735", "coordinates": [12.4486, 41.86962, 0], "smartPhoneRequired": false, "interior": "GOOD", "exterior": "GOOD", "address": "Via Pietro D'Assisi, 32, 00151 Roma", "fuel": 100, "engineType": "CE"}, {"name": "093/ET735WT", "vin": "WME4513341K739183", "coordinates": [12.49511, 41.91071, 0], "smartPhoneRequired": false, "interior": "GOOD", "exterior": "GOOD", "address": "Via Campania, 68-70, 00187 Roma", "fuel": 100, "engineType": "CE"}, {"name": "596/EX439DK", "vin": "WME4513341K751188", "coordinates": [12.50269, 41.86336, 0], "smartPhoneRequired": false, "interior": "GOOD", "exterior": "GOOD", "address": "Via Roberto Scott, 98-108, 00179 Roma", "fuel": 100, "engineType": "CE"}, {"name": "322/EV498NT", "vin": "WME4513341K745038", "coordinates": [12.51557, 41.93877, 0], "smartPhoneRequired": false, "interior": "GOOD", "exterior": "GOOD", "address": "Via Pietro Mascagni, 125-127, 00199 Roma", "fuel": 75, "engineType": "CE"}, {"name": "414/EV632NT", "vin": "WME4513341K771893", "coordinates": [12.44024, 41.9688, 0], "smartPhoneRequired": false, "interior": "GOOD", "exterior": "GOOD", "address": "Via Lucio Cassio, 59-61, 00189 Roma", "fuel": 30, "engineType": "CE"}, {"name": "198/ET840WT", "vin": "WME4513341K740570", "coordinates": [12.49801, 41.86385, 0], "smartPhoneRequired": false, "interior": "GOOD", "exterior": "GOOD", "address": "Via Cesare Federici, 2, 00154 Roma", "fuel": 54, "engineType": "CE"}, {"name": "155/ET797WT", "vin": "WME4513341K739705", "coordinates": [12.46517, 41.88772, 0], "smartPhoneRequired": false, "interior": "GOOD", "exterior": "GOOD", "address": "Via Garibaldi, 28, 00153 Roma", "fuel": 87, "engineType": "CE"}, {"name": "188/ET830WT", "vin": "WME4513341K739502", "coordinates": [12.52877, 41.93615, 0], "smartPhoneRequired": false, "interior": "GOOD", "exterior": "GOOD", "address": "Via Valle Corteno, 50-52, 00141 Roma", "fuel": 100, "engineType": "CE"}, {"name": "362/EV581NT", "vin": "WME4513341K772335", "coordinates": [12.53455, 41.87497, 0], "smartPhoneRequired": false, "interior": "GOOD", "exterior": "GOOD", "address": "Largo Bastia 11, Roma", "fuel": 100, "engineType": "CE"}, {"name": "076/FE116JG", "vin": "WME4513341K739062", "coordinates": [12.4258, 41.93931, 0], "smartPhoneRequired": false, "interior": "GOOD", "exterior": "GOOD", "address": "Via Teresa de Gubernatis Mannucci, 23-27, 00135 Roma", "fuel": 100, "engineType": "CE"}, {"name": "078/ET720WT", "vin": "WME4513341K739071", "coordinates": [12.43943, 41.92471, 0], "smartPhoneRequired": false, "interior": "GOOD", "exterior": "GOOD", "address": "Via della Balduina, 138, 00136 Roma", "fuel": 72, "engineType": "CE"}, {"name": "234/ET876WT", "vin": "WME4513341K741814", "coordinates": [12.50772, 41.89287, 0], "smartPhoneRequired": false, "interior": "GOOD", "exterior": "GOOD", "address": "Via Nino Bixio, 81, 00185 Roma", "fuel": 90, "engineType": "CE"}, {"name": "295/ET937WT", "vin": "WME4513341K726277", "coordinates": [12.49086, 41.91088, 0], "smartPhoneRequired": false, "interior": "GOOD", "exterior": "GOOD", "address": "Via Pinciana, 74-90, 00198 Roma", "fuel": 78, "engineType": "CE"}, {"name": "476/EV313TP", "vin": "WME4513341K770660", "coordinates": [12.4739, 41.91598, 0], "smartPhoneRequired": false, "interior": "GOOD", "exterior": "GOOD", "address": "Piazza della Marina, 4, 00196 Roma", "fuel": 48, "engineType": "CE"}, {"name": "462/EV239TP", "vin": "WME4513341K770195", "coordinates": [12.51881, 41.88253, 0], "smartPhoneRequired": false, "interior": "GOOD", "exterior": "GOOD", "address": "Via Nicastro, 31, 00182 Roma", "fuel": 100, "engineType": "CE"}, {"name": "214/ET856WT", "vin": "WME4513341K741399", "coordinates": [12.48787, 41.87657, 0], "smartPhoneRequired": false, "interior": "GOOD", "exterior": "GOOD", "address": "Via Giovanni Tata, 2, 00154 Roma", "fuel": 100, "engineType": "CE"}, {"name": "236/ET878WT", "vin": "WME4513341K741855", "coordinates": [12.46613, 41.89439, 0], "smartPhoneRequired": false, "interior": "GOOD", "exterior": "GOOD", "address": "Via della Lungara, 18, 00165 Roma", "fuel": 81, "engineType": "CE"}, {"name": "313/EV499NT", "vin": "WME4513341K744380", "coordinates": [12.45171, 41.8992, 0], "smartPhoneRequired": false, "interior": "GOOD", "exterior": "GOOD", "address": "Via di Porta Cavalleggeri, 155, 00165 Roma", "fuel": 57, "engineType": "CE"}, {"name": "493/EY099PF", "vin": "WME4513341K783888", "coordinates": [12.50177, 41.9029, 0], "smartPhoneRequired": false, "interior": "GOOD", "exterior": "GOOD", "address": "Royal Parking Termini_Via Marsala 30/32", "fuel": 21, "engineType": "CE"}, {"name": "553/EX713DK", "vin": "WME4513341K752097", "coordinates": [12.46583, 41.8987, 0], "smartPhoneRequired": false, "interior": "GOOD", "exterior": "GOOD", "address": "Via Giulia, 66, 00186 Roma", "fuel": 54, "engineType": "CE"}, {"name": "024/ET666WT", "vin": "WME4513341K742973", "coordinates": [12.46714, 41.93064, 0], "smartPhoneRequired": false, "interior": "GOOD", "exterior": "GOOD", "address": "Via Giuseppe Sacconi, 19, 00196 Roma", "fuel": 87, "engineType": "CE"}, {"name": "482/EV319TP", "vin": "WME4513341K770333", "coordinates": [12.45206, 41.93818, 0], "smartPhoneRequired": false, "interior": "GOOD", "exterior": "GOOD", "address": "Via dei Monti della Farnesina, 25, 00135 Roma", "fuel": 21, "engineType": "CE"}, {"name": "122/ET764WT", "vin": "WME4513341K730048", "coordinates": [12.48481, 41.89774, 0], "smartPhoneRequired": false, "interior": "GOOD", "exterior": "GOOD", "address": "Via della Pilotta, 19-21, 00187 Roma", "fuel": 100, "engineType": "CE"}, {"name": "232/ET874WT", "vin": "WME4513341K741728", "coordinates": [12.46223, 41.92775, 0], "smartPhoneRequired": false, "interior": "GOOD", "exterior": "GOOD", "address": "Viale Pinturicchio, 93, 00196 Roma", "fuel": 69, "engineType": "CE"}, {"name": "245/EW232ZK", "vin": "WME4513341K741982", "coordinates": [12.42573, 41.93651, 0], "smartPhoneRequired": false, "interior": "GOOD", "exterior": "GOOD", "address": "Via dell' Acquedotto Paolo, 55, 00135 Roma", "fuel": 100, "engineType": "CE"}, {"name": "427/EV645NT", "vin": "WME4513341K771414", "coordinates": [12.47338, 41.9005, 0], "smartPhoneRequired": false, "interior": "GOOD", "exterior": "GOOD", "address": "Piazza di Sant'Apollinare, 32, 00186 Roma", "fuel": 100, "engineType": "CE"}, {"name": "105/ET747WT", "vin": "WME4513341K729300", "coordinates": [12.5132, 41.91509, 0], "smartPhoneRequired": false, "interior": "GOOD", "exterior": "GOOD", "address": "Via Alessandro Torlonia, 4, 00161 Roma", "fuel": 100, "engineType": "CE"}, {"name": "140/ET782WT", "vin": "WME4513341K727423", "coordinates": [12.48494, 41.89576, 0], "smartPhoneRequired": false, "interior": "GOOD", "exterior": "GOOD", "address": "Piazza Foro Traiano, 1, 00187 Roma", "fuel": 93, "engineType": "CE"}, {"name": "376/EV595NT", "vin": "WME4513341K772018", "coordinates": [12.44859, 41.9003, 0], "smartPhoneRequired": false, "interior": "GOOD", "exterior": "GOOD", "address": "Via Nicol\u00f2 V, 19, 00165 Roma", "fuel": 69, "engineType": "CE"}, {"name": "296/ET938WT", "vin": "WME4513341K709952", "coordinates": [12.54121, 41.89102, 0], "smartPhoneRequired": false, "interior": "GOOD", "exterior": "GOOD", "address": "Via Sampiero di Bastelica, 127, 00177 Roma", "fuel": 96, "engineType": "CE"}, {"name": "497/EV216TT", "vin": "WME4513341K783670", "coordinates": [12.46363, 41.83768, 0], "smartPhoneRequired": false, "interior": "GOOD", "exterior": "GOOD", "address": "Viale di Val Fiorita, 90, 00144 Roma", "fuel": 42, "engineType": "CE"}, {"name": "072/ET714WT", "vin": "WME4513341K738963", "coordinates": [12.4729, 41.91646, 0], "smartPhoneRequired": false, "interior": "GOOD", "exterior": "GOOD", "address": "Via De Luca Cardinal, 1, 00196 Roma", "fuel": 21, "engineType": "CE"}, {"name": "060/ET702WT", "vin": "WME4513341K738640", "coordinates": [12.47177, 41.88415, 0], "smartPhoneRequired": false, "interior": "GOOD", "exterior": "GOOD", "address": "Viale delle Mura Portuensi, 11-17, 00153 Roma", "fuel": 81, "engineType": "CE"}, {"name": "402/EV621NT", "vin": "WME4513341K773777", "coordinates": [12.46228, 41.88119, 0], "smartPhoneRequired": false, "interior": "GOOD", "exterior": "GOOD", "address": "Via Felice Cavallotti, 60, 00152 Roma", "fuel": 42, "engineType": "CE"}, {"name": "351/EV570NT", "vin": "WME4513341K771525", "coordinates": [12.4415, 41.86799, 0], "smartPhoneRequired": false, "interior": "GOOD", "exterior": "GOOD", "address": "Via Pietro Valdoni, Roma", "fuel": 21, "engineType": "CE"}, {"name": "561/EX730DK", "vin": "WME4513341K751317", "coordinates": [12.4671, 41.86552, 0], "smartPhoneRequired": false, "interior": "GOOD", "exterior": "GOOD", "address": "Via Carlo Sereni, 4, 00146 Roma", "fuel": 24, "engineType": "CE"}, {"name": "356/EV575NT", "vin": "WME4513341K771405", "coordinates": [12.46575, 41.8644, 0], "smartPhoneRequired": false, "interior": "GOOD", "exterior": "GOOD", "address": "Via Ulisse Dini, 23-35, 00146 Roma", "fuel": 90, "engineType": "CE"}, {"name": "426/EV644NT", "vin": "WME4513341K769311", "coordinates": [12.47566, 41.91933, 0], "smartPhoneRequired": false, "interior": "GOOD", "exterior": "GOOD", "address": "Viale Bruno Buozzi, 110, 00197 Roma", "fuel": 69, "engineType": "CE"}, {"name": "009/ET651WT", "vin": "WME4513341K742376", "coordinates": [12.44204, 41.86304, 0], "smartPhoneRequired": false, "interior": "GOOD", "exterior": "GOOD", "address": "Via Adolfo Gandiglio, 113-117, 00151 Roma", "fuel": 69, "engineType": "CE"}, {"name": "104/ET746WT", "vin": "WME4513341K729254", "coordinates": [12.49609, 41.83296, 0], "smartPhoneRequired": false, "interior": "GOOD", "exterior": "GOOD", "address": "Via Andrea del Sarto, Roma", "fuel": 54, "engineType": "CE"}, {"name": "017/ET659WT", "vin": "WME4513341K742506", "coordinates": [12.49462, 41.83102, 0], "smartPhoneRequired": false, "interior": "GOOD", "exterior": "GOOD", "address": "Largo del Bronzino, 4, 00142 Roma", "fuel": 45, "engineType": "CE"}, {"name": "487/EV323TP", "vin": "WME4513341K770690", "coordinates": [12.51198, 41.9341, 0], "smartPhoneRequired": false, "interior": "GOOD", "exterior": "GOOD", "address": "Via Magliano Sabina, 24, 00199 Roma", "fuel": 100, "engineType": "CE"}, {"name": "263/ET905WT", "vin": "WME4513341K708937", "coordinates": [12.44339, 41.92435, 0], "smartPhoneRequired": false, "interior": "GOOD", "exterior": "GOOD", "address": "Via Ferdinando Pinelli, 12, 00136 Roma", "fuel": 81, "engineType": "CE"}, {"name": "473/EV310TP", "vin": "WME4513341K771063", "coordinates": [12.46608, 41.85477, 0], "smartPhoneRequired": false, "interior": "GOOD", "exterior": "GOOD", "address": "Via della Vasca Navale, 107, 00146 Roma", "fuel": 100, "engineType": "CE"}, {"name": "057/ET699WT", "vin": "WME4513341K738472", "coordinates": [12.46823, 41.93005, 0], "smartPhoneRequired": false, "interior": "GOOD", "exterior": "GOOD", "address": "Via Masaccio, 1, 00196 Roma", "fuel": 87, "engineType": "CE"}, {"name": "580/EX481DK", "vin": "WME4513341K751562", "coordinates": [12.52918, 41.94007, 0], "smartPhoneRequired": false, "interior": "GOOD", "exterior": "GOOD", "address": "Viale Tirreno, 3256, 00141 Roma", "fuel": 24, "engineType": "CE"}, {"name": "052/ET694WT", "vin": "WME4513341K738083", "coordinates": [12.42761, 41.93748, 0], "smartPhoneRequired": false, "interior": "GOOD", "exterior": "GOOD", "address": "Via Trionfale, 8250, 00135 Roma", "fuel": 100, "engineType": "CE"}, {"name": "401/EV620NT", "vin": "WME4513341K771229", "coordinates": [12.46574, 41.89879, 0], "smartPhoneRequired": false, "interior": "GOOD", "exterior": "GOOD", "address": "Via Giulia, 67, 00186 Roma", "fuel": 100, "engineType": "CE"}, {"name": "386/EY102PF", "vin": "WME4513341K772850", "coordinates": [12.44204, 41.85866, 0], "smartPhoneRequired": false, "interior": "GOOD", "exterior": "GOOD", "address": "Via Isacco Newton, 40-62, 00151 Roma", "fuel": 60, "engineType": "CE"}, {"name": "540/EX442DK", "vin": "WME4513341K747254", "coordinates": [12.45693, 41.91087, 0], "smartPhoneRequired": false, "interior": "GOOD", "exterior": "GOOD", "address": "Via Otranto, 55, 00192 Roma", "fuel": 69, "engineType": "CE"}, {"name": "177/ET819WT", "vin": "WME4513341K740316", "coordinates": [12.47271, 41.94952, 0], "smartPhoneRequired": false, "interior": "GOOD", "exterior": "GOOD", "address": "Piazza Luigi Diodati, 00191 Roma", "fuel": 87, "engineType": "CE"}, {"name": "535/EX650DK", "vin": "WME4513341K747727", "coordinates": [12.47127, 41.91989, 0], "smartPhoneRequired": false, "interior": "GOOD", "exterior": "GOOD", "address": "Lungotevere Flaminio, 11-15, 00195 Roma", "fuel": 100, "engineType": "CE"}, {"name": "195/ET837WT", "vin": "WME4513341K740534", "coordinates": [12.46467, 41.9156, 0], "smartPhoneRequired": false, "interior": "GOOD", "exterior": "GOOD", "address": "Via Luigi Settembrini, 52, 00195 Roma", "fuel": 51, "engineType": "CE"}, {"name": "070/ET712WT", "vin": "WME4513341K738916", "coordinates": [12.49117, 41.91757, 0], "smartPhoneRequired": false, "interior": "GOOD", "exterior": "GOOD", "address": "Via Gerolamo Frescobaldi, 1-9, 00198 Roma", "fuel": 100, "engineType": "CE"}, {"name": "330/EV520NT", "vin": "WME4513341K745437", "coordinates": [12.42556, 41.94177, 0], "smartPhoneRequired": false, "interior": "GOOD", "exterior": "GOOD", "address": "Via Angelo Fava, 46, 00135 Roma", "fuel": 45, "engineType": "CE"}, {"name": "279/ET921WT", "vin": "WME4513341K710738", "coordinates": [12.49542, 41.91519, 0], "smartPhoneRequired": false, "interior": "GOOD", "exterior": "GOOD", "address": "Via Giulio Caccini, 1-9, 00198 Roma", "fuel": 72, "engineType": "CE"}, {"name": "062/ET704WT", "vin": "WME4513341K738672", "coordinates": [12.53195, 41.87289, 0], "smartPhoneRequired": false, "interior": "GOOD", "exterior": "GOOD", "address": "Via Tuscolana, 367-387, 00181 Roma", "fuel": 75, "engineType": "CE"}, {"name": "089/ET731WT", "vin": "WME4513341K737927", "coordinates": [12.48124, 41.9088, 0], "smartPhoneRequired": false, "interior": "GOOD", "exterior": "GOOD", "address": "Viale della Trinit\u00e0 dei Monti, 1, 00187 Roma", "fuel": 33, "engineType": "CE"}, {"name": "344/EV523NT", "vin": "WME4513341K745946", "coordinates": [12.49643, 41.91023, 0], "smartPhoneRequired": false, "interior": "GOOD", "exterior": "GOOD", "address": "Via Lucania, 23, 00198 Roma", "fuel": 100, "engineType": "CE"}, {"name": "127/ET769WT", "vin": "WME4513341K730178", "coordinates": [12.45986, 41.88463, 0], "smartPhoneRequired": false, "interior": "GOOD", "exterior": "GOOD", "address": "Via del Vascello, 37, 00152 Roma", "fuel": 81, "engineType": "CE"}, {"name": "552/EX591DK", "vin": "WME4513341K744616", "coordinates": [12.47579, 41.87948, 0], "smartPhoneRequired": false, "interior": "GOOD", "exterior": "GOOD", "address": "Via Giovanni Battista Bodoni, 53, 00153 Roma", "fuel": 100, "engineType": "CE"}, {"name": "300/ET942WT", "vin": "WME4513341K709999", "coordinates": [12.45007, 41.82288, 0], "smartPhoneRequired": false, "interior": "GOOD", "exterior": "GOOD", "address": "Via Oslo, 11, 00144 Roma", "fuel": 100, "engineType": "CE"}, {"name": "064/ET706WT", "vin": "WME4513341K738696", "coordinates": [12.46604, 41.88781, 0], "smartPhoneRequired": false, "interior": "GOOD", "exterior": "GOOD", "address": "Via Garibaldi, 28, 00153 Roma", "fuel": 51, "engineType": "CE"}, {"name": "285/ET927WT", "vin": "WME4513341K709945", "coordinates": [12.46594, 41.8878, 0], "smartPhoneRequired": false, "interior": "GOOD", "exterior": "GOOD", "address": "Via Garibaldi, 28, 00153 Roma", "fuel": 96, "engineType": "CE"}, {"name": "336/EV529NT", "vin": "WME4513341K745626", "coordinates": [12.42622, 41.90518, 0], "smartPhoneRequired": false, "interior": "GOOD", "exterior": "GOOD", "address": "Via Francesco Albergotti, 27, 00167 Roma", "fuel": 39, "engineType": "CE"}, {"name": "169/ET811WT", "vin": "WME4513341K740139", "coordinates": [12.48093, 41.8457, 0], "smartPhoneRequired": false, "interior": "GOOD", "exterior": "GOOD", "address": "Via Luigi Perna, 28, 00142 Roma", "fuel": 45, "engineType": "CE"}, {"name": "350/EV534NT", "vin": "WME4513341K749455", "coordinates": [12.51187, 41.93688, 0], "smartPhoneRequired": false, "interior": "GOOD", "exterior": "GOOD", "address": "Largo Pietro Mascagni, 5A, 00199 Roma", "fuel": 100, "engineType": "CE"}, {"name": "241/ET883WT", "vin": "WME4513341K741959", "coordinates": [12.50218, 41.91533, 0], "smartPhoneRequired": false, "interior": "GOOD", "exterior": "GOOD", "address": "Via Savoia, 51, 00198 Roma", "fuel": 100, "engineType": "CE"}, {"name": "261/ET903WT", "vin": "WME4513341K710483", "coordinates": [12.50095, 41.85211, 0], "smartPhoneRequired": false, "interior": "GOOD", "exterior": "GOOD", "address": "Via Giulio Aristide Sartorio, 20, 00147 Roma", "fuel": 42, "engineType": "CE"}, {"name": "092/ET734WT", "vin": "WME4513341K739177", "coordinates": [12.47248, 41.92947, 0], "smartPhoneRequired": false, "interior": "GOOD", "exterior": "GOOD", "address": "Via Pietro de Coubertin, 6, 00196 Roma", "fuel": 57, "engineType": "CE"}, {"name": "199/FE224SB", "vin": "WME4513341K740122", "coordinates": [12.44774, 41.86451, 0], "smartPhoneRequired": false, "interior": "GOOD", "exterior": "GOOD", "address": "Via Felice Amadori, 6, 00151 Roma", "fuel": 93, "engineType": "CE"}, {"name": "465/EV302TP", "vin": "WME4513341K770654", "coordinates": [12.46242, 41.84753, 0], "smartPhoneRequired": false, "interior": "GOOD", "exterior": "GOOD", "address": "Via Pieve Fosciana, 6, 00146 Roma", "fuel": 100, "engineType": "CE"}, {"name": "029/ET671WT", "vin": "WME4513341K743100", "coordinates": [12.51939, 41.91534, 0], "smartPhoneRequired": false, "interior": "GOOD", "exterior": "GOOD", "address": "Via di Villa Ricotti, 36, 00161 Roma", "fuel": 66, "engineType": "CE"}, {"name": "097/ET739WT", "vin": "WME4513341K729116", "coordinates": [12.42578, 41.94963, 0], "smartPhoneRequired": false, "interior": "GOOD", "exterior": "GOOD", "address": "Via Domenico Berti, 12-22, 00135 Roma", "fuel": 48, "engineType": "CE"}, {"name": "259/ET901WT", "vin": "WME4513341K710392", "coordinates": [12.47127, 41.88835, 0], "smartPhoneRequired": false, "interior": "GOOD", "exterior": "GOOD", "address": "Via di S. Francesco a Ripa, 14, 00153 Roma", "fuel": 100, "engineType": "CE"}, {"name": "433/EV651NT", "vin": "WME4513341K773076", "coordinates": [12.52454, 41.92365, 0], "smartPhoneRequired": false, "interior": "GOOD", "exterior": "GOOD", "address": "Via di S. Angela Merici, 1-3, 00162 Roma", "fuel": 78, "engineType": "CE"}, {"name": "334/EV504NT", "vin": "WME4513341K745596", "coordinates": [12.4814, 41.92478, 0], "smartPhoneRequired": false, "interior": "GOOD", "exterior": "GOOD", "address": "Via Filippo Civinini, 22, 00197 Roma", "fuel": 21, "engineType": "CE"}, {"name": "558/EX479DK", "vin": "WME4513341K751536", "coordinates": [12.52534, 41.87531, 0], "smartPhoneRequired": false, "interior": "GOOD", "exterior": "GOOD", "address": "Via Camilla, 29-31, 00181 Roma", "fuel": 69, "engineType": "CE"}, {"name": "185/ET827WT", "vin": "WME4513341K740453", "coordinates": [12.44225, 41.92318, 0], "smartPhoneRequired": false, "interior": "GOOD", "exterior": "GOOD", "address": "Via Teodosio Macrobio, 23, 00136 Roma", "fuel": 78, "engineType": "CE"}, {"name": "289/ET931WT", "vin": "WME4513341K711258", "coordinates": [12.48123, 41.92052, 0], "smartPhoneRequired": false, "interior": "GOOD", "exterior": "GOOD", "address": "Via Mangili Giuseppe, 34, 00197 Roma", "fuel": 51, "engineType": "CE"}, {"name": "467/EV304TP", "vin": "WME4513341K768934", "coordinates": [12.45565, 41.94596, 0], "smartPhoneRequired": false, "interior": "GOOD", "exterior": "GOOD", "address": "Via della Farnesina, 322, 00135 Roma", "fuel": 45, "engineType": "CE"}, {"name": "319/EV505NT", "vin": "WME4513341K744861", "coordinates": [12.48284, 41.89827, 0], "smartPhoneRequired": false, "interior": "GOOD", "exterior": "GOOD", "address": "Piazza Santi Apostoli, 51, 00187 Roma", "fuel": 100, "engineType": "CE"}, {"name": "310/EV490NT", "vin": "WME4513341K744168", "coordinates": [12.4578, 41.81602, 0], "smartPhoneRequired": false, "interior": "GOOD", "exterior": "GOOD", "address": "Via Paride Stefanini, 113, 00144 Roma", "fuel": 54, "engineType": "CE"}, {"name": "015/ET657WT", "vin": "WME4513341K742462", "coordinates": [12.42827, 41.90038, 0], "smartPhoneRequired": false, "interior": "GOOD", "exterior": "GOOD", "address": "Via di Boccea, 50-54, 00167 Roma", "fuel": 100, "engineType": "CE"}, {"name": "592/EX471DK", "vin": "WME4513341K751469", "coordinates": [12.47668, 41.88098, 0], "smartPhoneRequired": false, "interior": "GOOD", "exterior": "GOOD", "address": "Via Ludovico di Vartem\u00e0, 1, 00153 Roma", "fuel": 100, "engineType": "CE"}, {"name": "249/ET891WT", "vin": "WME4513341K742028", "coordinates": [12.53565, 41.90972, 0], "smartPhoneRequired": false, "interior": "GOOD", "exterior": "GOOD", "address": "Via Cupra, 13-15, 00157 Roma", "fuel": 100, "engineType": "CE"}, {"name": "314/EV501NT", "vin": "WME4513341K744493", "coordinates": [12.52694, 41.88714, 0], "smartPhoneRequired": false, "interior": "GOOD", "exterior": "GOOD", "address": "Circonvallazione Casilina, 136, 00176 Roma", "fuel": 30, "engineType": "CE"}, {"name": "488/EV324TP", "vin": "WME4513341K769617", "coordinates": [12.47791, 41.85009, 0], "smartPhoneRequired": false, "interior": "GOOD", "exterior": "GOOD", "address": "Via Laurentina, 5C, 00145 Roma", "fuel": 75, "engineType": "CE"}, {"name": "549/EX597DK", "vin": "WME4513341K745074", "coordinates": [12.51597, 41.92867, 0], "smartPhoneRequired": false, "interior": "GOOD", "exterior": "GOOD", "address": "Viale Eritrea, 103-109, 00199 Roma", "fuel": 45, "engineType": "CE"}, {"name": "448/EV666NT", "vin": "WME4513341K773269", "coordinates": [12.48858, 41.90618, 0], "smartPhoneRequired": false, "interior": "GOOD", "exterior": "GOOD", "address": "Via Liguria, 28, 00187 Roma", "fuel": 69, "engineType": "CE"}, {"name": "349/EV494NT", "vin": "WME4513341K749450", "coordinates": [12.49376, 41.91432, 0], "smartPhoneRequired": false, "interior": "GOOD", "exterior": "GOOD", "address": "Via Pinciana, 16-24, 00197 Roma", "fuel": 27, "engineType": "CE"}, {"name": "425/EV643NT", "vin": "WME4513341K773197", "coordinates": [12.43111, 41.90001, 0], "smartPhoneRequired": false, "interior": "GOOD", "exterior": "GOOD", "address": "Via Graziano, 43-49, 00165 Roma", "fuel": 100, "engineType": "CE"}, {"name": "388/EV607NT", "vin": "WME4513341K774073", "coordinates": [12.45812, 41.81595, 0], "smartPhoneRequired": false, "interior": "GOOD", "exterior": "GOOD", "address": "Via Paride Stefanini, 00144 Roma", "fuel": 69, "engineType": "CE"}, {"name": "080/ET722WT", "vin": "WME4513341K739108", "coordinates": [12.51315, 41.90067, 0], "smartPhoneRequired": false, "interior": "GOOD", "exterior": "GOOD", "address": "Via dei Marrucini, 60-62, 00185 Roma", "fuel": 75, "engineType": "CE"}, {"name": "366/EV585NT", "vin": "WME4513341K771178", "coordinates": [12.52557, 41.87014, 0], "smartPhoneRequired": false, "interior": "GOOD", "exterior": "GOOD", "address": "Via Arrigo Davila, 3, 00179 Roma", "fuel": 100, "engineType": "CE"}, {"name": "398/EV617NT", "vin": "WME4513341K773920", "coordinates": [12.51158, 41.93943, 0], "smartPhoneRequired": false, "interior": "GOOD", "exterior": "GOOD", "address": "Largo Temistocle Solera, 7, 00199 Roma", "fuel": 51, "engineType": "CE"}, {"name": "154/ET796WT", "vin": "WME4513341K739683", "coordinates": [12.50177, 41.9029, 0], "smartPhoneRequired": false, "interior": "GOOD", "exterior": "GOOD", "address": "Royal Parking Termini_Via Marsala 30/32", "fuel": 63, "engineType": "CE"}, {"name": "409/EV627NT", "vin": "WME4513341K771760", "coordinates": [12.46896, 41.93012, 0], "smartPhoneRequired": false, "interior": "GOOD", "exterior": "GOOD", "address": "Via Rabirio, 1, 00196 Roma", "fuel": 81, "engineType": "CE"}, {"name": "495/EV268TT", "vin": "WME4513341K785739", "coordinates": [12.50331, 41.9193, 0], "smartPhoneRequired": false, "interior": "GOOD", "exterior": "GOOD", "address": "Via Aterno, 12-14, 00198 Roma", "fuel": 84, "engineType": "CE"}, {"name": "397/EV616NT", "vin": "WME4513341K773054", "coordinates": [12.5004, 41.88114, 0], "smartPhoneRequired": false, "interior": "GOOD", "exterior": "GOOD", "address": "Via Tracia, 4, 00183 Roma", "fuel": 51, "engineType": "CE"}, {"name": "440/EV658NT", "vin": "WME4513341K773261", "coordinates": [12.45757, 41.94528, 0], "smartPhoneRequired": false, "interior": "GOOD", "exterior": "GOOD", "address": "Via Nemea, 61-67, 00135 Roma", "fuel": 42, "engineType": "CE"}, {"name": "081/ET723WT", "vin": "WME4513341K739112", "coordinates": [12.42355, 41.90178, 0], "smartPhoneRequired": false, "interior": "GOOD", "exterior": "GOOD", "address": "Via Federico Galeotti, 36, 00167 Roma", "fuel": 100, "engineType": "CE"}, {"name": "182/ET824WT", "vin": "WME4513341K740399", "coordinates": [12.52684, 41.87647, 0], "smartPhoneRequired": false, "interior": "GOOD", "exterior": "GOOD", "address": "Via Fonti del Clitunno, Roma", "fuel": 100, "engineType": "CE"}, {"name": "387/EV606NT", "vin": "WME4513341K771220", "coordinates": [12.4489, 41.86517, 0], "smartPhoneRequired": false, "interior": "GOOD", "exterior": "GOOD", "address": "Via Federico di Donato, 7, 00151 Roma", "fuel": 96, "engineType": "CE"}, {"name": "456/EV673NT", "vin": "WME4513341K770986", "coordinates": [12.45774, 41.92475, 0], "smartPhoneRequired": false, "interior": "GOOD", "exterior": "GOOD", "address": "Via di Prato Falcone, 15-29, 00135 Roma", "fuel": 36, "engineType": "CE"}, {"name": "287/ET929WT", "vin": "WME4513341K711241", "coordinates": [12.47843, 41.87191, 0], "smartPhoneRequired": false, "interior": "GOOD", "exterior": "GOOD", "address": "Via dei Magazzini Generali, 8, 00154 Roma", "fuel": 100, "engineType": "CE"}, {"name": "471/EV308TP", "vin": "WME4513341K770672", "coordinates": [12.48751, 41.92903, 0], "smartPhoneRequired": false, "interior": "GOOD", "exterior": "GOOD", "address": "Via Alberto Caroncini, 54-56, 00197 Roma", "fuel": 75, "engineType": "CE"}, {"name": "004/ET646WT", "vin": "WME4513341K742091", "coordinates": [12.5068, 41.92467, 0], "smartPhoneRequired": false, "interior": "GOOD", "exterior": "GOOD", "address": "Via Benaco, 15-21, 00199 Roma", "fuel": 33, "engineType": "CE"}, {"name": "184/ET826WT", "vin": "WME4513341K740416", "coordinates": [12.51182, 41.92623, 0], "smartPhoneRequired": false, "interior": "GOOD", "exterior": "GOOD", "address": "Via Lago di Lesina, 23, 00199 Roma", "fuel": 33, "engineType": "CE"}, {"name": "056/ET698WT", "vin": "WME4513341K738459", "coordinates": [12.4822, 41.89957, 0], "smartPhoneRequired": false, "interior": "GOOD", "exterior": "GOOD", "address": "Piazza dell'Oratorio, 76, 00187 Roma", "fuel": 72, "engineType": "CE"}, {"name": "559/EX470DK", "vin": "WME4513341K751420", "coordinates": [12.47539, 41.91466, 0], "smartPhoneRequired": false, "interior": "GOOD", "exterior": "GOOD", "address": "Via Mariano Fortuny, 8-14, 00196 Roma", "fuel": 66, "engineType": "CE"}, {"name": "250/ET892WT", "vin": "WME4513341K742041", "coordinates": [12.54971, 41.90409, 0], "smartPhoneRequired": false, "interior": "GOOD", "exterior": "GOOD", "address": "Via Sandro Sandri, 45-59, 00159 Roma", "fuel": 30, "engineType": "CE"}, {"name": "283/ET925WT", "vin": "WME4513341K711052", "coordinates": [12.48511, 41.88138, 0], "smartPhoneRequired": false, "interior": "GOOD", "exterior": "GOOD", "address": "Viale Aventino, 98, 00153 Roma", "fuel": 100, "engineType": "CE"}, {"name": "430/EV648NT", "vin": "WME4513341K770191", "coordinates": [12.49416, 41.91612, 0], "smartPhoneRequired": false, "interior": "GOOD", "exterior": "GOOD", "address": "Via Giovanni Paisiello, 2, 00198 Roma", "fuel": 60, "engineType": "CE"}, {"name": "165/ET807WT", "vin": "WME4513341K740059", "coordinates": [12.46152, 41.86445, 0], "smartPhoneRequired": false, "interior": "GOOD", "exterior": "GOOD", "address": "Via Ettore Paladini, 3, 00149 Roma", "fuel": 66, "engineType": "CE"}, {"name": "274/ET941WT", "vin": "WME4513341K709990", "coordinates": [12.45565, 41.87442, 0], "smartPhoneRequired": false, "interior": "GOOD", "exterior": "GOOD", "address": "Via di Donna Olimpia, 224, 00152 Roma", "fuel": 100, "engineType": "CE"}, {"name": "352/EV571NT", "vin": "WME4513341K771831", "coordinates": [12.49483, 41.91969, 0], "smartPhoneRequired": false, "interior": "GOOD", "exterior": "GOOD", "address": "Piazza Giuseppe Verdi, 9, 00198 Roma", "fuel": 63, "engineType": "CE"}, {"name": "134/ET776WT", "vin": "WME4513341K737169", "coordinates": [12.51142, 41.91012, 0], "smartPhoneRequired": false, "interior": "GOOD", "exterior": "GOOD", "address": "Via Giovanni Battista Morgagni, 31, 00161 Roma", "fuel": 45, "engineType": "CE"}, {"name": "536/EX648DK", "vin": "WME4513341K747693", "coordinates": [12.47476, 41.83605, 0], "smartPhoneRequired": false, "interior": "GOOD", "exterior": "GOOD", "address": "Piazzale dell'Industria, 20, 00144 Roma", "fuel": 66, "engineType": "CE"}, {"name": "600/EX586DK", "vin": "WME4513341K750431", "coordinates": [12.46041, 41.93661, 0], "smartPhoneRequired": false, "interior": "GOOD", "exterior": "GOOD", "address": "Piazzale della Farnesina, 890, 00135 Roma", "fuel": 66, "engineType": "CE"}, {"name": "377/EX193XV", "vin": "WME4513341K771723", "coordinates": [12.47264, 41.91895, 0], "smartPhoneRequired": false, "interior": "GOOD", "exterior": "GOOD", "address": "Piazzale delle Belle Arti, 8, 00196 Roma", "fuel": 100, "engineType": "CE"}, {"name": "167/ET809WT", "vin": "WME4513341K740110", "coordinates": [12.45655, 41.9108, 0], "smartPhoneRequired": false, "interior": "GOOD", "exterior": "GOOD", "address": "Viale delle Milizie, 124, 00192 Roma", "fuel": 69, "engineType": "CE"}, {"name": "571/EX602DK", "vin": "WME4513341K750777", "coordinates": [12.46438, 41.89688, 0], "smartPhoneRequired": false, "interior": "GOOD", "exterior": "GOOD", "address": "Lungotevere Gianicolense, 31-57, 00186 Roma", "fuel": 21, "engineType": "CE"}, {"name": "575/EY100PF", "vin": "WME4513341K750717", "coordinates": [12.52727, 41.87558, 0], "smartPhoneRequired": false, "interior": "GOOD", "exterior": "GOOD", "address": "Via Tuscolana, 328, 00181 Roma", "fuel": 45, "engineType": "CE"}, {"name": "170/ET812WT", "vin": "WME4513341K740143", "coordinates": [12.50177, 41.9029, 0], "smartPhoneRequired": false, "interior": "GOOD", "exterior": "GOOD", "address": "Royal Parking Termini_Via Marsala 30/32", "fuel": 75, "engineType": "CE"}, {"name": "546/EX615DK", "vin": "WME4513341K745537", "coordinates": [12.46179, 41.92037, 0], "smartPhoneRequired": false, "interior": "GOOD", "exterior": "GOOD", "address": "Via Timavo, 6, 00195 Roma", "fuel": 100, "engineType": "CE"}, {"name": "451/EV668NT", "vin": "WME4513341K770665", "coordinates": [12.45994, 41.94726, 0], "smartPhoneRequired": false, "interior": "GOOD", "exterior": "GOOD", "address": "Via Nemea, 21, 00135 Roma", "fuel": 78, "engineType": "CE"}, {"name": "129/ET771WT", "vin": "WME4513341K730326", "coordinates": [12.44942, 41.86849, 0], "smartPhoneRequired": false, "interior": "GOOD", "exterior": "GOOD", "address": "Via Gian Matteo Giberti, 18-22, 00151 Roma", "fuel": 39, "engineType": "CE"}, {"name": "363/EV582NT", "vin": "WME4513341K771822", "coordinates": [12.48053, 41.92113, 0], "smartPhoneRequired": false, "interior": "GOOD", "exterior": "GOOD", "address": "Via Luigi Luciani, 2-6, 00197 Roma", "fuel": 78, "engineType": "CE"}, {"name": "158/ET800WT", "vin": "WME4513341K739743", "coordinates": [12.45351, 41.82756, 0], "smartPhoneRequired": false, "interior": "GOOD", "exterior": "GOOD", "address": "Viale Egeo, 6210, 00144 Roma", "fuel": 45, "engineType": "CE"}, {"name": "489/EV325TP", "vin": "WME4513341K769795", "coordinates": [12.45815, 41.81592, 0], "smartPhoneRequired": false, "interior": "GOOD", "exterior": "GOOD", "address": "Via Paride Stefanini, 00144 Roma", "fuel": 27, "engineType": "CE"}, {"name": "364/FD204EV", "vin": "WME4513341K771993", "coordinates": [12.46317, 41.88037, 0], "smartPhoneRequired": false, "interior": "GOOD", "exterior": "GOOD", "address": "Via Alessandro Poerio, 46, 00152 Roma", "fuel": 81, "engineType": "CE"}, {"name": "069/ET711WT", "vin": "WME4513341K738769", "coordinates": [12.48492, 41.89571, 0], "smartPhoneRequired": false, "interior": "GOOD", "exterior": "GOOD", "address": "Piazza Foro Traiano, 1, 00187 Roma", "fuel": 63, "engineType": "CE"}, {"name": "529/EX454DK", "vin": "WME4513341K750455", "coordinates": [12.45268, 41.91391, 0], "smartPhoneRequired": false, "interior": "GOOD", "exterior": "GOOD", "address": "Via Nazario Sauro, 15, 00195 Roma", "fuel": 93, "engineType": "CE"}, {"name": "210/ET852WT", "vin": "WME4513341K741289", "coordinates": [12.45068, 41.89358, 0], "smartPhoneRequired": false, "interior": "GOOD", "exterior": "GOOD", "address": "Via della Cava Aurelia, 183, 00165 Roma", "fuel": 72, "engineType": "CE"}, {"name": "399/EV618NT", "vin": "WME4513341K773727", "coordinates": [12.51253, 41.924, 0], "smartPhoneRequired": false, "interior": "GOOD", "exterior": "GOOD", "address": "Via Annone, 2-4, 00199 Roma", "fuel": 100, "engineType": "CE"}, {"name": "528/EX698DK", "vin": "WME4513341K750690", "coordinates": [12.50587, 41.90024, 0], "smartPhoneRequired": false, "interior": "GOOD", "exterior": "GOOD", "address": "Via Marsala, 105-107, 00185 Roma", "fuel": 24, "engineType": "CE"}, {"name": "413/EX190XV", "vin": "WME4513341K770321", "coordinates": [12.4835, 41.88307, 0], "smartPhoneRequired": false, "interior": "GOOD", "exterior": "GOOD", "address": "Via di Santa Prisca, 16, 00153 Roma", "fuel": 100, "engineType": "CE"}, {"name": "538/EX649DK", "vin": "WME4513341K747467", "coordinates": [12.46848, 41.91883, 0], "smartPhoneRequired": false, "interior": "GOOD", "exterior": "GOOD", "address": "Via Marcello Prestinari, 1-3, 00195 Roma", "fuel": 27, "engineType": "CE"}, {"name": "003/ET296WS", "vin": "WME4513341K709365", "coordinates": [12.48079, 41.90906, 0], "smartPhoneRequired": false, "interior": "GOOD", "exterior": "GOOD", "address": "Viale della Trinit\u00e0 dei Monti, 1, 00187 Roma", "fuel": 100, "engineType": "CE"}, {"name": "486/EV295TP", "vin": "WME4513341K767723", "coordinates": [12.47128, 41.8825, 0], "smartPhoneRequired": false, "interior": "GOOD", "exterior": "GOOD", "address": "Via Leopoldo Serra, 12, 00153 Roma", "fuel": 30, "engineType": "CE"}, {"name": "445/EV663NT", "vin": "WME4513341K770262", "coordinates": [12.50636, 41.92416, 0], "smartPhoneRequired": false, "interior": "GOOD", "exterior": "GOOD", "address": "Via Benaco, 15, 00199 Roma", "fuel": 90, "engineType": "CE"}, {"name": "545/EX616DK", "vin": "WME4513341K745555", "coordinates": [12.47302, 41.88539, 0], "smartPhoneRequired": false, "interior": "GOOD", "exterior": "GOOD", "address": "Piazza di S. Francesco d'Assisi, 75, 00153 Roma", "fuel": 72, "engineType": "CE"}, {"name": "246/ET888WT", "vin": "WME4513341K741997", "coordinates": [12.47261, 41.82844, 0], "smartPhoneRequired": false, "interior": "GOOD", "exterior": "GOOD", "address": "Viale America, 359, 00144 Roma", "fuel": 51, "engineType": "CE"}, {"name": "273/ET915WT", "vin": "WME4513341K710690", "coordinates": [12.45821, 41.81591, 0], "smartPhoneRequired": false, "interior": "GOOD", "exterior": "GOOD", "address": "Via Paride Stefanini, 00144 Roma", "fuel": 100, "engineType": "CE"}, {"name": "348/EV500NT", "vin": "WME4513341K749429", "coordinates": [12.47399, 41.93337, 0], "smartPhoneRequired": false, "interior": "GOOD", "exterior": "GOOD", "address": "Via Bulgaria, 15, 00196 Roma", "fuel": 84, "engineType": "CE"}, {"name": "562/EX449DK", "vin": "WME4513341K751277", "coordinates": [12.46538, 41.89822, 0], "smartPhoneRequired": false, "interior": "GOOD", "exterior": "GOOD", "address": "Vicolo del Cefalo, 12-15, 00186 Roma", "fuel": 51, "engineType": "CE"}, {"name": "437/EV655NT", "vin": "WME4513341K771712", "coordinates": [12.52787, 41.93836, 0], "smartPhoneRequired": false, "interior": "GOOD", "exterior": "GOOD", "address": "Via Conca d'Oro, 123, 00141 Roma", "fuel": 78, "engineType": "CE"}, {"name": "275/ET917WT", "vin": "WME4513341K710700", "coordinates": [12.47635, 41.94689, 0], "smartPhoneRequired": false, "interior": "GOOD", "exterior": "GOOD", "address": "Via Morlupo, 26, 00191 Roma", "fuel": 66, "engineType": "CE"}, {"name": "423/EV641NT", "vin": "WME4513341K772462", "coordinates": [12.47684, 41.87234, 0], "smartPhoneRequired": false, "interior": "GOOD", "exterior": "GOOD", "address": "Via del Porto Fluviale, 35, 00154 Roma", "fuel": 81, "engineType": "CE"}, {"name": "212/ET854WT", "vin": "WME4513341K741368", "coordinates": [12.47023, 41.92437, 0], "smartPhoneRequired": false, "interior": "GOOD", "exterior": "GOOD", "address": "Viale del Vignola, 14, 00196 Roma", "fuel": 54, "engineType": "CE"}, {"name": "083/ET725WT", "vin": "WME4513341K739138", "coordinates": [12.43339, 41.89382, 0], "smartPhoneRequired": false, "interior": "GOOD", "exterior": "GOOD", "address": "Via Gregorio VII, 436-454, 00165 Roma", "fuel": 60, "engineType": "CE"}, {"name": "172/ET814WT", "vin": "WME4513341K740158", "coordinates": [12.49573, 41.83301, 0], "smartPhoneRequired": false, "interior": "GOOD", "exterior": "GOOD", "address": "Via Andrea del Sarto, Roma", "fuel": 42, "engineType": "CE"}, {"name": "557/EX656DK", "vin": "WME4513341K751607", "coordinates": [12.4605, 41.88395, 0], "smartPhoneRequired": false, "interior": "GOOD", "exterior": "GOOD", "address": "Via Oreste Regnoli, 2-4, 00152 Roma", "fuel": 57, "engineType": "CE"}, {"name": "026/ET668WT", "vin": "WME4513341K742998", "coordinates": [12.46236, 41.91835, 0], "smartPhoneRequired": false, "interior": "GOOD", "exterior": "GOOD", "address": "Via Montello, 1-5, 00195 Roma", "fuel": 72, "engineType": "CE"}, {"name": "458/EV675NT", "vin": "WME4513341K770347", "coordinates": [12.45597, 41.86035, 0], "smartPhoneRequired": false, "interior": "GOOD", "exterior": "GOOD", "address": "Via Gaudenzio Fantoli, 15, 00149 Roma", "fuel": 96, "engineType": "CE"}, {"name": "007/ET649WT", "vin": "WME4513341K742319", "coordinates": [12.49284, 41.91291, 0], "smartPhoneRequired": false, "interior": "GOOD", "exterior": "GOOD", "address": "Via Pinciana, 36-48, 00198 Roma", "fuel": 30, "engineType": "CE"}, {"name": "303/ET945WT", "vin": "WME4513341K726997", "coordinates": [12.45951, 41.86272, 0], "smartPhoneRequired": false, "interior": "GOOD", "exterior": "GOOD", "address": "Viale di Vigna Pia, 112, 00149 Roma", "fuel": 100, "engineType": "CE"}, {"name": "517/EX710DK", "vin": "WME4513341K751769", "coordinates": [12.46219, 41.9156, 0], "smartPhoneRequired": false, "interior": "GOOD", "exterior": "GOOD", "address": "Viale Giuseppe Mazzini, 92, 00195 Roma", "fuel": 45, "engineType": "CE"}, {"name": "258/ET900WT", "vin": "WME4513341K710369", "coordinates": [12.48805, 41.92943, 0], "smartPhoneRequired": false, "interior": "GOOD", "exterior": "GOOD", "address": "Via di Vigna Filonardi, 4, 00197 Roma", "fuel": 100, "engineType": "CE"}, {"name": "125/ET767WT", "vin": "WME4513341K730132", "coordinates": [12.47249, 41.9482, 0], "smartPhoneRequired": false, "interior": "GOOD", "exterior": "GOOD", "address": "Via Civitella d'Agliano, 24-32, 00191 Roma", "fuel": 100, "engineType": "CE"}, {"name": "183/ET825WT", "vin": "WME4513341K740407", "coordinates": [12.47283, 41.89621, 0], "smartPhoneRequired": false, "interior": "GOOD", "exterior": "GOOD", "address": "Piazza del Teatro di Pompeo, 15-18, 00186 Roma", "fuel": 69, "engineType": "CE"}, {"name": "178/ET820WT", "vin": "WME4513341K740336", "coordinates": [12.46601, 41.8878, 0], "smartPhoneRequired": false, "interior": "GOOD", "exterior": "GOOD", "address": "Via Garibaldi, 28, 00153 Roma", "fuel": 63, "engineType": "CE"}, {"name": "335/EV527NT", "vin": "WME4513341K745624", "coordinates": [12.44724, 41.85994, 0], "smartPhoneRequired": false, "interior": "GOOD", "exterior": "GOOD", "address": "Via Antonio Dionisi, 12-16, 00151 Roma", "fuel": 72, "engineType": "CE"}, {"name": "332/EV522NT", "vin": "WME4513341K745457", "coordinates": [12.52547, 41.88421, 0], "smartPhoneRequired": false, "interior": "GOOD", "exterior": "GOOD", "address": "Via Montepulciano, 49-63, 00182 Roma", "fuel": 100, "engineType": "CE"}, {"name": "438/EV656NT", "vin": "WME4513341K772342", "coordinates": [12.48407, 41.8919, 0], "smartPhoneRequired": false, "interior": "GOOD", "exterior": "GOOD", "address": "Foro Romano, 4, 00186 Roma", "fuel": 54, "engineType": "CE"}, {"name": "379/EV598NT", "vin": "WME4513341K772403", "coordinates": [12.4466, 41.90142, 0], "smartPhoneRequired": false, "interior": "GOOD", "exterior": "GOOD", "address": "Viale Vaticano, 40, 00165 Roma", "fuel": 45, "engineType": "CE"}, {"name": "435/EV653NT", "vin": "WME4513341K771863", "coordinates": [12.446, 41.91663, 0], "smartPhoneRequired": false, "interior": "GOOD", "exterior": "GOOD", "address": "Via Alberto Cadlolo, 131-143, 00136 Roma", "fuel": 81, "engineType": "CE"}, {"name": "168/ET810WT", "vin": "WME4513341K740131", "coordinates": [12.5286, 41.91006, 0], "smartPhoneRequired": false, "interior": "GOOD", "exterior": "GOOD", "address": "Via Guido Mazzoni, Roma", "fuel": 39, "engineType": "CE"}, {"name": "209/ET851WT", "vin": "WME4513341K741234", "coordinates": [12.43661, 41.91393, 0], "smartPhoneRequired": false, "interior": "GOOD", "exterior": "GOOD", "address": "Via Proba Petronia, 75, 00136 Roma", "fuel": 100, "engineType": "CE"}, {"name": "270/ET912WT", "vin": "WME4513341K710669", "coordinates": [12.42592, 41.90513, 0], "smartPhoneRequired": false, "interior": "GOOD", "exterior": "GOOD", "address": "Via Francesco Albergotti, 11-23, 00167 Roma", "fuel": 84, "engineType": "CE"}, {"name": "503/EX429DK", "vin": "WME4513341K751034", "coordinates": [12.47715, 41.93301, 0], "smartPhoneRequired": false, "interior": "GOOD", "exterior": "GOOD", "address": "Via India, 9, 00196 Roma", "fuel": 100, "engineType": "CE"}, {"name": "055/ET697WT", "vin": "WME4513341K738453", "coordinates": [12.45928, 41.83346, 0], "smartPhoneRequired": false, "interior": "GOOD", "exterior": "GOOD", "address": "Piazzale dei Santi Pietro e Paolo, 10, 00144 Roma", "fuel": 60, "engineType": "CE"}, {"name": "532/EX588DK", "vin": "WME4513341K747888", "coordinates": [12.48888, 41.87394, 0], "smartPhoneRequired": false, "interior": "GOOD", "exterior": "GOOD", "address": "Via Girolamo Dandini, 2-14, 00154 Roma", "fuel": 100, "engineType": "CE"}, {"name": "566/EX431DK", "vin": "WME4513341K751010", "coordinates": [12.49299, 41.89251, 0], "smartPhoneRequired": false, "interior": "GOOD", "exterior": "GOOD", "address": "Largo della Polveriera, 34, 00184 Roma", "fuel": 69, "engineType": "CE"}, {"name": "053/ET695WT", "vin": "WME4513341K738371", "coordinates": [12.48491, 41.82, 0], "smartPhoneRequired": false, "interior": "GOOD", "exterior": "GOOD", "address": "Via degli Artificieri, 67, 00143 Roma", "fuel": 39, "engineType": "CE"}, {"name": "025/ET667WT", "vin": "WME4513341K742991", "coordinates": [12.4944, 41.86999, 0], "smartPhoneRequired": false, "interior": "GOOD", "exterior": "GOOD", "address": "Via Rodrigo de Triana, 00154 Roma", "fuel": 78, "engineType": "CE"}, {"name": "407/EV626NT", "vin": "WME4513341K771794", "coordinates": [12.4507, 41.89326, 0], "smartPhoneRequired": false, "interior": "GOOD", "exterior": "GOOD", "address": "Via della Cava Aurelia, 195, 00165 Roma", "fuel": 60, "engineType": "CE"}, {"name": "173/ET815WT", "vin": "WME4513341K740184", "coordinates": [12.47449, 41.94739, 0], "smartPhoneRequired": false, "interior": "GOOD", "exterior": "GOOD", "address": "Via Flaminia, 760, 00191 Roma", "fuel": 45, "engineType": "CE"}, {"name": "329/EV519NT", "vin": "WME4513341K745427", "coordinates": [12.49518, 41.91069, 0], "smartPhoneRequired": false, "interior": "GOOD", "exterior": "GOOD", "address": "Via Campania, 67-69, 00187 Roma", "fuel": 33, "engineType": "CE"}, {"name": "389/EV608NT", "vin": "WME4513341K771953", "coordinates": [12.5409, 41.9399, 0], "smartPhoneRequired": false, "interior": "GOOD", "exterior": "GOOD", "address": "Via Jacopo Sannazzaro, 71, 00141 Roma", "fuel": 60, "engineType": "CE"}, {"name": "492/EV255TT", "vin": "WME4513341K784762", "coordinates": [12.50177, 41.9029, 0], "smartPhoneRequired": false, "interior": "GOOD", "exterior": "GOOD", "address": "Royal Parking Termini_Via Marsala 30/32", "fuel": 84, "engineType": "CE"}, {"name": "120/ET762WT", "vin": "WME4513341K729924", "coordinates": [12.49566, 41.90915, 0], "smartPhoneRequired": false, "interior": "GOOD", "exterior": "GOOD", "address": "Via Puglie, 1, 00187 Roma", "fuel": 60, "engineType": "CE"}, {"name": "544/EX617DK", "vin": "WME4513341K745571", "coordinates": [12.52087, 41.94262, 0], "smartPhoneRequired": false, "interior": "GOOD", "exterior": "GOOD", "address": "Via Conca d'Oro, 245, 00141 Roma", "fuel": 51, "engineType": "CE"}, {"name": "220/ET862WT", "vin": "WME4513341K741497", "coordinates": [12.4832, 41.92536, 0], "smartPhoneRequired": false, "interior": "GOOD", "exterior": "GOOD", "address": "Via Domenico Chelini, 5-7, 00197 Roma", "fuel": 63, "engineType": "CE"}, {"name": "525/EX608DK", "vin": "WME4513341K750828", "coordinates": [12.46228, 41.88169, 0], "smartPhoneRequired": false, "interior": "GOOD", "exterior": "GOOD", "address": "Via Felice Cavallotti, 99-107, 00152 Roma", "fuel": 100, "engineType": "CE"}, {"name": "095/ET737WT", "vin": "WME4513341K739441", "coordinates": [12.45034, 41.87629, 0], "smartPhoneRequired": false, "interior": "GOOD", "exterior": "GOOD", "address": "Via Fabiola, 10-22, 00152 Roma", "fuel": 100, "engineType": "CE"}, {"name": "383/EV602NT", "vin": "WME4513341K771252", "coordinates": [12.51481, 41.91509, 0], "smartPhoneRequired": false, "interior": "GOOD", "exterior": "GOOD", "address": "Via Antonio Bosio, 23, 00161 Roma", "fuel": 100, "engineType": "CE"}, {"name": "118/ET760WT", "vin": "WME4513341K729894", "coordinates": [12.47656, 41.92795, 0], "smartPhoneRequired": false, "interior": "GOOD", "exterior": "GOOD", "address": "Via Archimede, 199, 00197 Roma", "fuel": 48, "engineType": "CE"}, {"name": "156/ET798WT", "vin": "WME4513341K739711", "coordinates": [12.46024, 41.94731, 0], "smartPhoneRequired": false, "interior": "GOOD", "exterior": "GOOD", "address": "Via Nemea, 24-34, 00135 Roma", "fuel": 48, "engineType": "CE"}, {"name": "542/EX721DK", "vin": "WME4513341K746064", "coordinates": [12.45811, 41.81593, 0], "smartPhoneRequired": false, "interior": "GOOD", "exterior": "GOOD", "address": "Via Paride Stefanini, 00144 Roma", "fuel": 60, "engineType": "CE"}, {"name": "372/EV591NT", "vin": "WME4513341K771265", "coordinates": [12.53261, 41.9365, 0], "smartPhoneRequired": false, "interior": "GOOD", "exterior": "GOOD", "address": "Viale Tirreno, 32, 00141 Roma", "fuel": 100, "engineType": "CE"}, {"name": "161/ET803WT", "vin": "WME4513341K740016", "coordinates": [12.4903, 41.87219, 0], "smartPhoneRequired": false, "interior": "GOOD", "exterior": "GOOD", "address": "Viale Marco Polo, 104, 00154 Roma", "fuel": 93, "engineType": "CE"}, {"name": "572/EX592DK", "vin": "WME4513341K750754", "coordinates": [12.44689, 41.90246, 0], "smartPhoneRequired": false, "interior": "GOOD", "exterior": "GOOD", "address": "Viale Vaticano, 44-46, 00136 Roma", "fuel": 42, "engineType": "CE"}, {"name": "567/EX428DK", "vin": "WME4513341K750989", "coordinates": [12.44159, 41.81419, 0], "smartPhoneRequired": false, "interior": "GOOD", "exterior": "GOOD", "address": "Via Fiume Bianco, 67, 00144 Roma", "fuel": 84, "engineType": "CE"}, {"name": "087/ET729WT", "vin": "WME4513341K737903", "coordinates": [12.47982, 41.87094, 0], "smartPhoneRequired": false, "interior": "GOOD", "exterior": "GOOD", "address": "Via Ostiense, 62, 00154 Roma", "fuel": 51, "engineType": "CE"}, {"name": "410/EV628NT", "vin": "WME4513341K772358", "coordinates": [12.45947, 41.94721, 0], "smartPhoneRequired": false, "interior": "GOOD", "exterior": "GOOD", "address": "Via Nemea, 21, 00135 Roma", "fuel": 100, "engineType": "CE"}, {"name": "267/ET909WT", "vin": "WME4513341K710651", "coordinates": [12.44792, 41.8656, 0], "smartPhoneRequired": false, "interior": "GOOD", "exterior": "GOOD", "address": "Via Giulio Tarra, 19, 00151 Roma", "fuel": 78, "engineType": "CE"}, {"name": "563/EX438DK", "vin": "WME4513341K751183", "coordinates": [12.4729, 41.87896, 0], "smartPhoneRequired": false, "interior": "GOOD", "exterior": "GOOD", "address": "Via Giovanni Branca, 120, 00153 Roma", "fuel": 21, "engineType": "CE"}, {"name": "408/EV298TP", "vin": "WME4513341K767685", "coordinates": [12.45556, 41.91676, 0], "smartPhoneRequired": false, "interior": "GOOD", "exterior": "GOOD", "address": "Piazzale Clodio, 9, 00195 Roma", "fuel": 51, "engineType": "CE"}, {"name": "020/ET662WT", "vin": "WME4513341K742561", "coordinates": [12.47888, 41.91935, 0], "smartPhoneRequired": false, "interior": "GOOD", "exterior": "GOOD", "address": "Via Antonio Gramsci, 66-72, 00197 Roma", "fuel": 81, "engineType": "CE"}, {"name": "101/ET743WT", "vin": "WME4513341K729190", "coordinates": [12.46062, 41.84826, 0], "smartPhoneRequired": false, "interior": "GOOD", "exterior": "GOOD", "address": "Via Lari, 46-80, 00146 Roma", "fuel": 63, "engineType": "CE"}, {"name": "420/EV638NT", "vin": "WME4513341K770118", "coordinates": [12.4762, 41.91935, 0], "smartPhoneRequired": false, "interior": "GOOD", "exterior": "GOOD", "address": "Viale Bruno Buozzi, 110, 00197 Roma", "fuel": 100, "engineType": "CE"}, {"name": "327/EV510NT", "vin": "WME4513341K745150", "coordinates": [12.45804, 41.81593, 0], "smartPhoneRequired": false, "interior": "GOOD", "exterior": "GOOD", "address": "Via Paride Stefanini, 00144 Roma", "fuel": 100, "engineType": "CE"}, {"name": "133/ET775WT", "vin": "WME4513341K730580", "coordinates": [12.52225, 41.88672, 0], "smartPhoneRequired": false, "interior": "GOOD", "exterior": "GOOD", "address": "Via Ozieri, 3, 00182 Roma", "fuel": 54, "engineType": "CE"}, {"name": "459/EV676NT", "vin": "WME4513341K769202", "coordinates": [12.48872, 41.82987, 0], "smartPhoneRequired": false, "interior": "GOOD", "exterior": "GOOD", "address": "Via Duccio di Buoninsegna, 15, 00142 Roma", "fuel": 39, "engineType": "CE"}, {"name": "075/ET717WT", "vin": "WME4513341K739048", "coordinates": [12.51592, 41.93869, 0], "smartPhoneRequired": false, "interior": "GOOD", "exterior": "GOOD", "address": "Via Pietro Mascagni, 134, 00199 Roma", "fuel": 30, "engineType": "CE"}, {"name": "115/ET757WT", "vin": "WME4513341K729829", "coordinates": [12.48628, 41.85675, 0], "smartPhoneRequired": false, "interior": "GOOD", "exterior": "GOOD", "address": "Via Costantino, 47, 00145 Roma", "fuel": 51, "engineType": "CE"}, {"name": "428/EV646NT", "vin": "WME4513341K769728", "coordinates": [12.52353, 41.94618, 0], "smartPhoneRequired": false, "interior": "GOOD", "exterior": "GOOD", "address": "Via dei Prati Fiscali, 48, 00141 Roma", "fuel": 100, "engineType": "CE"}, {"name": "357/EV576NT", "vin": "WME4513341K772146", "coordinates": [12.49066, 41.84607, 0], "smartPhoneRequired": false, "interior": "GOOD", "exterior": "GOOD", "address": "Via dell'Accademia Ambrosiana, 16-26, 00147 Roma", "fuel": 18, "engineType": "CE"}, {"name": "277/ET919WT", "vin": "WME4513341K710719", "coordinates": [12.46062, 41.86347, 0], "smartPhoneRequired": false, "interior": "GOOD", "exterior": "GOOD", "address": "Via Nicola Pellati, 66, 00149 Roma", "fuel": 100, "engineType": "CE"}, {"name": "013/ET655WT", "vin": "WME4513341K742431", "coordinates": [12.5175, 41.90167, 0], "smartPhoneRequired": false, "interior": "GOOD", "exterior": "GOOD", "address": "Via Cesare de Lollis, 25, 00185 Roma", "fuel": 57, "engineType": "CE"}, {"name": "461/EV678NT", "vin": "WME4513341K769093", "coordinates": [12.52642, 41.92002, 0], "smartPhoneRequired": false, "interior": "GOOD", "exterior": "GOOD", "address": "Piazza Oreste Tommasini, 20, 00162 Roma", "fuel": 21, "engineType": "CE"}, {"name": "271/ET913WT", "vin": "WME4513341K710678", "coordinates": [12.47266, 41.87808, 0], "smartPhoneRequired": false, "interior": "GOOD", "exterior": "GOOD", "address": "Via Beniamino Franklin, 17-19, 00153 Roma", "fuel": 42, "engineType": "CE"}, {"name": "012/ET654WT", "vin": "WME4513341K742412", "coordinates": [12.47409, 41.91341, 0], "smartPhoneRequired": false, "interior": "GOOD", "exterior": "GOOD", "address": "Via degli Scialoja, 12-18, 00196 Roma", "fuel": 66, "engineType": "CE"}, {"name": "203/ET845WT", "vin": "WME4513341K740940", "coordinates": [12.43939, 41.87147, 0], "smartPhoneRequired": false, "interior": "GOOD", "exterior": "GOOD", "address": "Via del Casaletto, 167-179, 00151 Roma", "fuel": 100, "engineType": "CE"}, {"name": "555/EX689DK", "vin": "WME4513341K751735", "coordinates": [12.52676, 41.93011, 0], "smartPhoneRequired": false, "interior": "GOOD", "exterior": "GOOD", "address": "Via Nomentana, 00153 Roma", "fuel": 66, "engineType": "CE"}, {"name": "318/EV513NT", "vin": "WME4513341K744793", "coordinates": [12.5125, 41.93551, 0], "smartPhoneRequired": false, "interior": "GOOD", "exterior": "GOOD", "address": "Via Poggio Mirteto, 1-21, 00199 Roma", "fuel": 48, "engineType": "CE"}, {"name": "480/EV317TP", "vin": "WME4513341K769237", "coordinates": [12.47137, 41.91971, 0], "smartPhoneRequired": false, "interior": "GOOD", "exterior": "GOOD", "address": "Lungotevere Flaminio, 3-9, 00195 Roma", "fuel": 75, "engineType": "CE"}, {"name": "111/ET753WT", "vin": "WME4513341K729501", "coordinates": [12.45694, 41.85568, 0], "smartPhoneRequired": false, "interior": "GOOD", "exterior": "GOOD", "address": "Via Augusto Armellini, 43, 00149 Roma", "fuel": 36, "engineType": "CE"}, {"name": "008/ET650WT", "vin": "WME4513341K742370", "coordinates": [12.52581, 41.91651, 0], "smartPhoneRequired": false, "interior": "GOOD", "exterior": "GOOD", "address": "Via Livorno, 89, 00162 Roma", "fuel": 24, "engineType": "CE"}, {"name": "347/EV533NT", "vin": "WME4513341K748955", "coordinates": [12.47535, 41.94832, 0], "smartPhoneRequired": false, "interior": "GOOD", "exterior": "GOOD", "address": "Via Raffaele Cappelli, 12, 00191 Roma", "fuel": 42, "engineType": "CE"}, {"name": "391/EV610NT", "vin": "WME4513341K772938", "coordinates": [12.50177, 41.9029, 0], "smartPhoneRequired": false, "interior": "GOOD", "exterior": "GOOD", "address": "Royal Parking Termini_Via Marsala 30/32", "fuel": 100, "engineType": "CE"}, {"name": "373/EV592NT", "vin": "WME4513341K773148", "coordinates": [12.44598, 41.91611, 0], "smartPhoneRequired": false, "interior": "GOOD", "exterior": "GOOD", "address": "Via Alberto Cadlolo, 131-143, 00136 Roma", "fuel": 100, "engineType": "CE"}, {"name": "088/ET730WT", "vin": "WME4513341K737922", "coordinates": [12.44582, 41.80929, 0], "smartPhoneRequired": false, "interior": "GOOD", "exterior": "GOOD", "address": "Largo Clinio Misserville, 308, 00144 Roma", "fuel": 39, "engineType": "CE"}, {"name": "255/ET897WT", "vin": "WME4513341K710291", "coordinates": [12.47832, 41.8791, 0], "smartPhoneRequired": false, "interior": "GOOD", "exterior": "GOOD", "address": "Via Alessandro Volta, 15, 00153 Roma", "fuel": 100, "engineType": "CE"}, {"name": "207/ET849WT", "vin": "WME4513341K741161", "coordinates": [12.47404, 41.86541, 0], "smartPhoneRequired": false, "interior": "GOOD", "exterior": "GOOD", "address": "Via Enrico Fermi, 161, 00146 Roma", "fuel": 100, "engineType": "CE"}, {"name": "513/EX659DK", "vin": "WME4513341K750570", "coordinates": [12.44059, 41.92643, 0], "smartPhoneRequired": false, "interior": "GOOD", "exterior": "GOOD", "address": "Via della Balduina, 291-297, 00136 Roma", "fuel": 87, "engineType": "CE"}, {"name": "370/EV589NT", "vin": "WME4513341K773585", "coordinates": [12.45378, 41.91981, 0], "smartPhoneRequired": false, "interior": "GOOD", "exterior": "GOOD", "address": "Free Parking Faravelli| Via L.G. Faravelli,28", "fuel": 100, "engineType": "CE"}, {"name": "162/ET804WT", "vin": "WME4513341K740024", "coordinates": [12.50255, 41.90603, 0], "smartPhoneRequired": false, "interior": "GOOD", "exterior": "GOOD", "address": "Via Gaeta, 9, 00185 Roma", "fuel": 100, "engineType": "CE"}, {"name": "186/ET828WT", "vin": "WME4513341K740462", "coordinates": [12.47949, 41.85398, 0], "smartPhoneRequired": false, "interior": "GOOD", "exterior": "GOOD", "address": "Via Gabriello Chiabrera, 91, 00145 Roma", "fuel": 60, "engineType": "CE"}, {"name": "204/ET846WT", "vin": "WME4513341K741004", "coordinates": [12.44398, 41.82049, 0], "smartPhoneRequired": false, "interior": "GOOD", "exterior": "GOOD", "address": "Via di Decima, 25, 00144 Roma", "fuel": 100, "engineType": "CE"}, {"name": "439/EV657NT", "vin": "WME4513341K769543", "coordinates": [12.49246, 41.91768, 0], "smartPhoneRequired": false, "interior": "GOOD", "exterior": "GOOD", "address": "Via Saverio Mercadante, 15-35, 00198 Roma", "fuel": 54, "engineType": "CE"}, {"name": "599/EX423DK", "vin": "WME4513341K750699", "coordinates": [12.44615, 41.90032, 0], "smartPhoneRequired": false, "interior": "GOOD", "exterior": "GOOD", "address": "Via di Villa Alberici, 8, 00165 Roma", "fuel": 81, "engineType": "CE"}, {"name": "144/ET786WT", "vin": "WME4513341K737569", "coordinates": [12.48426, 41.90896, 0], "smartPhoneRequired": false, "interior": "GOOD", "exterior": "GOOD", "address": "Viale del Muro Torto, 00187 Roma", "fuel": 100, "engineType": "CE"}, {"name": "213/ET855WT", "vin": "WME4513341K741381", "coordinates": [12.4697, 41.95092, 0], "smartPhoneRequired": false, "interior": "GOOD", "exterior": "GOOD", "address": "Via Maffeo Pantaleoni, 31-35, 00191 Roma", "fuel": 30, "engineType": "CE"}, {"name": "339/EV530NT", "vin": "WME4513341K745654", "coordinates": [12.49477, 41.90749, 0], "smartPhoneRequired": false, "interior": "GOOD", "exterior": "GOOD", "address": "Via Sallustiana, 59, 00187 Roma", "fuel": 60, "engineType": "CE"}, {"name": "164/ET806WT", "vin": "WME4513341K740045", "coordinates": [12.52257, 41.90897, 0], "smartPhoneRequired": false, "interior": "GOOD", "exterior": "GOOD", "address": "Via della Lega Lombarda, 26-28, 00162 Roma", "fuel": 51, "engineType": "CE"}, {"name": "219/ET861WT", "vin": "WME4513341K741487", "coordinates": [12.46927, 41.81927, 0], "smartPhoneRequired": false, "interior": "GOOD", "exterior": "GOOD", "address": "Via Elio Vittorini, 70, 00144 Roma", "fuel": 100, "engineType": "CE"}, {"name": "299/ET916WT", "vin": "WME4513341K709900", "coordinates": [12.5381, 41.89769, 0], "smartPhoneRequired": false, "interior": "GOOD", "exterior": "GOOD", "address": "Via Baldassarre Orero, 46, 00159 Roma", "fuel": 54, "engineType": "CE"}, {"name": "396/EV615NT", "vin": "WME4513341K773816", "coordinates": [12.45696, 41.94464, 0], "smartPhoneRequired": false, "interior": "GOOD", "exterior": "GOOD", "address": "Via della Farnesina, 291-307, 00135 Roma", "fuel": 100, "engineType": "CE"}, {"name": "027/ET669WT", "vin": "WME4513341K743014", "coordinates": [12.46837, 41.89826, 0], "smartPhoneRequired": false, "interior": "GOOD", "exterior": "GOOD", "address": "Via dei Filippini, 17-18, 00186 Roma", "fuel": 100, "engineType": "CE"}, {"name": "071/ET713WT", "vin": "WME4513341K738929", "coordinates": [12.52533, 41.92113, 0], "smartPhoneRequired": false, "interior": "GOOD", "exterior": "GOOD", "address": "Largo Rodolfo Lanciani, 21-31, 00162 Roma", "fuel": 72, "engineType": "CE"}, {"name": "006/ET648WT", "vin": "WME4513341K742207", "coordinates": [12.52714, 41.94489, 0], "smartPhoneRequired": false, "interior": "GOOD", "exterior": "GOOD", "address": "Viale Tirreno, 276-284, 00141 Roma", "fuel": 60, "engineType": "CE"}, {"name": "086/ET728WT", "vin": "WME4513341K737891", "coordinates": [12.50919, 41.88396, 0], "smartPhoneRequired": false, "interior": "GOOD", "exterior": "GOOD", "address": "Via Ardea, 2, 00183 Roma", "fuel": 84, "engineType": "CE"}, {"name": "500/EV304TT", "vin": "WME4513341K776223", "coordinates": [12.4376, 41.96945, 0], "smartPhoneRequired": false, "interior": "GOOD", "exterior": "GOOD", "address": "Via Bagnaia, 9-19, 00189 Roma", "fuel": 21, "engineType": "CE"}, {"name": "187/ET829WT", "vin": "WME4513341K739478", "coordinates": [12.51621, 41.93687, 0], "smartPhoneRequired": false, "interior": "GOOD", "exterior": "GOOD", "address": "Via A. Boito, 60, 00199 Roma", "fuel": 100, "engineType": "CE"}, {"name": "116/ET758WT", "vin": "WME4513341K729852", "coordinates": [12.4758, 41.82687, 0], "smartPhoneRequired": false, "interior": "GOOD", "exterior": "GOOD", "address": "Via delle Montagne Rocciose, 45, 00144 Roma", "fuel": 45, "engineType": "CE"}, {"name": "224/ET866WT", "vin": "WME4513341K741532", "coordinates": [12.47275, 41.87807, 0], "smartPhoneRequired": false, "interior": "GOOD", "exterior": "GOOD", "address": "Via Beniamino Franklin, 18-20, 00153 Roma", "fuel": 96, "engineType": "CE"}, {"name": "494/EV267TT", "vin": "WME4513341K786308", "coordinates": [12.44029, 41.89846, 0], "smartPhoneRequired": false, "interior": "GOOD", "exterior": "GOOD", "address": "Via Aurelia, 269-271, 00165 Roma", "fuel": 100, "engineType": "CE"}, {"name": "326/EV517NT", "vin": "WME4513341K745112", "coordinates": [12.51692, 41.87032, 0], "smartPhoneRequired": false, "interior": "GOOD", "exterior": "GOOD", "address": "Via Cesare Baronio, 158, 00179 Roma", "fuel": 48, "engineType": "CE"}, {"name": "338/FE800AR", "vin": "WME4513341K745640", "coordinates": [12.42515, 41.93922, 0], "smartPhoneRequired": false, "interior": "GOOD", "exterior": "GOOD", "address": "Via Teresa de Gubernatis Mannucci, 30-36, 00135 Roma", "fuel": 93, "engineType": "CE"}, {"name": "205/ET847WT", "vin": "WME4513341K741101", "coordinates": [12.44367, 41.90348, 0], "smartPhoneRequired": false, "interior": "GOOD", "exterior": "GOOD", "address": "Via Giuseppe di Bartolo, 24, 00136 Roma", "fuel": 18, "engineType": "CE"}, {"name": "569/EX610DK", "vin": "WME4513341K750856", "coordinates": [12.51559, 41.88712, 0], "smartPhoneRequired": false, "interior": "GOOD", "exterior": "GOOD", "address": "Viale Castrense, 32, 00182 Roma", "fuel": 84, "engineType": "CE"}, {"name": "365/EV584NT", "vin": "WME4513341K772418", "coordinates": [12.51002, 41.88433, 0], "smartPhoneRequired": false, "interior": "GOOD", "exterior": "GOOD", "address": "Via Veio, 4-12, 00183 Roma", "fuel": 45, "engineType": "CE"}, {"name": "237/ET879WT", "vin": "WME4513341K741876", "coordinates": [12.5124, 41.92209, 0], "smartPhoneRequired": false, "interior": "GOOD", "exterior": "GOOD", "address": "Via S. Marino, 39, 00198 Roma", "fuel": 81, "engineType": "CE"}, {"name": "505/EX606DK", "vin": "WME4513341K750791", "coordinates": [12.47955, 41.89701, 0], "smartPhoneRequired": false, "interior": "GOOD", "exterior": "GOOD", "address": "Via di Santo Stefano del Cacco, 3-5, 00186 Roma", "fuel": 24, "engineType": "CE"}, {"name": "309/EV491NT", "vin": "WME4513341K744142", "coordinates": [12.48525, 41.88319, 0], "smartPhoneRequired": false, "interior": "GOOD", "exterior": "GOOD", "address": "Via dell'Ara di Conso, 9-10, 00153 Roma", "fuel": 84, "engineType": "CE"}, {"name": "143/ET785WT", "vin": "WME4513341K729045", "coordinates": [12.44181, 41.96636, 0], "smartPhoneRequired": false, "interior": "GOOD", "exterior": "GOOD", "address": "Via Ss. Cosma E Damiano, 13, 00189 Roma", "fuel": 100, "engineType": "CE"}, {"name": "501/EX441DK", "vin": "WME4513341K751199", "coordinates": [12.46196, 41.93034, 0], "smartPhoneRequired": false, "interior": "GOOD", "exterior": "GOOD", "address": "Lungotevere Flaminio, 87-97, 00195 Roma", "fuel": 63, "engineType": "CE"}, {"name": "457/EV674NT", "vin": "WME4513341K769156", "coordinates": [12.48523, 41.89761, 0], "smartPhoneRequired": false, "interior": "GOOD", "exterior": "GOOD", "address": "Via Quattro Novembre, 143, 00187 Roma", "fuel": 100, "engineType": "CE"}, {"name": "424/EV642NT", "vin": "WME4513341K772716", "coordinates": [12.50953, 41.93016, 0], "smartPhoneRequired": false, "interior": "GOOD", "exterior": "GOOD", "address": "Via di Priscilla, 55, 00199 Roma", "fuel": 100, "engineType": "CE"}, {"name": "342/EV525NT", "vin": "WME4513341K745902", "coordinates": [12.4458, 41.96668, 0], "smartPhoneRequired": false, "interior": "GOOD", "exterior": "GOOD", "address": "Via Vibio Mariano, 50, 00189 Roma", "fuel": 60, "engineType": "CE"}, {"name": "585/EX435DK", "vin": "WME4513341K751142", "coordinates": [12.48599, 41.92689, 0], "smartPhoneRequired": false, "interior": "GOOD", "exterior": "GOOD", "address": "Viale dei Parioli, 78, 00197 Roma", "fuel": 72, "engineType": "CE"}, {"name": "511/EX661DK", "vin": "WME4513341K750624", "coordinates": [12.49056, 41.8975, 0], "smartPhoneRequired": false, "interior": "GOOD", "exterior": "GOOD", "address": "Via del Boschetto, 53, 00184 Roma", "fuel": 33, "engineType": "CE"}, {"name": "484/EV321TP", "vin": "WME4513341K768189", "coordinates": [12.48306, 41.89817, 0], "smartPhoneRequired": false, "interior": "GOOD", "exterior": "GOOD", "address": "Piazza Santi Apostoli, 51, 00187 Roma", "fuel": 84, "engineType": "CE"}, {"name": "481/EV318TP", "vin": "WME4513341K769427", "coordinates": [12.51279, 41.91533, 0], "smartPhoneRequired": false, "interior": "GOOD", "exterior": "GOOD", "address": "Via Alessandro Torlonia, 2, 00161 Roma", "fuel": 27, "engineType": "CE"}, {"name": "502/EX440DK", "vin": "WME4513341K751194", "coordinates": [12.54883, 41.90561, 0], "smartPhoneRequired": false, "interior": "GOOD", "exterior": "GOOD", "address": "Via Umberto Notari, 7, 00159 Roma", "fuel": 93, "engineType": "CE"}, {"name": "419/EV637NT", "vin": "WME4513341K773685", "coordinates": [12.40927, 41.88961, 0], "smartPhoneRequired": false, "interior": "GOOD", "exterior": "GOOD", "address": "Largo Tomaso Perassi, 792, 00165 Roma", "fuel": 24, "engineType": "CE"}, {"name": "149/ET791WT", "vin": "WME4513341K739597", "coordinates": [12.53719, 41.89966, 0], "smartPhoneRequired": false, "interior": "GOOD", "exterior": "GOOD", "address": "Strada dei Parchi, Roma", "fuel": 36, "engineType": "CE"}, {"name": "148/ET790WT", "vin": "WME4513341K739540", "coordinates": [12.44649, 41.86367, 0], "smartPhoneRequired": false, "interior": "GOOD", "exterior": "GOOD", "address": "Via Raffaele Battistini, 105, 00151 Roma", "fuel": 100, "engineType": "CE"}, {"name": "291/ET933WT", "vin": "WME4513341K711568", "coordinates": [12.44051, 41.92113, 0], "smartPhoneRequired": false, "interior": "GOOD", "exterior": "GOOD", "address": "Via Attilio Friggeri, 75, 00136 Roma", "fuel": 45, "engineType": "CE"}, {"name": "395/EV614NT", "vin": "WME4513341K772998", "coordinates": [12.52745, 41.94468, 0], "smartPhoneRequired": false, "interior": "GOOD", "exterior": "GOOD", "address": "Viale Tirreno, 266-268, 00141 Roma", "fuel": 87, "engineType": "CE"}, {"name": "010/ET652WT", "vin": "WME4513341K742388", "coordinates": [12.45746, 41.86097, 0], "smartPhoneRequired": false, "interior": "GOOD", "exterior": "GOOD", "address": "Via Anselmo Ciappi, 67, 00149 Roma", "fuel": 30, "engineType": "CE"}, {"name": "238/ET880WT", "vin": "WME4513341K741906", "coordinates": [12.53956, 41.93807, 0], "smartPhoneRequired": false, "interior": "GOOD", "exterior": "GOOD", "address": "Via Isola Bella, 5, 00141 Roma", "fuel": 78, "engineType": "CE"}, {"name": "280/ET922WT", "vin": "WME4513341K710743", "coordinates": [12.41723, 41.89507, 0], "smartPhoneRequired": false, "interior": "GOOD", "exterior": "GOOD", "address": "Via Aurelia, 588-644, 00165 Roma", "fuel": 63, "engineType": "CE"}, {"name": "447/EV665NT", "vin": "WME4513341K770141", "coordinates": [12.4933, 41.91984, 0], "smartPhoneRequired": false, "interior": "GOOD", "exterior": "GOOD", "address": "Via Vincenzo Bellini, 22, 00198 Roma", "fuel": 93, "engineType": "CE"}, {"name": "583/EX655DK", "vin": "WME4513341K751161", "coordinates": [12.5113, 41.90212, 0], "smartPhoneRequired": false, "interior": "GOOD", "exterior": "GOOD", "address": "Viale Piero Gobetti, 5-7, 00185 Roma", "fuel": 30, "engineType": "CE"}, {"name": "067/ET709WT", "vin": "WME4513341K738761", "coordinates": [12.55339, 41.91176, 0], "smartPhoneRequired": false, "interior": "GOOD", "exterior": "GOOD", "address": "Via Tiburtina, Roma", "fuel": 100, "engineType": "CE"}, {"name": "421/EV639NT", "vin": "WME4513341K771576", "coordinates": [12.46611, 41.85487, 0], "smartPhoneRequired": false, "interior": "GOOD", "exterior": "GOOD", "address": "Via della Vasca Navale, 107, 00146 Roma", "fuel": 54, "engineType": "CE"}, {"name": "035/ET677WT", "vin": "WME4513341K743413", "coordinates": [12.48459, 41.89166, 0], "smartPhoneRequired": false, "interior": "GOOD", "exterior": "GOOD", "address": "Foro Romano, 3, 00186 Roma", "fuel": 27, "engineType": "CE"}, {"name": "040/ET682WT", "vin": "WME4513341K743545", "coordinates": [12.53987, 41.90988, 0], "smartPhoneRequired": false, "interior": "GOOD", "exterior": "GOOD", "address": "Via Vincenzo Morello, 42-54, 00157 Roma", "fuel": 48, "engineType": "CE"}, {"name": "181/EX189XV", "vin": "WME4513341K740393", "coordinates": [12.45822, 41.81592, 0], "smartPhoneRequired": false, "interior": "GOOD", "exterior": "GOOD", "address": "Via Paride Stefanini, 00144 Roma", "fuel": 66, "engineType": "CE"}, {"name": "229/ET871WT", "vin": "WME4513341K741598", "coordinates": [12.46941, 41.91902, 0], "smartPhoneRequired": false, "interior": "GOOD", "exterior": "GOOD", "address": "Piazza Monte Grappa, 4, 00195 Roma", "fuel": 66, "engineType": "CE"}, {"name": "598/EX601DK", "vin": "WME4513341K750773", "coordinates": [12.48279, 41.87542, 0], "smartPhoneRequired": false, "interior": "GOOD", "exterior": "GOOD", "address": "Viale delle Cave Ardeatine, 4-38, 00154 Roma", "fuel": 69, "engineType": "CE"}, {"name": "306/EV495NT", "vin": "WME4513341K743519", "coordinates": [12.45523, 41.8768, 0], "smartPhoneRequired": false, "interior": "GOOD", "exterior": "GOOD", "address": "Rampa Vizzardelli, 1-3, 00152 Roma", "fuel": 100, "engineType": "CE"}, {"name": "061/ET703WT", "vin": "WME4513341K738668", "coordinates": [12.47486, 41.8491, 0], "smartPhoneRequired": false, "interior": "GOOD", "exterior": "GOOD", "address": "Via Ostiense, 461, 00142 Roma", "fuel": 96, "engineType": "CE"}, {"name": "367/EV586NT", "vin": "WME4513341K772135", "coordinates": [12.50177, 41.9029, 0], "smartPhoneRequired": false, "interior": "GOOD", "exterior": "GOOD", "address": "Royal Parking Termini_Via Marsala 30/32", "fuel": 75, "engineType": "CE"}, {"name": "360/EV579NT", "vin": "WME4513341K772917", "coordinates": [12.49094, 41.91088, 0], "smartPhoneRequired": false, "interior": "GOOD", "exterior": "GOOD", "address": "Via Pinciana, 79, 00198 Roma", "fuel": 100, "engineType": "CE"}, {"name": "382/EV601NT", "vin": "WME4513341K771130", "coordinates": [12.45802, 41.81597, 0], "smartPhoneRequired": false, "interior": "GOOD", "exterior": "GOOD", "address": "Via Paride Stefanini, 00144 Roma", "fuel": 100, "engineType": "CE"}, {"name": "443/EX192XV", "vin": "WME4513341K769045", "coordinates": [12.48626, 41.92843, 0], "smartPhoneRequired": false, "interior": "GOOD", "exterior": "GOOD", "address": "Viale dei Parioli, 91, 00197 Roma", "fuel": 100, "engineType": "CE"}, {"name": "282/ET924WT", "vin": "WME4513341K710940", "coordinates": [12.46697, 41.8672, 0], "smartPhoneRequired": false, "interior": "GOOD", "exterior": "GOOD", "address": "Via Borghesano Lucchese, 11-13, 00146 Roma", "fuel": 100, "engineType": "CE"}, {"name": "128/ET770WT", "vin": "WME4513341K730199", "coordinates": [12.45817, 41.8159, 0], "smartPhoneRequired": false, "interior": "GOOD", "exterior": "GOOD", "address": "Via Paride Stefanini, 00144 Roma", "fuel": 100, "engineType": "CE"}, {"name": "222/ET864WT", "vin": "WME4513341K741521", "coordinates": [12.51192, 41.91012, 0], "smartPhoneRequired": false, "interior": "GOOD", "exterior": "GOOD", "address": "Via Giorgio Baglivi, 8, 00161 Roma", "fuel": 36, "engineType": "CE"}, {"name": "331/EV502NT", "vin": "WME4513341K745445", "coordinates": [12.42733, 41.92395, 0], "smartPhoneRequired": false, "interior": "GOOD", "exterior": "GOOD", "address": "Via Vittorio Montiglio, 57-61, 00167 Roma", "fuel": 27, "engineType": "CE"}, {"name": "226/ET868WT", "vin": "WME4513341K741543", "coordinates": [12.53183, 41.86802, 0], "smartPhoneRequired": false, "interior": "GOOD", "exterior": "GOOD", "address": "Piazzale dei Castelli Romani, 00179 Roma", "fuel": 57, "engineType": "CE"}, {"name": "094/ET736WT", "vin": "WME4513341K739387", "coordinates": [12.47765, 41.93252, 0], "smartPhoneRequired": false, "interior": "GOOD", "exterior": "GOOD", "address": "Via Venezuela, 28-30, 00197 Roma", "fuel": 33, "engineType": "CE"}, {"name": "358/EV577NT", "vin": "WME4513341K773185", "coordinates": [12.54092, 41.8863, 0], "smartPhoneRequired": false, "interior": "GOOD", "exterior": "GOOD", "address": "Via del Pigneto, 200, 00176 Roma", "fuel": 54, "engineType": "CE"}, {"name": "474/EV311TP", "vin": "WME4513341K768710", "coordinates": [12.42953, 41.94649, 0], "smartPhoneRequired": false, "interior": "GOOD", "exterior": "GOOD", "address": "Via delle Benedettine, 31, 00135 Roma", "fuel": 24, "engineType": "CE"}, {"name": "176/ET818WT", "vin": "WME4513341K740309", "coordinates": [12.51655, 41.88351, 0], "smartPhoneRequired": false, "interior": "GOOD", "exterior": "GOOD", "address": "Via Casoria, 53, 00182 Roma", "fuel": 51, "engineType": "CE"}, {"name": "233/ET875WT", "vin": "WME4513341K741778", "coordinates": [12.5376, 41.883, 0], "smartPhoneRequired": false, "interior": "GOOD", "exterior": "GOOD", "address": "Via Pietro Ruga, 21, 00176 Roma", "fuel": 100, "engineType": "CE"}, {"name": "380/EV599NT", "vin": "WME4513341K773181", "coordinates": [12.49784, 41.90754, 0], "smartPhoneRequired": false, "interior": "GOOD", "exterior": "GOOD", "address": "Via Flavia, 89-101, 00187 Roma", "fuel": 93, "engineType": "CE"}, {"name": "308/EV492NT", "vin": "WME4513341K744031", "coordinates": [12.52296, 41.94267, 0], "smartPhoneRequired": false, "interior": "GOOD", "exterior": "GOOD", "address": "Viale Val Padana, 93, 00141 Roma", "fuel": 87, "engineType": "CE"}, {"name": "284/ET926WT", "vin": "WME4513341K711226", "coordinates": [12.54857, 41.90558, 0], "smartPhoneRequired": false, "interior": "GOOD", "exterior": "GOOD", "address": "Via Silvio Negro, 34, 00159 Roma", "fuel": 100, "engineType": "CE"}, {"name": "516/EX453DK", "vin": "WME4513341K750435", "coordinates": [12.50274, 41.88218, 0], "smartPhoneRequired": false, "interior": "GOOD", "exterior": "GOOD", "address": "Via Illiria, 19, 00183 Roma", "fuel": 27, "engineType": "CE"}, {"name": "550/EX595DK", "vin": "WME4513341K744913", "coordinates": [12.44882, 41.85056, 0], "smartPhoneRequired": false, "interior": "GOOD", "exterior": "GOOD", "address": "Via Pietro Frattini, 146, 00149 Roma", "fuel": 100, "engineType": "CE"}, {"name": "142/ET784WT", "vin": "WME4513341K729016", "coordinates": [12.45353, 41.94333, 0], "smartPhoneRequired": false, "interior": "GOOD", "exterior": "GOOD", "address": "Via dei Colli della Farnesina, 180, 00135 Roma", "fuel": 100, "engineType": "CE"}, {"name": "551/EX594DK", "vin": "WME4513341K744849", "coordinates": [12.45806, 41.81592, 0], "smartPhoneRequired": false, "interior": "GOOD", "exterior": "GOOD", "address": "Via Paride Stefanini, 00144 Roma", "fuel": 36, "engineType": "CE"}, {"name": "281/ET923WT", "vin": "WME4513341K710875", "coordinates": [12.52903, 41.91097, 0], "smartPhoneRequired": false, "interior": "GOOD", "exterior": "GOOD", "address": "Circonvallazione Tiburtina, 3813, 00162 Roma", "fuel": 33, "engineType": "CE"}, {"name": "163/ET805WT", "vin": "WME4513341K740040", "coordinates": [12.51069, 41.93613, 0], "smartPhoneRequired": false, "interior": "GOOD", "exterior": "GOOD", "address": "Via Alessandro Vessella, 10-14, 00199 Roma", "fuel": 30, "engineType": "CE"}, {"name": "063/ET705WT", "vin": "WME4513341K738677", "coordinates": [12.44639, 41.92188, 0], "smartPhoneRequired": false, "interior": "GOOD", "exterior": "GOOD", "address": "Via Franco Michelini Tocci, 44-50, 00136 Roma", "fuel": 100, "engineType": "CE"}, {"name": "001/ET294WS", "vin": "WME4513341K709170", "coordinates": [12.42648, 41.90356, 0], "smartPhoneRequired": false, "interior": "GOOD", "exterior": "GOOD", "address": "Via Nostra Signora di Lourdes, 10-26, 00167 Roma", "fuel": 100, "engineType": "CE"}, {"name": "139/ET781WT", "vin": "WME4513341K727409", "coordinates": [12.52497, 41.8841, 0], "smartPhoneRequired": false, "interior": "GOOD", "exterior": "GOOD", "address": "Via Montepulciano, 41-43, 00182 Roma", "fuel": 96, "engineType": "CE"}, {"name": "294/EY762ZZ", "vin": "WME4513341K725694", "coordinates": [12.47739, 41.87062, 0], "smartPhoneRequired": false, "interior": "GOOD", "exterior": "GOOD", "address": "Via del Commercio, 19-25, 00154 Roma", "fuel": 39, "engineType": "CE"}, {"name": "206/ET848WT", "vin": "WME4513341K741135", "coordinates": [12.46848, 41.89908, 0], "smartPhoneRequired": false, "interior": "GOOD", "exterior": "GOOD", "address": "Piazza dell'Orologio, 4-5, 00186 Roma", "fuel": 30, "engineType": "CE"}, {"name": "136/ET778WT", "vin": "WME4513341K737563", "coordinates": [12.47614, 41.94729, 0], "smartPhoneRequired": false, "interior": "GOOD", "exterior": "GOOD", "address": "Via Morlupo, 6-12, 00191 Roma", "fuel": 72, "engineType": "CE"}, {"name": "211/ET853WT", "vin": "WME4513341K741311", "coordinates": [12.48408, 41.91005, 0], "smartPhoneRequired": false, "interior": "GOOD", "exterior": "GOOD", "address": "Villa Borghese / Saba Park - Viale del Muro Torto", "fuel": 42, "engineType": "CE"}, {"name": "510/EX662DK", "vin": "WME4513341K750636", "coordinates": [12.4289, 41.89955, 0], "smartPhoneRequired": false, "interior": "GOOD", "exterior": "GOOD", "address": "Via di Boccea, 26, 00167 Roma", "fuel": 75, "engineType": "CE"}, {"name": "337/EV515NT", "vin": "WME4513341K745632", "coordinates": [12.45429, 41.88023, 0], "smartPhoneRequired": false, "interior": "GOOD", "exterior": "GOOD", "address": "Via Fonteiana, 101-109, 00152 Roma", "fuel": 87, "engineType": "CE"}, {"name": "355/EY101PF", "vin": "WME4513341K771077", "coordinates": [12.48509, 41.89727, 0], "smartPhoneRequired": false, "interior": "GOOD", "exterior": "GOOD", "address": "Via della Pilotta, 15, 00187 Roma", "fuel": 75, "engineType": "CE"}, {"name": "588/EX658DK", "vin": "WME4513341K750559", "coordinates": [12.49074, 41.86032, 0], "smartPhoneRequired": false, "interior": "GOOD", "exterior": "GOOD", "address": "Via delle Sette Chiese, 144, 00145 Roma", "fuel": 100, "engineType": "CE"}, {"name": "166/ET808WT", "vin": "WME4513341K740087", "coordinates": [12.46613, 41.88784, 0], "smartPhoneRequired": false, "interior": "GOOD", "exterior": "GOOD", "address": "Via Garibaldi, 28, 00153 Roma", "fuel": 93, "engineType": "CE"}, {"name": "514/EX657DK", "vin": "WME4513341K750542", "coordinates": [12.51622, 41.92181, 0], "smartPhoneRequired": false, "interior": "GOOD", "exterior": "GOOD", "address": "Piazza di Santa Costanza, 5, 00198 Roma", "fuel": 100, "engineType": "CE"}, {"name": "077/ET719WT", "vin": "WME4513341K739067", "coordinates": [12.46394, 41.93596, 0], "smartPhoneRequired": false, "interior": "GOOD", "exterior": "GOOD", "address": "Via dei Robilant, 1, 00135 Roma", "fuel": 96, "engineType": "CE"}, {"name": "434/EV652NT", "vin": "WME4513341K768673", "coordinates": [12.48408, 41.91005, 0], "smartPhoneRequired": false, "interior": "GOOD", "exterior": "GOOD", "address": "Villa Borghese / Saba Park - Viale del Muro Torto", "fuel": 33, "engineType": "CE"}, {"name": "146/ET788WT", "vin": "WME4513341K737736", "coordinates": [12.45888, 41.88707, 0], "smartPhoneRequired": false, "interior": "GOOD", "exterior": "GOOD", "address": "Via di San Pancrazio, 15, 00152 Roma", "fuel": 57, "engineType": "CE"}, {"name": "446/EV664NT", "vin": "WME4513341K772513", "coordinates": [12.50201, 41.88254, 0], "smartPhoneRequired": false, "interior": "GOOD", "exterior": "GOOD", "address": "Via Anglona, 14, 00183 Roma", "fuel": 57, "engineType": "CE"}, {"name": "058/ET700WT", "vin": "WME4513341K738538", "coordinates": [12.48494, 41.89999, 0], "smartPhoneRequired": false, "interior": "GOOD", "exterior": "GOOD", "address": "Via della Dataria, 95, 00187 Roma", "fuel": 33, "engineType": "CE"}, {"name": "014/ET656WT", "vin": "WME4513341K742453", "coordinates": [12.50177, 41.9029, 0], "smartPhoneRequired": false, "interior": "GOOD", "exterior": "GOOD", "address": "Royal Parking Termini_Via Marsala 30/32", "fuel": 24, "engineType": "CE"}, {"name": "137/EX185XV", "vin": "WME4513341K727470", "coordinates": [12.45602, 41.91758, 0], "smartPhoneRequired": false, "interior": "GOOD", "exterior": "GOOD", "address": "Piazzale Clodio, 1, 00195 Roma", "fuel": 39, "engineType": "CE"}, {"name": "416/EV634NT", "vin": "WME4513341K771186", "coordinates": [12.50988, 41.88283, 0], "smartPhoneRequired": false, "interior": "GOOD", "exterior": "GOOD", "address": "Via Faleria, 39-49, 00183 Roma", "fuel": 69, "engineType": "CE"}, {"name": "290/ET932WT", "vin": "WME4513341K711263", "coordinates": [12.49471, 41.8324, 0], "smartPhoneRequired": false, "interior": "GOOD", "exterior": "GOOD", "address": "Via Alessio Baldovinetti, 33, 00142 Roma", "fuel": 72, "engineType": "CE"}, {"name": "400/EV619NT", "vin": "WME4513341K773643", "coordinates": [12.46318, 41.92888, 0], "smartPhoneRequired": false, "interior": "GOOD", "exterior": "GOOD", "address": "Viale Pinturicchio, 182, 00196 Roma", "fuel": 36, "engineType": "CE"}, {"name": "496/EV269TT", "vin": "WME4513341K786287", "coordinates": [12.45809, 41.81593, 0], "smartPhoneRequired": false, "interior": "GOOD", "exterior": "GOOD", "address": "Via Paride Stefanini, 00144 Roma", "fuel": 72, "engineType": "CE"}, {"name": "595/EX451DK", "vin": "WME4513341K751207", "coordinates": [12.55038, 41.91098, 0], "smartPhoneRequired": false, "interior": "GOOD", "exterior": "GOOD", "address": "Via Tiburtina, 660, 00159 Roma", "fuel": 72, "engineType": "CE"}, {"name": "531/EX589DK", "vin": "WME4513341K747921", "coordinates": [12.55046, 41.91099, 0], "smartPhoneRequired": false, "interior": "GOOD", "exterior": "GOOD", "address": "Via Tiburtina, 660, 00159 Roma", "fuel": 30, "engineType": "CE"}, {"name": "307/EV496NT", "vin": "WME4513341K743875", "coordinates": [12.45518, 41.9104, 0], "smartPhoneRequired": false, "interior": "GOOD", "exterior": "GOOD", "address": "Viale delle Milizie, 23, 00192 Roma", "fuel": 100, "engineType": "CE"}, {"name": "504/EX426DK", "vin": "WME4513341K750952", "coordinates": [12.52937, 41.88549, 0], "smartPhoneRequired": false, "interior": "GOOD", "exterior": "GOOD", "address": "Via Giovanni de Agostini, 4, 00176 Roma", "fuel": 54, "engineType": "CE"}, {"name": "548/EX603DK", "vin": "WME4513341K745326", "coordinates": [12.46519, 41.86507, 0], "smartPhoneRequired": false, "interior": "GOOD", "exterior": "GOOD", "address": "Via Oderisi da Gubbio, 129-133, 00146 Roma", "fuel": 60, "engineType": "CE"}, {"name": "570/EX609DK", "vin": "WME4513341K750831", "coordinates": [12.53795, 41.94288, 0], "smartPhoneRequired": false, "interior": "GOOD", "exterior": "GOOD", "address": "Via dei Monti Lessini, 19, 00141 Roma", "fuel": 24, "engineType": "CE"}, {"name": "475/EV312TP", "vin": "WME4513341K769325", "coordinates": [12.46498, 41.86093, 0], "smartPhoneRequired": false, "interior": "GOOD", "exterior": "GOOD", "address": "Lungotevere degli Inventori, 118, 00146 Roma", "fuel": 100, "engineType": "CE"}, {"name": "523/EX445DK", "vin": "WME4513341K751235", "coordinates": [12.51537, 41.92218, 0], "smartPhoneRequired": false, "interior": "GOOD", "exterior": "GOOD", "address": "Via di Santa Costanza, 39, 00198 Roma", "fuel": 66, "engineType": "CE"}, {"name": "239/ET881WT", "vin": "WME4513341K741934", "coordinates": [12.43157, 41.89435, 0], "smartPhoneRequired": false, "interior": "GOOD", "exterior": "GOOD", "address": "Via Gregorio VII, 492, 00165 Roma", "fuel": 87, "engineType": "CE"}, {"name": "573/EX720DK", "vin": "WME4513341K750735", "coordinates": [12.53735, 41.94339, 0], "smartPhoneRequired": false, "interior": "GOOD", "exterior": "GOOD", "address": "Viale Adriatico, 153, 00141 Roma", "fuel": 69, "engineType": "CE"}, {"name": "403/EV622NT", "vin": "WME4513341K772346", "coordinates": [12.54177, 41.87758, 0], "smartPhoneRequired": false, "interior": "GOOD", "exterior": "GOOD", "address": "Via di Tor Pignattara, 101, 00177 Roma", "fuel": 57, "engineType": "CE"}, {"name": "527/EX188XV", "vin": "WME4513341K750783", "coordinates": [12.43944, 41.81743, 0], "smartPhoneRequired": false, "interior": "GOOD", "exterior": "GOOD", "address": "Viale Camillo Sabatini, 151-161, 00144 Roma", "fuel": 100, "engineType": "CE"}, {"name": "385/EV604NT", "vin": "WME4513341K771883", "coordinates": [12.42489, 41.89872, 0], "smartPhoneRequired": false, "interior": "GOOD", "exterior": "GOOD", "address": "Via Aurelia, 468, 00165 Roma", "fuel": 87, "engineType": "CE"}, {"name": "091/ET733WT", "vin": "WME4513341K739167", "coordinates": [12.45426, 41.87021, 0], "smartPhoneRequired": false, "interior": "GOOD", "exterior": "GOOD", "address": "Circonvallazione Gianicolense, 89, 00149 Roma", "fuel": 87, "engineType": "CE"}, {"name": "454/FE252ZG", "vin": "WME4513341K769301", "coordinates": [12.41134, 41.8938, 0], "smartPhoneRequired": false, "interior": "GOOD", "exterior": "GOOD", "address": "Via Gregorio XI, 307, 00166 Roma", "fuel": 100, "engineType": "CE"}, {"name": "483/EV320TP", "vin": "WME4513341K770720", "coordinates": [12.43851, 41.92711, 0], "smartPhoneRequired": false, "interior": "GOOD", "exterior": "GOOD", "address": "Via Giancarlo Bitossi, 38-40, 00136 Roma", "fuel": 100, "engineType": "CE"}, {"name": "518/EX482DK", "vin": "WME4513341K751590", "coordinates": [12.44548, 41.86217, 0], "smartPhoneRequired": false, "interior": "GOOD", "exterior": "GOOD", "address": "Via Virginia Agnelli, 58, 00151 Roma", "fuel": 57, "engineType": "CE"}, {"name": "547/EX613DK", "vin": "WME4513341K745484", "coordinates": [12.51918, 41.93469, 0], "smartPhoneRequired": false, "interior": "GOOD", "exterior": "GOOD", "address": "Viale Somalia, 237, 00199 Roma", "fuel": 100, "engineType": "CE"}, {"name": "593/EX444DK", "vin": "WME4513341K751227", "coordinates": [12.48408, 41.91005, 0], "smartPhoneRequired": false, "interior": "GOOD", "exterior": "GOOD", "address": "Villa Borghese / Saba Park - Viale del Muro Torto", "fuel": 100, "engineType": "CE"}, {"name": "522/EX466DK", "vin": "WME4513341K751339", "coordinates": [12.46179, 41.91629, 0], "smartPhoneRequired": false, "interior": "GOOD", "exterior": "GOOD", "address": "Via Sabotino, 50, 00195 Roma", "fuel": 78, "engineType": "CE"}, {"name": "042/ET684WT", "vin": "WME4513341K746376", "coordinates": [12.54147, 41.86596, 0], "smartPhoneRequired": false, "interior": "GOOD", "exterior": "GOOD", "address": "Via Frascati, 20-22, 00178 Roma", "fuel": 54, "engineType": "CE"}, {"name": "022/ET664WT", "vin": "WME4513341K742809", "coordinates": [12.48748, 41.90733, 0], "smartPhoneRequired": false, "interior": "GOOD", "exterior": "GOOD", "address": "Via Aurora, 6342, 00187 Roma", "fuel": 30, "engineType": "CE"}, {"name": "404/EV623NT", "vin": "WME4513341K773929", "coordinates": [12.44111, 41.86992, 0], "smartPhoneRequired": false, "interior": "GOOD", "exterior": "GOOD", "address": "Via di Monte Verde, 256, 00151 Roma", "fuel": 100, "engineType": "CE"}]}