{"placemarks": [{"name": "136/FF153NT", "vin": "WME4533421K153810", "coordinates": [7.66278, 45.08098, 0], "smartPhoneRequired": true, "interior": "GOOD", "exterior": "GOOD", "address": "Via Carlo Tenivelli, 23, 10144 Torino", "fuel": 81, "engineType": "CE"}, {"name": "184/FF338NT", "vin": "WME4533421K151756", "coordinates": [7.65656, 45.02164, 0], "smartPhoneRequired": true, "interior": "GOOD", "exterior": "GOOD", "address": "Corso Caio Plinio, 54A, 10127 Torino", "fuel": 75, "engineType": "CE"}, {"name": "105/FF092NT", "vin": "WME4533421K148140", "coordinates": [7.66609, 45.1054, 0], "smartPhoneRequired": true, "interior": "GOOD", "exterior": "GOOD", "address": "Corso Grosseto, 226, 10148 Torino", "fuel": 100, "engineType": "CE"}, {"name": "106/FF094NT", "vin": "WME4533421K148895", "coordinates": [7.64433, 45.10028, 0], "smartPhoneRequired": true, "interior": "GOOD", "exterior": "GOOD", "address": "Corso Lucio Quinzio Cincinnato, 159-171, 10151 Torino", "fuel": 40, "engineType": "CE"}, {"name": "109/FF099NT", "vin": "WME4533421K150502", "coordinates": [7.61604, 45.08006, 0], "smartPhoneRequired": true, "interior": "GOOD", "exterior": "GOOD", "address": "Via Augusto Franzoj, 3, 10146 Torino", "fuel": 87, "engineType": "CE"}, {"name": "122/FF130NT", "vin": "WME4533421K152254", "coordinates": [7.63748, 45.10272, 0], "smartPhoneRequired": true, "interior": "GOOD", "exterior": "GOOD", "address": "Viale Mughetti, 10151 Torino", "fuel": 96, "engineType": "CE"}, {"name": "113/FF109NT", "vin": "WME4533421K151240", "coordinates": [7.64475, 45.07229, 0], "smartPhoneRequired": true, "interior": "GOOD", "exterior": "GOOD", "address": "Via Novalesa, 3-7, 10139 Torino", "fuel": 40, "engineType": "CE"}, {"name": "116/FF115NT", "vin": "WME4533421K151687", "coordinates": [7.65179, 45.06743, 0], "smartPhoneRequired": true, "interior": "GOOD", "exterior": "GOOD", "address": "Via Dante Di Nanni, 59, 10138 Torino", "fuel": 59, "engineType": "CE"}, {"name": "118/FF120NT", "vin": "WME4533421K151860", "coordinates": [7.67524, 45.08388, 0], "smartPhoneRequired": true, "interior": "GOOD", "exterior": "GOOD", "address": "Corso Ciri\u00e8, 10, 10152 Torino", "fuel": 100, "engineType": "CE"}, {"name": "120/FF126NT", "vin": "WME4533421K148471", "coordinates": [7.70014, 45.09985, 0], "smartPhoneRequired": true, "interior": "GOOD", "exterior": "GOOD", "address": "Via Riccardo Zandonai, 18A, 10154 Torino", "fuel": 100, "engineType": "CE"}, {"name": "121/FF127NT", "vin": "WME4533421K148861", "coordinates": [7.65289, 45.08894, 0], "smartPhoneRequired": true, "interior": "GOOD", "exterior": "GOOD", "address": "Corso Potenza, 14, 10143 Torino", "fuel": 90, "engineType": "CE"}, {"name": "123/FF131NT", "vin": "WME4533421K152285", "coordinates": [7.63865, 45.04642, 0], "smartPhoneRequired": true, "interior": "GOOD", "exterior": "GOOD", "address": "Via Monesiglio, 39-41, 10137 Torino", "fuel": 96, "engineType": "CE"}, {"name": "127/FF136NT", "vin": "WME4533421K152637", "coordinates": [7.63614, 45.04818, 0], "smartPhoneRequired": true, "interior": "GOOD", "exterior": "GOOD", "address": "Corso Sebastopoli, 249, 10137 Torino", "fuel": 46, "engineType": "CE"}, {"name": "312/FA231ND", "vin": "WME4513341K741344", "coordinates": [7.63335, 45.06968, 0], "smartPhoneRequired": false, "interior": "GOOD", "exterior": "GOOD", "address": "Corso Monte Cucco, 61B, 10141 Torino", "fuel": 36, "engineType": "CE"}, {"name": "128/FF137NT", "vin": "WME4533421K152647", "coordinates": [7.66826, 45.03312, 0], "smartPhoneRequired": true, "interior": "GOOD", "exterior": "GOOD", "address": "Via Spotorno, 14, 10126 Torino", "fuel": 96, "engineType": "CE"}, {"name": "130/FF143NT", "vin": "WME4533421K152800", "coordinates": [7.64205, 45.05921, 0], "smartPhoneRequired": true, "interior": "GOOD", "exterior": "GOOD", "address": "Via Caraglio, 91, 10141 Torino", "fuel": 100, "engineType": "CE"}, {"name": "138/FF156NT", "vin": "WME4533421K155685", "coordinates": [7.69084, 45.07913, 0], "smartPhoneRequired": true, "interior": "GOOD", "exterior": "GOOD", "address": "Via Ancona, 7, 10152 Torino", "fuel": 53, "engineType": "CE"}, {"name": "141/FF166NT", "vin": "WME4533421K151675", "coordinates": [7.66726, 45.06065, 0], "smartPhoneRequired": true, "interior": "GOOD", "exterior": "GOOD", "address": "Corso Galileo Ferraris, 48, 10129 Torino", "fuel": 90, "engineType": "CE"}, {"name": "134/FF151NT", "vin": "WME4533421K153629", "coordinates": [7.69387, 45.10331, 0], "smartPhoneRequired": true, "interior": "GOOD", "exterior": "GOOD", "address": "Corso Grosseto, 3D, 10155 Torino", "fuel": 40, "engineType": "CE"}, {"name": "154/FF179NT", "vin": "WME4533421K152407", "coordinates": [7.65893, 45.03701, 0], "smartPhoneRequired": true, "interior": "GOOD", "exterior": "GOOD", "address": "Via Giordano Bruno, 141, 10134 Torino", "fuel": 75, "engineType": "CE"}, {"name": "006/FF753KW", "vin": "WME4533421K147143", "coordinates": [7.66848, 45.05352, 0], "smartPhoneRequired": true, "interior": "GOOD", "exterior": "GOOD", "address": "Via Amerigo Vespucci, 4, 10128 Torino", "fuel": 93, "engineType": "CE"}, {"name": "137/FF154NT", "vin": "WME4533421K154679", "coordinates": [7.62935, 45.0449, 0], "smartPhoneRequired": true, "interior": "GOOD", "exterior": "GOOD", "address": "Via Guido Reni, 133-147, 10137 Torino", "fuel": 65, "engineType": "CE"}, {"name": "140/FF165NT", "vin": "WME4533421K151437", "coordinates": [7.6171, 45.06691, 0], "smartPhoneRequired": true, "interior": "GOOD", "exterior": "GOOD", "address": "Via Postumia, 52-60, 10142 Torino", "fuel": 59, "engineType": "CE"}, {"name": "165/FF190NT", "vin": "WME4533421K152981", "coordinates": [7.69122, 45.079, 0], "smartPhoneRequired": true, "interior": "GOOD", "exterior": "GOOD", "address": "Via Pisa, 11, 10152 Torino", "fuel": 68, "engineType": "CE"}, {"name": "143/FF168NT", "vin": "WME4533421K151786", "coordinates": [7.67968, 45.07939, 0], "smartPhoneRequired": true, "interior": "GOOD", "exterior": "GOOD", "address": "Via S. Giuseppe Benedetto Cottolengo, 16, 10152 Torino", "fuel": 100, "engineType": "CE"}, {"name": "101/FF084NT", "vin": "WME4533421K146852", "coordinates": [7.68066, 45.08387, 0], "smartPhoneRequired": true, "interior": "GOOD", "exterior": "GOOD", "address": "Str. del Fortino, 12-22, 10152 Torino", "fuel": 71, "engineType": "CE"}, {"name": "115/FF114NT", "vin": "WME4533421K151588", "coordinates": [7.67425, 45.0793, 0], "smartPhoneRequired": true, "interior": "GOOD", "exterior": "GOOD", "address": "Via Caselle, 3, 10122 Torino", "fuel": 28, "engineType": "CE"}, {"name": "150/FF175NT", "vin": "WME4533421K152082", "coordinates": [7.69543, 45.09975, 0], "smartPhoneRequired": true, "interior": "GOOD", "exterior": "GOOD", "address": "Via Tronzano, 13-15, 10155 Torino", "fuel": 43, "engineType": "CE"}, {"name": "081/FF047NT", "vin": "WME4533421K149735", "coordinates": [7.66717, 45.06056, 0], "smartPhoneRequired": true, "interior": "GOOD", "exterior": "GOOD", "address": "Corso Galileo Ferraris, 50, 10121 Torino", "fuel": 71, "engineType": "CE"}, {"name": "155/FF180NT", "vin": "WME4533421K152448", "coordinates": [7.66747, 45.05714, 0], "smartPhoneRequired": true, "interior": "GOOD", "exterior": "GOOD", "address": "Via Generale Carlo Giordana, 6, 10128 Torino", "fuel": 34, "engineType": "CE"}, {"name": "148/FF173NT", "vin": "WME4533421K151910", "coordinates": [7.68013, 45.09278, 0], "smartPhoneRequired": true, "interior": "GOOD", "exterior": "GOOD", "address": "Corso Venezia, 14A, 10155 Torino", "fuel": 34, "engineType": "CE"}, {"name": "159/FF184NT", "vin": "WME4533421K152589", "coordinates": [7.65675, 45.10985, 0], "smartPhoneRequired": true, "interior": "GOOD", "exterior": "GOOD", "address": "Via Alfonso Badini Confalonieri, 87, 10151 Torino", "fuel": 100, "engineType": "CE"}, {"name": "163/FF188NT", "vin": "WME4533421K152780", "coordinates": [7.65761, 45.09392, 0], "smartPhoneRequired": true, "interior": "GOOD", "exterior": "GOOD", "address": "Via Val della Torre, 58, 10149 Torino", "fuel": 21, "engineType": "CE"}, {"name": "164/FF189NT", "vin": "WME4533421K152828", "coordinates": [7.65684, 45.05584, 0], "smartPhoneRequired": true, "interior": "GOOD", "exterior": "GOOD", "address": "Via Evangelista Torricelli, 60, 10129 Torino", "fuel": 90, "engineType": "CE"}, {"name": "161/FF186NT", "vin": "WME4533421K152731", "coordinates": [7.67417, 45.10455, 0], "smartPhoneRequired": true, "interior": "GOOD", "exterior": "GOOD", "address": "Corso Grosseto, 183, 10147 Torino", "fuel": 65, "engineType": "CE"}, {"name": "162/FF187NT", "vin": "WME4533421K152771", "coordinates": [7.67225, 45.05889, 0], "smartPhoneRequired": true, "interior": "GOOD", "exterior": "GOOD", "address": "Via Vincenzo Gioberti, 43c, 10128 Torino", "fuel": 78, "engineType": "CE"}, {"name": "347/FF151VY", "vin": "WME4533421K152155", "coordinates": [7.70493, 45.07446, 0], "smartPhoneRequired": true, "interior": "GOOD", "exterior": "GOOD", "address": "Corso Tortona, 55-57, 10153 Torino", "fuel": 65, "engineType": "CE"}, {"name": "345/FF149VY", "vin": "WME4533421K151889", "coordinates": [7.6435, 45.18843, 0], "smartPhoneRequired": true, "interior": "GOOD", "exterior": "GOOD", "address": "Aeroporto Caselle 2", "fuel": 31, "engineType": "CE"}, {"name": "343/FF147VY", "vin": "WME4533421K151397", "coordinates": [7.63611, 45.05468, 0], "smartPhoneRequired": true, "interior": "GOOD", "exterior": "GOOD", "address": "Via Gallarate, 3A, 10136 Torino", "fuel": 15, "engineType": "CE"}, {"name": "342/FF146VY", "vin": "WME4533421K152855", "coordinates": [7.58294, 45.09859, 0], "smartPhoneRequired": true, "interior": "GOOD", "exterior": "GOOD", "address": "IKEA", "fuel": 81, "engineType": "CE"}, {"name": "052/FF840KW", "vin": "WME4533421K146932", "coordinates": [7.64401, 45.03337, 0], "smartPhoneRequired": true, "interior": "GOOD", "exterior": "GOOD", "address": "Via Paolo Sarpi, 106-108, 10135 Torino", "fuel": 84, "engineType": "CE"}, {"name": "340/FF144VY", "vin": "WME4533421K151067", "coordinates": [7.67629, 45.05542, 0], "smartPhoneRequired": true, "interior": "GOOD", "exterior": "GOOD", "address": "Via Federico Campana, 1, 10125 Torino", "fuel": 68, "engineType": "CE"}, {"name": "341/FF145VY", "vin": "WME4533421K152598", "coordinates": [7.61809, 45.08396, 0], "smartPhoneRequired": true, "interior": "GOOD", "exterior": "GOOD", "address": "Via Mario Casaleggio, 2-6, 10146 Torino", "fuel": 43, "engineType": "CE"}, {"name": "049/FF834KW", "vin": "WME4533421K151022", "coordinates": [7.71311, 45.09236, 0], "smartPhoneRequired": true, "interior": "GOOD", "exterior": "GOOD", "address": "Via Bologna, 239, 10154 Torino", "fuel": 53, "engineType": "CE"}, {"name": "169/FF194NT", "vin": "WME4533421K151223", "coordinates": [7.70862, 45.06293, 0], "smartPhoneRequired": true, "interior": "GOOD", "exterior": "GOOD", "address": "Corso Quintino Sella, 43-45, 10131 Torino", "fuel": 100, "engineType": "CE"}, {"name": "048/FF826KW", "vin": "WME4533421K151802", "coordinates": [7.61874, 45.0373, 0], "smartPhoneRequired": true, "interior": "GOOD", "exterior": "GOOD", "address": "Corso Enrico Tazzoli, 202, 10137 Torino", "fuel": 28, "engineType": "CE"}, {"name": "044/FF820KW", "vin": "WME4533421K149415", "coordinates": [7.63937, 45.07104, 0], "smartPhoneRequired": true, "interior": "GOOD", "exterior": "GOOD", "address": "Via Rubiana, 55, 10139 Torino", "fuel": 43, "engineType": "CE"}, {"name": "171/FF196NT", "vin": "WME4533421K151227", "coordinates": [7.68641, 45.05822, 0], "smartPhoneRequired": true, "interior": "GOOD", "exterior": "GOOD", "address": "Via Bernardino Galliari, 32-34, 10125 Torino", "fuel": 78, "engineType": "CE"}, {"name": "033/FF794KW", "vin": "WME4533421K149496", "coordinates": [7.70131, 45.10212, 0], "smartPhoneRequired": true, "interior": "GOOD", "exterior": "GOOD", "address": "Via Sandro Botticelli, 51, 10154 Torino", "fuel": 100, "engineType": "CE"}, {"name": "031/FF792KW", "vin": "WME4533421K148714", "coordinates": [7.65775, 45.10908, 0], "smartPhoneRequired": true, "interior": "GOOD", "exterior": "GOOD", "address": "Via Alfonso Badini Confalonieri, 66, 10148 Torino", "fuel": 46, "engineType": "CE"}, {"name": "174/FF199NT", "vin": "WME4533421K151401", "coordinates": [7.63529, 45.08362, 0], "smartPhoneRequired": true, "interior": "GOOD", "exterior": "GOOD", "address": "Via Giovanni Servais, 38, 10146 Torino", "fuel": 37, "engineType": "CE"}, {"name": "175/FF200NT", "vin": "WME4533421K151426", "coordinates": [7.61702, 45.06566, 0], "smartPhoneRequired": true, "interior": "GOOD", "exterior": "GOOD", "address": "Via Monginevro, 278, 10142 Torino", "fuel": 100, "engineType": "CE"}, {"name": "129/FF138NT", "vin": "WME4533421K152660", "coordinates": [7.6494, 45.02216, 0], "smartPhoneRequired": true, "interior": "GOOD", "exterior": "GOOD", "address": "Corso Traiano, 110, 10127 Torino", "fuel": 43, "engineType": "CE"}, {"name": "178/FF203NT", "vin": "WME4533421K151741", "coordinates": [7.66354, 45.05199, 0], "smartPhoneRequired": true, "interior": "GOOD", "exterior": "GOOD", "address": "Largo Re Umberto, 120, 10128 Torino", "fuel": 100, "engineType": "CE"}, {"name": "104/FF089NT", "vin": "WME4533421K147735", "coordinates": [7.66431, 45.07458, 0], "smartPhoneRequired": true, "interior": "GOOD", "exterior": "GOOD", "address": "Via Giambattista Gropello, 13, 10138 Torino", "fuel": 100, "engineType": "CE"}, {"name": "237/FF106SJ", "vin": "WME4533421K152784", "coordinates": [7.671, 45.02883, 0], "smartPhoneRequired": true, "interior": "GOOD", "exterior": "GOOD", "address": "Largo Millefonti, 41-51, 10126 Torino", "fuel": 78, "engineType": "CE"}, {"name": "304/FF279SJ", "vin": "WME4533421K151330", "coordinates": [7.64782, 45.10203, 0], "smartPhoneRequired": true, "interior": "GOOD", "exterior": "GOOD", "address": "Corso Lucio Quinzio Cincinnato, 203, 10151 Torino", "fuel": 37, "engineType": "CE"}, {"name": "241/FF112SJ", "vin": "WME4533421K152863", "coordinates": [7.6435, 45.18843, 0], "smartPhoneRequired": true, "interior": "GOOD", "exterior": "GOOD", "address": "Aeroporto Caselle 2", "fuel": 15, "engineType": "CE"}, {"name": "051/FF839KW", "vin": "WME4533421K146999", "coordinates": [7.65071, 45.05859, 0], "smartPhoneRequired": true, "interior": "GOOD", "exterior": "GOOD", "address": "Via Rio de Janeiro, 20-26, 10141 Torino", "fuel": 31, "engineType": "CE"}, {"name": "235/FF103SJ", "vin": "WME4533421K152744", "coordinates": [7.69639, 45.08639, 0], "smartPhoneRequired": true, "interior": "GOOD", "exterior": "GOOD", "address": "Via Girolamo Frescobaldi, 14, 10154 Torino", "fuel": 43, "engineType": "CE"}, {"name": "117/FF117NT", "vin": "WME4533421K151806", "coordinates": [7.62464, 45.06261, 0], "smartPhoneRequired": true, "interior": "GOOD", "exterior": "GOOD", "address": "Via Santa Maria Mazzarello, 34, 10142 Torino", "fuel": 43, "engineType": "CE"}, {"name": "072/FF038NT", "vin": "WME4533421K149239", "coordinates": [7.66853, 45.02632, 0], "smartPhoneRequired": true, "interior": "GOOD", "exterior": "GOOD", "address": "Corso Caduti sul Lavoro, 11, 10126 Torino", "fuel": 100, "engineType": "CE"}, {"name": "231/FF092SJ", "vin": "WME4533421K152433", "coordinates": [7.65557, 45.05435, 0], "smartPhoneRequired": true, "interior": "GOOD", "exterior": "GOOD", "address": "Via Antonio Pigafetta, 66, 10129 Torino", "fuel": 100, "engineType": "CE"}, {"name": "322/FF297SJ", "vin": "WME4533421K152370", "coordinates": [7.66594, 45.04468, 0], "smartPhoneRequired": true, "interior": "GOOD", "exterior": "GOOD", "address": "Corso Bramante, 31, 10134 Torino", "fuel": 96, "engineType": "CE"}, {"name": "096/FF062NT", "vin": "WME4533421K140507", "coordinates": [7.61982, 45.0783, 0], "smartPhoneRequired": true, "interior": "GOOD", "exterior": "GOOD", "address": "Via Giacinto Pacchiotti, 145, 10146 Torino", "fuel": 87, "engineType": "CE"}, {"name": "337/FF061VY", "vin": "WME4533421K154350", "coordinates": [7.65622, 45.0805, 0], "smartPhoneRequired": true, "interior": "GOOD", "exterior": "GOOD", "address": "Corso Alessandro Tassoni, 32, 10143 Torino", "fuel": 100, "engineType": "CE"}, {"name": "335/FF057VY", "vin": "WME4533421K150553", "coordinates": [7.63303, 45.06657, 0], "smartPhoneRequired": true, "interior": "GOOD", "exterior": "GOOD", "address": "Via Cardinale Maurilio Fossati, 34, 10141 Torino", "fuel": 100, "engineType": "CE"}, {"name": "336/FF059VY", "vin": "WME4533421K152222", "coordinates": [7.71391, 45.09374, 0], "smartPhoneRequired": true, "interior": "GOOD", "exterior": "GOOD", "address": "Via Giovanni Cravero 56, 2-4, 10154 Torino", "fuel": 87, "engineType": "CE"}, {"name": "331/FF064VV", "vin": "WME4533421K152146", "coordinates": [7.6435, 45.18843, 0], "smartPhoneRequired": true, "interior": "GOOD", "exterior": "GOOD", "address": "Aeroporto Caselle 2", "fuel": 71, "engineType": "CE"}, {"name": "332/FF065VV", "vin": "WME4533421K152238", "coordinates": [7.68418, 45.08178, 0], "smartPhoneRequired": true, "interior": "GOOD", "exterior": "GOOD", "address": "Via Borgo Dora, 61, 10152 Torino", "fuel": 90, "engineType": "CE"}, {"name": "334/FF067VV", "vin": "WME4533421K153457", "coordinates": [7.63728, 45.01474, 0], "smartPhoneRequired": true, "interior": "GOOD", "exterior": "GOOD", "address": "Via Giovanni Bovetti, 2, 10135 Torino", "fuel": 100, "engineType": "CE"}, {"name": "158/FF183NT", "vin": "WME4533421K151125", "coordinates": [7.6561, 45.05604, 0], "smartPhoneRequired": true, "interior": "GOOD", "exterior": "GOOD", "address": "Via Evangelista Torricelli, 57-59, 10129 Torino", "fuel": 100, "engineType": "CE"}, {"name": "330/FF063VV", "vin": "WME4533421K152132", "coordinates": [7.65059, 45.06297, 0], "smartPhoneRequired": true, "interior": "GOOD", "exterior": "GOOD", "address": "Via S. Paolo, 34-36, 10141 Torino", "fuel": 59, "engineType": "CE"}, {"name": "329/FF054VV", "vin": "WME4533421K152767", "coordinates": [7.65856, 45.08063, 0], "smartPhoneRequired": true, "interior": "GOOD", "exterior": "GOOD", "address": "Via Luigi Cibrario, 56-58, 10143 Torino", "fuel": 37, "engineType": "CE"}, {"name": "333/FF066VV", "vin": "WME4533421K153440", "coordinates": [7.71912, 45.07086, 0], "smartPhoneRequired": true, "interior": "GOOD", "exterior": "GOOD", "address": "Lungo Po Alessandro Antonelli, 95, 10153 Torino", "fuel": 75, "engineType": "CE"}, {"name": "328/FF053VV", "vin": "WME4533421K152738", "coordinates": [7.6123, 45.01923, 0], "smartPhoneRequired": true, "interior": "GOOD", "exterior": "GOOD", "address": "Via Gioacchino Quarello, 21, 10135 Torino", "fuel": 65, "engineType": "CE"}, {"name": "327/FF052VV", "vin": "WME4533421K152726", "coordinates": [7.65298, 45.03988, 0], "smartPhoneRequired": true, "interior": "GOOD", "exterior": "GOOD", "address": "Corso Galileo Ferraris, 292, 10134 Torino", "fuel": 37, "engineType": "CE"}, {"name": "326/FF051VV", "vin": "WME4533421K152612", "coordinates": [7.65571, 45.02687, 0], "smartPhoneRequired": true, "interior": "GOOD", "exterior": "GOOD", "address": "Via Carlo Bossoli, 103, 10127 Torino", "fuel": 71, "engineType": "CE"}, {"name": "325/FF050VV", "vin": "WME4533421K152585", "coordinates": [7.66679, 45.06005, 0], "smartPhoneRequired": true, "interior": "GOOD", "exterior": "GOOD", "address": "Corso Galileo Ferraris, 50-58, 10129 Torino", "fuel": 56, "engineType": "CE"}, {"name": "228/FF086SJ", "vin": "WME4533421K152289", "coordinates": [7.66997, 45.09908, 0], "smartPhoneRequired": true, "interior": "GOOD", "exterior": "GOOD", "address": "Via Breglio, 139, 10147 Torino", "fuel": 100, "engineType": "CE"}, {"name": "324/FF299SJ", "vin": "WME4533421K152456", "coordinates": [7.66968, 45.06306, 0], "smartPhoneRequired": true, "interior": "GOOD", "exterior": "GOOD", "address": "Corso Stati Uniti, 27, 10128 Torino", "fuel": 37, "engineType": "CE"}, {"name": "323/FF298SJ", "vin": "WME4533421K152377", "coordinates": [7.6525, 45.08266, 0], "smartPhoneRequired": true, "interior": "GOOD", "exterior": "GOOD", "address": "Via Luigi Cibrario, 91, 10143 Torino", "fuel": 34, "engineType": "CE"}, {"name": "338/FF062VY", "vin": "WME4533421K150561", "coordinates": [7.63224, 45.06176, 0], "smartPhoneRequired": true, "interior": "GOOD", "exterior": "GOOD", "address": "Via Matilde Serao, 50a, 10141 Torino", "fuel": 37, "engineType": "CE"}, {"name": "232/FF095SJ", "vin": "WME4533421K152603", "coordinates": [7.63473, 45.05709, 0], "smartPhoneRequired": true, "interior": "GOOD", "exterior": "GOOD", "address": "Corso Trapani, 275, 10141 Torino", "fuel": 75, "engineType": "CE"}, {"name": "176/FF201NT", "vin": "WME4533421K151695", "coordinates": [7.68204, 45.05437, 0], "smartPhoneRequired": true, "interior": "GOOD", "exterior": "GOOD", "address": "Via Ormea Carlo Francesco, 41, 10125 Torino", "fuel": 50, "engineType": "CE"}, {"name": "318/FF293SJ", "vin": "WME4533421K152078", "coordinates": [7.631, 45.08223, 0], "smartPhoneRequired": true, "interior": "GOOD", "exterior": "GOOD", "address": "Via Nicomede Bianchi, 70/1, 10146 Torino", "fuel": 53, "engineType": "CE"}, {"name": "319/FF294SJ", "vin": "WME4533421K152316", "coordinates": [7.63092, 45.01847, 0], "smartPhoneRequired": true, "interior": "GOOD", "exterior": "GOOD", "address": "Corso Unione Sovietica, 497B, 10135 Torino", "fuel": 62, "engineType": "CE"}, {"name": "321/FF296SJ", "vin": "WME4533421K152361", "coordinates": [7.66737, 45.05556, 0], "smartPhoneRequired": true, "interior": "GOOD", "exterior": "GOOD", "address": "Corso Re Umberto, 78, 10128 Torino", "fuel": 53, "engineType": "CE"}, {"name": "317/FF292SJ", "vin": "WME4533421K152074", "coordinates": [7.62418, 45.02127, 0], "smartPhoneRequired": true, "interior": "GOOD", "exterior": "GOOD", "address": "Via Pramollo, 8, 10135 Torino", "fuel": 62, "engineType": "CE"}, {"name": "316/FF291SJ", "vin": "WME4533421K152021", "coordinates": [7.67347, 45.0787, 0], "smartPhoneRequired": true, "interior": "GOOD", "exterior": "GOOD", "address": "Corso Principe Eugenio, 18, 10122 Torino", "fuel": 100, "engineType": "CE"}, {"name": "315/FF290SJ", "vin": "WME4533421K151959", "coordinates": [7.67836, 45.05679, 0], "smartPhoneRequired": true, "interior": "GOOD", "exterior": "GOOD", "address": "Corso Guglielmo Marconi, 7, 10125 Torino", "fuel": 65, "engineType": "CE"}, {"name": "312/FF287SJ", "vin": "WME4533421K151703", "coordinates": [7.6857, 45.05746, 0], "smartPhoneRequired": true, "interior": "GOOD", "exterior": "GOOD", "address": "Via Claudio Luigi Berthollet, 42-46, 10125 Torino", "fuel": 100, "engineType": "CE"}, {"name": "313/FF288SJ", "vin": "WME4533421K151745", "coordinates": [7.62582, 45.08387, 0], "smartPhoneRequired": true, "interior": "GOOD", "exterior": "GOOD", "address": "Via Giovanni Servais, 115-121, 10146 Torino", "fuel": 93, "engineType": "CE"}, {"name": "314/FF289SJ", "vin": "WME4533421K151750", "coordinates": [7.66612, 45.01956, 0], "smartPhoneRequired": true, "interior": "GOOD", "exterior": "GOOD", "address": "Via Ventimiglia, 203-219, 10127 Torino", "fuel": 71, "engineType": "CE"}, {"name": "350/FF154VY", "vin": "WME4533421K152534", "coordinates": [7.6669, 45.05271, 0], "smartPhoneRequired": true, "interior": "GOOD", "exterior": "GOOD", "address": "Via Massena, 94-108, 10128 Torino", "fuel": 100, "engineType": "CE"}, {"name": "307/FF282SJ", "vin": "WME4533421K151464", "coordinates": [7.65257, 45.08848, 0], "smartPhoneRequired": true, "interior": "GOOD", "exterior": "GOOD", "address": "Corso Potenza, 2-6, 10143 Torino", "fuel": 96, "engineType": "CE"}, {"name": "306/FF281SJ", "vin": "WME4533421K151421", "coordinates": [7.6435, 45.18843, 0], "smartPhoneRequired": true, "interior": "GOOD", "exterior": "GOOD", "address": "Aeroporto Caselle 2", "fuel": 96, "engineType": "CE"}, {"name": "303/FF278SJ", "vin": "WME4533421K151234", "coordinates": [7.63541, 45.04557, 0], "smartPhoneRequired": true, "interior": "GOOD", "exterior": "GOOD", "address": "Via Filadelfia, 232, 10137 Torino", "fuel": 71, "engineType": "CE"}, {"name": "298/FF248SJ", "vin": "WME4533421K152518", "coordinates": [7.65873, 45.06236, 0], "smartPhoneRequired": true, "interior": "GOOD", "exterior": "GOOD", "address": "Corso Castelfidardo, 42, 10138 Torino", "fuel": 87, "engineType": "CE"}, {"name": "302/FF277SJ", "vin": "WME4533421K151109", "coordinates": [7.65912, 45.06252, 0], "smartPhoneRequired": true, "interior": "GOOD", "exterior": "GOOD", "address": "Corso Castelfidardo, 10129 Torino", "fuel": 62, "engineType": "CE"}, {"name": "167/FF192NT", "vin": "WME4533421K153526", "coordinates": [7.70981, 45.06279, 0], "smartPhoneRequired": true, "interior": "GOOD", "exterior": "GOOD", "address": "Via Luisa del Carretto, 58, 10131 Torino", "fuel": 34, "engineType": "CE"}, {"name": "299/FF249SJ", "vin": "WME4533421K152526", "coordinates": [7.70519, 45.0618, 0], "smartPhoneRequired": true, "interior": "GOOD", "exterior": "GOOD", "address": "Via Felice Romani, 27-29, 10131 Torino", "fuel": 100, "engineType": "CE"}, {"name": "297/FF039SJ", "vin": "WME4533421K152474", "coordinates": [7.66911, 45.05038, 0], "smartPhoneRequired": true, "interior": "GOOD", "exterior": "GOOD", "address": "Via Agostino da Montefeltro, 81, 10134 Torino", "fuel": 90, "engineType": "CE"}, {"name": "254/FF141SJ", "vin": "WME4533421K154636", "coordinates": [7.64699, 45.0438, 0], "smartPhoneRequired": true, "interior": "GOOD", "exterior": "GOOD", "address": "Via Raffaele Cadorna, 38, 10137 Torino", "fuel": 100, "engineType": "CE"}, {"name": "250/FF136SJ", "vin": "WME4533421K154162", "coordinates": [7.64473, 45.10857, 0], "smartPhoneRequired": true, "interior": "GOOD", "exterior": "GOOD", "address": "Strada Comunale di Altessano, 131, 10151 Torino", "fuel": 100, "engineType": "CE"}, {"name": "222/FF073SJ", "vin": "WME4533421K151837", "coordinates": [7.65454, 45.05165, 0], "smartPhoneRequired": true, "interior": "GOOD", "exterior": "GOOD", "address": "Via Tirreno, 1078, 10136 Torino", "fuel": 25, "engineType": "CE"}, {"name": "252/FF139SJ", "vin": "WME4533421K154537", "coordinates": [7.62918, 45.01585, 0], "smartPhoneRequired": true, "interior": "GOOD", "exterior": "GOOD", "address": "Via Arturo Farinelli, 9-25, 10135 Torino", "fuel": 25, "engineType": "CE"}, {"name": "253/FF140SJ", "vin": "WME4533421K154540", "coordinates": [7.66125, 45.05856, 0], "smartPhoneRequired": true, "interior": "GOOD", "exterior": "GOOD", "address": "Via Giacomo Bove, 14, 10129 Torino", "fuel": 40, "engineType": "CE"}, {"name": "249/FF133SJ", "vin": "WME4533421K153891", "coordinates": [7.62396, 45.08073, 0], "smartPhoneRequired": true, "interior": "GOOD", "exterior": "GOOD", "address": "Via Vittorio Asinari di Bernezzo, 140-150, 10146 Torino", "fuel": 43, "engineType": "CE"}, {"name": "244/FF119SJ", "vin": "WME4533421K152950", "coordinates": [7.66236, 45.04385, 0], "smartPhoneRequired": true, "interior": "GOOD", "exterior": "GOOD", "address": "Via Pasquale Galluppi, 14-26, 10134 Torino", "fuel": 90, "engineType": "CE"}, {"name": "247/FF128SJ", "vin": "WME4533421K153601", "coordinates": [7.66288, 45.06568, 0], "smartPhoneRequired": true, "interior": "GOOD", "exterior": "GOOD", "address": "Corso Stati Uniti, 61, 10129 Torino", "fuel": 59, "engineType": "CE"}, {"name": "246/FF126SJ", "vin": "WME4533421K153530", "coordinates": [7.66133, 45.06487, 0], "smartPhoneRequired": true, "interior": "GOOD", "exterior": "GOOD", "address": "Corso Rodolfo Montevecchio, 77, 10129 Torino", "fuel": 81, "engineType": "CE"}, {"name": "242/FF115SJ", "vin": "WME4533421K152875", "coordinates": [7.64831, 45.09964, 0], "smartPhoneRequired": true, "interior": "GOOD", "exterior": "GOOD", "address": "Corso Toscana, 107, 10151 Torino", "fuel": 62, "engineType": "CE"}, {"name": "240/FF111SJ", "vin": "WME4533421K152832", "coordinates": [7.63916, 45.02783, 0], "smartPhoneRequired": true, "interior": "GOOD", "exterior": "GOOD", "address": "Via Alessandro Pernati di Momo, 16A, 10135 Torino", "fuel": 34, "engineType": "CE"}, {"name": "236/FF104SJ", "vin": "WME4533421K152753", "coordinates": [7.67047, 45.07042, 0], "smartPhoneRequired": true, "interior": "GOOD", "exterior": "GOOD", "address": "Via Raimondo Montecuccoli, 14, 10121 Torino", "fuel": 90, "engineType": "CE"}, {"name": "238/FF107SJ", "vin": "WME4533421K152788", "coordinates": [7.61239, 45.01931, 0], "smartPhoneRequired": true, "interior": "GOOD", "exterior": "GOOD", "address": "Via Gioacchino Quarello, 40, 10135 Torino", "fuel": 50, "engineType": "CE"}, {"name": "239/FF108SJ", "vin": "WME4533421K152809", "coordinates": [7.66718, 45.02457, 0], "smartPhoneRequired": true, "interior": "GOOD", "exterior": "GOOD", "address": "Via Valenza, 72, 10127 Torino", "fuel": 65, "engineType": "CE"}, {"name": "234/FF102SJ", "vin": "WME4533421K152722", "coordinates": [7.66854, 45.0547, 0], "smartPhoneRequired": true, "interior": "GOOD", "exterior": "GOOD", "address": "Via Antonio Genovesi, 14, 10128 Torino", "fuel": 71, "engineType": "CE"}, {"name": "233/FF100SJ", "vin": "WME4533421K152708", "coordinates": [7.66936, 45.10325, 0], "smartPhoneRequired": true, "interior": "GOOD", "exterior": "GOOD", "address": "Via Sospello, 21-35, 10147 Torino", "fuel": 100, "engineType": "CE"}, {"name": "230/FF091SJ", "vin": "WME4533421K152428", "coordinates": [7.70105, 45.08486, 0], "smartPhoneRequired": true, "interior": "GOOD", "exterior": "GOOD", "address": "Via Bologna, 120-128, 10154 Torino", "fuel": 100, "engineType": "CE"}, {"name": "229/FF088SJ", "vin": "WME4533421K152402", "coordinates": [7.66776, 45.06122, 0], "smartPhoneRequired": true, "interior": "GOOD", "exterior": "GOOD", "address": "Corso Galileo Ferraris, 46, 10129 Torino", "fuel": 100, "engineType": "CE"}, {"name": "226/FF080SJ", "vin": "WME4533421K152116", "coordinates": [7.64908, 45.10407, 0], "smartPhoneRequired": true, "interior": "GOOD", "exterior": "GOOD", "address": "Via Fiesole, 14, 10151 Torino", "fuel": 96, "engineType": "CE"}, {"name": "215/FF055SJ", "vin": "WME4533421K151187", "coordinates": [7.66694, 45.02313, 0], "smartPhoneRequired": true, "interior": "GOOD", "exterior": "GOOD", "address": "Via Frabosa, 5-13, 10127 Torino", "fuel": 100, "engineType": "CE"}, {"name": "221/FF071SJ", "vin": "WME4533421K151721", "coordinates": [7.66379, 45.01896, 0], "smartPhoneRequired": true, "interior": "GOOD", "exterior": "GOOD", "address": "Via Nizza, 14, 10127 Torino", "fuel": 100, "engineType": "CE"}, {"name": "219/FF067SJ", "vin": "WME4533421K151576", "coordinates": [7.71221, 45.08983, 0], "smartPhoneRequired": true, "interior": "GOOD", "exterior": "GOOD", "address": "Via Sempione, Torino", "fuel": 100, "engineType": "CE"}, {"name": "217/FF062SJ", "vin": "WME4533421K151473", "coordinates": [7.67066, 45.07883, 0], "smartPhoneRequired": true, "interior": "GOOD", "exterior": "GOOD", "address": "Via Santa Chiara, 49, 10122 Torino", "fuel": 62, "engineType": "CE"}, {"name": "218/FF065SJ", "vin": "WME4533421K144610", "coordinates": [7.64599, 45.10622, 0], "smartPhoneRequired": true, "interior": "GOOD", "exterior": "GOOD", "address": "Corso Grosseto, 395, 10151 Torino", "fuel": 62, "engineType": "CE"}, {"name": "216/FF056SJ", "vin": "WME4533421K151288", "coordinates": [7.61673, 45.07137, 0], "smartPhoneRequired": true, "interior": "GOOD", "exterior": "GOOD", "address": "Via Cirenaica, 4, 10142 Torino", "fuel": 100, "engineType": "CE"}, {"name": "213/FF052SJ", "vin": "WME4533421K150842", "coordinates": [7.66844, 45.0984, 0], "smartPhoneRequired": true, "interior": "GOOD", "exterior": "GOOD", "address": "Via Belgirate, 10, 10149 Torino", "fuel": 93, "engineType": "CE"}, {"name": "211/FF050SJ", "vin": "WME4533421K150548", "coordinates": [7.6704, 45.10004, 0], "smartPhoneRequired": true, "interior": "GOOD", "exterior": "GOOD", "address": "Via Cardinale Guglielmo Massaia, 76, 10147 Torino", "fuel": 56, "engineType": "CE"}, {"name": "212/FF051SJ", "vin": "WME4533421K150750", "coordinates": [7.65785, 45.05529, 0], "smartPhoneRequired": true, "interior": "GOOD", "exterior": "GOOD", "address": "Corso Duca degli Abruzzi, 83, 10129 Torino", "fuel": 84, "engineType": "CE"}, {"name": "210/FF049SJ", "vin": "WME4533421K150514", "coordinates": [7.67779, 45.09478, 0], "smartPhoneRequired": true, "interior": "GOOD", "exterior": "GOOD", "address": "Via Michele Antonio Vib\u00f2, 24, 10147 Torino", "fuel": 96, "engineType": "CE"}, {"name": "209/FF046SJ", "vin": "WME4533421K150446", "coordinates": [7.65526, 45.04331, 0], "smartPhoneRequired": true, "interior": "GOOD", "exterior": "GOOD", "address": "Corso Galileo Ferraris, 206-224, 10134 Torino", "fuel": 21, "engineType": "CE"}, {"name": "208/FF045SJ", "vin": "WME4533421K150403", "coordinates": [7.68625, 45.08464, 0], "smartPhoneRequired": true, "interior": "GOOD", "exterior": "GOOD", "address": "Corso Vercelli, 12, 10152 Torino", "fuel": 50, "engineType": "CE"}, {"name": "207/FF044SJ", "vin": "WME4533421K154687", "coordinates": [7.64097, 45.02884, 0], "smartPhoneRequired": true, "interior": "GOOD", "exterior": "GOOD", "address": "Via Felice Rignon, 10, 10135 Torino", "fuel": 93, "engineType": "CE"}, {"name": "107/FF095NT", "vin": "WME4533421K144545", "coordinates": [7.652, 45.06361, 0], "smartPhoneRequired": true, "interior": "GOOD", "exterior": "GOOD", "address": "Corso Peschiera, 149, 10141 Torino", "fuel": 100, "engineType": "CE"}, {"name": "092/FF058NT", "vin": "WME4533421K150278", "coordinates": [7.66845, 45.06775, 0], "smartPhoneRequired": true, "interior": "GOOD", "exterior": "GOOD", "address": "Via S. Quintino, 42, 10121 Torino", "fuel": 100, "engineType": "CE"}, {"name": "309/FA236ND", "vin": "WME4513341K739924", "coordinates": [7.67102, 45.02879, 0], "smartPhoneRequired": false, "interior": "GOOD", "exterior": "GOOD", "address": "Largo Millefonti, 41-51, 10126 Torino", "fuel": 27, "engineType": "CE"}, {"name": "064/FF030NT", "vin": "WME4533421K140710", "coordinates": [7.64292, 45.05609, 0], "smartPhoneRequired": true, "interior": "GOOD", "exterior": "GOOD", "address": "Corso Carlo e Nello Rosselli, 10141 Torino", "fuel": 100, "engineType": "CE"}, {"name": "011/FF759KW", "vin": "WME4533421K148298", "coordinates": [7.70328, 45.07391, 0], "smartPhoneRequired": true, "interior": "GOOD", "exterior": "GOOD", "address": "Via Bettino Ricasoli, 60, 10153 Torino", "fuel": 100, "engineType": "CE"}, {"name": "159/EZ463NP", "vin": "WME4513341K737387", "coordinates": [7.63473, 45.05765, 0], "smartPhoneRequired": false, "interior": "GOOD", "exterior": "GOOD", "address": "Corso Trapani, 267, 10141 Torino", "fuel": 96, "engineType": "CE"}, {"name": "177/FF202NT", "vin": "WME4533421K151736", "coordinates": [7.67767, 45.05857, 0], "smartPhoneRequired": true, "interior": "GOOD", "exterior": "GOOD", "address": "Via Giuseppe Baretti, 1, 10125 Torino", "fuel": 31, "engineType": "CE"}, {"name": "114/FF113NT", "vin": "WME4533421K148370", "coordinates": [7.65518, 45.02128, 0], "smartPhoneRequired": true, "interior": "GOOD", "exterior": "GOOD", "address": "Via Sette Comuni, 23, 10127 Torino", "fuel": 81, "engineType": "CE"}, {"name": "152/EZ587NP", "vin": "WME4513341K740479", "coordinates": [7.64359, 45.0559, 0], "smartPhoneRequired": false, "interior": "GOOD", "exterior": "GOOD", "address": "Corso Carlo e Nello Rosselli, 165-175, 10141 Torino", "fuel": 100, "engineType": "CE"}, {"name": "305/FA201ND", "vin": "WME4513341K741882", "coordinates": [7.6241, 45.06895, 0], "smartPhoneRequired": false, "interior": "GOOD", "exterior": "GOOD", "address": "Corso Filippo Brunelleschi, 69, 10141 Torino", "fuel": 24, "engineType": "CE"}, {"name": "154/EZ477NP", "vin": "WME4513341K738609", "coordinates": [7.70706, 45.09587, 0], "smartPhoneRequired": false, "interior": "GOOD", "exterior": "GOOD", "address": "Via Giambattista Pergolesi, 91, 10154 Torino", "fuel": 36, "engineType": "CE"}, {"name": "173/FF198NT", "vin": "WME4533421K151300", "coordinates": [7.67411, 45.0916, 0], "smartPhoneRequired": true, "interior": "GOOD", "exterior": "GOOD", "address": "Via Monte Soglio, 1, 10149 Torino", "fuel": 18, "engineType": "CE"}, {"name": "030/FF791KW", "vin": "WME4533421K148710", "coordinates": [7.67936, 45.06178, 0], "smartPhoneRequired": true, "interior": "GOOD", "exterior": "GOOD", "address": "Via Nizza, 2, 10125 Torino", "fuel": 100, "engineType": "CE"}, {"name": "306/FA172ND", "vin": "WME4513341K741479", "coordinates": [7.66618, 45.06683, 0], "smartPhoneRequired": false, "interior": "GOOD", "exterior": "GOOD", "address": "Corso Duca degli Abruzzi, 3, 10128 Torino", "fuel": 100, "engineType": "CE"}, {"name": "124/FG348FH", "vin": "WME4533421K152394", "coordinates": [7.66979, 45.05551, 0], "smartPhoneRequired": true, "interior": "GOOD", "exterior": "GOOD", "address": "Via Vincenzo Gioberti, 84, 10128 Torino", "fuel": 100, "engineType": "CE"}, {"name": "053/FF841KW", "vin": "WME4533421K146432", "coordinates": [7.67398, 45.07969, 0], "smartPhoneRequired": true, "interior": "GOOD", "exterior": "GOOD", "address": "Corso Regina Margherita, 149, 10122 Torino", "fuel": 28, "engineType": "CE"}, {"name": "037/FF798KW", "vin": "WME4533421K149364", "coordinates": [7.65028, 45.07885, 0], "smartPhoneRequired": true, "interior": "GOOD", "exterior": "GOOD", "address": "Via Bianz\u00e8, 39-41, 10143 Torino", "fuel": 100, "engineType": "CE"}, {"name": "126/FF135NT", "vin": "WME4533421K152559", "coordinates": [7.69322, 45.05495, 0], "smartPhoneRequired": true, "interior": "GOOD", "exterior": "GOOD", "address": "Via Mentana, 19, 10133 Torino", "fuel": 93, "engineType": "CE"}, {"name": "192/EZ547NP", "vin": "WME4513341K751436", "coordinates": [7.70526, 45.09638, 0], "smartPhoneRequired": false, "interior": "GOOD", "exterior": "GOOD", "address": "Via Pergolesi Giambattista, 74, 10154 Torino", "fuel": 60, "engineType": "CE"}, {"name": "198/FF352NT", "vin": "WME4533421K153899", "coordinates": [7.71608, 45.09509, 0], "smartPhoneRequired": true, "interior": "GOOD", "exterior": "GOOD", "address": "Via Sandro Botticelli, 182, 10154 Torino", "fuel": 100, "engineType": "CE"}, {"name": "153/FF178NT", "vin": "WME4533421K152349", "coordinates": [7.63107, 45.03888, 0], "smartPhoneRequired": true, "interior": "GOOD", "exterior": "GOOD", "address": "Corso Orbassano, 264, 10137 Torino", "fuel": 65, "engineType": "CE"}, {"name": "180/EZ512NP", "vin": "WME4513341K745658", "coordinates": [7.6643, 45.0685, 0], "smartPhoneRequired": false, "interior": "GOOD", "exterior": "GOOD", "address": "Corso Bolzano, 38, 10121 Torino", "fuel": 100, "engineType": "CE"}, {"name": "165/EZ484NP", "vin": "WME4513341K742005", "coordinates": [7.70956, 45.09899, 0], "smartPhoneRequired": false, "interior": "GOOD", "exterior": "GOOD", "address": "Via Sandro Botticelli, 104, 10154 Torino", "fuel": 60, "engineType": "CE"}, {"name": "034/FF795KW", "vin": "WME4533421K149750", "coordinates": [7.62682, 45.06378, 0], "smartPhoneRequired": true, "interior": "GOOD", "exterior": "GOOD", "address": "Corso Filippo Brunelleschi, 135, 10141 Torino", "fuel": 100, "engineType": "CE"}, {"name": "255/FF143SJ", "vin": "WME4533421K144315", "coordinates": [7.62156, 45.08065, 0], "smartPhoneRequired": true, "interior": "GOOD", "exterior": "GOOD", "address": "Via Masera, 5, 10146 Torino", "fuel": 43, "engineType": "CE"}, {"name": "257/FF145SJ", "vin": "WME4533421K154309", "coordinates": [7.61366, 45.02103, 0], "smartPhoneRequired": true, "interior": "GOOD", "exterior": "GOOD", "address": "Via Plava, 76-78, 10135 Torino", "fuel": 71, "engineType": "CE"}, {"name": "166/FF191NT", "vin": "WME4533421K152985", "coordinates": [7.63049, 45.01182, 0], "smartPhoneRequired": true, "interior": "GOOD", "exterior": "GOOD", "address": "Str. Castello di Mirafiori, 57, 10135 Torino", "fuel": 34, "engineType": "CE"}, {"name": "264/FF157SJ", "vin": "WME4533421K150729", "coordinates": [7.67373, 45.08206, 0], "smartPhoneRequired": true, "interior": "GOOD", "exterior": "GOOD", "address": "Via Biella, 14, 10152 Torino", "fuel": 75, "engineType": "CE"}, {"name": "265/FF158SJ", "vin": "WME4533421K150748", "coordinates": [7.63748, 45.05899, 0], "smartPhoneRequired": true, "interior": "GOOD", "exterior": "GOOD", "address": "Via Isonzo, 129, 10141 Torino", "fuel": 84, "engineType": "CE"}, {"name": "267/FF162SJ", "vin": "WME4533421K150965", "coordinates": [7.65206, 45.02187, 0], "smartPhoneRequired": true, "interior": "GOOD", "exterior": "GOOD", "address": "Corso Traiano, 121, 10127 Torino", "fuel": 96, "engineType": "CE"}, {"name": "273/FF184SJ", "vin": "WME4533421K151933", "coordinates": [7.61785, 45.01483, 0], "smartPhoneRequired": true, "interior": "GOOD", "exterior": "GOOD", "address": "Str. del Drosso, 59, 10135 Torino", "fuel": 65, "engineType": "CE"}, {"name": "276/FF187SJ", "vin": "WME4533421K152055", "coordinates": [7.62898, 45.0409, 0], "smartPhoneRequired": true, "interior": "GOOD", "exterior": "GOOD", "address": "Via Guido Reni, 203, 10137 Torino", "fuel": 93, "engineType": "CE"}, {"name": "182/FF336NT", "vin": "WME4533421K151277", "coordinates": [7.67297, 45.07023, 0], "smartPhoneRequired": true, "interior": "GOOD", "exterior": "GOOD", "address": "Via Alessandro Vittorio Papacino, 21c, 10121 Torino", "fuel": 81, "engineType": "CE"}, {"name": "180/FF334NT", "vin": "WME4533421K149939", "coordinates": [7.69884, 45.0809, 0], "smartPhoneRequired": true, "interior": "GOOD", "exterior": "GOOD", "address": "Corso Novara 99, 10152 Torino", "fuel": 71, "engineType": "CE"}, {"name": "272/FF182SJ", "vin": "WME4533421K151843", "coordinates": [7.61126, 45.01656, 0], "smartPhoneRequired": true, "interior": "GOOD", "exterior": "GOOD", "address": "Str. del Drosso, 132-140, 10135 Torino", "fuel": 25, "engineType": "CE"}, {"name": "279/FF195SJ", "vin": "WME4533421K152365", "coordinates": [7.64506, 45.11115, 0], "smartPhoneRequired": true, "interior": "GOOD", "exterior": "GOOD", "address": "Strada Comunale di Altessano, 131, 10151 Torino", "fuel": 100, "engineType": "CE"}, {"name": "186/FF340NT", "vin": "WME4533421K152000", "coordinates": [7.61832, 45.08047, 0], "smartPhoneRequired": true, "interior": "GOOD", "exterior": "GOOD", "address": "Via Valentino Carrera, 158-162, 10146 Torino", "fuel": 28, "engineType": "CE"}, {"name": "269/FF169SJ", "vin": "WME4533421K151363", "coordinates": [7.6269, 45.0732, 0], "smartPhoneRequired": true, "interior": "GOOD", "exterior": "GOOD", "address": "Corso Peschiera, 331, 10141 Torino", "fuel": 100, "engineType": "CE"}, {"name": "188/FF342NT", "vin": "WME4533421K152070", "coordinates": [7.62708, 45.03963, 0], "smartPhoneRequired": true, "interior": "GOOD", "exterior": "GOOD", "address": "Via Paolo Gaidano, 12, 10137 Torino", "fuel": 56, "engineType": "CE"}, {"name": "190/FF344NT", "vin": "WME4533421K152229", "coordinates": [7.67476, 45.08537, 0], "smartPhoneRequired": true, "interior": "GOOD", "exterior": "GOOD", "address": "Corso Principe Oddone, 62, 10152 Torino", "fuel": 50, "engineType": "CE"}, {"name": "278/FF194SJ", "vin": "WME4533421K152357", "coordinates": [7.6435, 45.18843, 0], "smartPhoneRequired": true, "interior": "GOOD", "exterior": "GOOD", "address": "Aeroporto Caselle 2", "fuel": 62, "engineType": "CE"}, {"name": "277/FF188SJ", "vin": "WME4533421K150338", "coordinates": [7.67579, 45.07864, 0], "smartPhoneRequired": true, "interior": "GOOD", "exterior": "GOOD", "address": "Corso Valdocco, 19, 10122 Torino", "fuel": 100, "engineType": "CE"}, {"name": "282/FF206SJ", "vin": "WME4533421K152540", "coordinates": [7.65439, 45.04002, 0], "smartPhoneRequired": true, "interior": "GOOD", "exterior": "GOOD", "address": "Corso Unione Sovietica, 190, 10134 Torino", "fuel": 53, "engineType": "CE"}, {"name": "095/FF061NT", "vin": "WME4533421K150329", "coordinates": [7.68914, 45.06412, 0], "smartPhoneRequired": true, "interior": "GOOD", "exterior": "GOOD", "address": "Via S. Massimo, 18-20, 10123 Torino", "fuel": 100, "engineType": "CE"}, {"name": "097/FF063NT", "vin": "WME4533421K142060", "coordinates": [7.62854, 45.07325, 0], "smartPhoneRequired": true, "interior": "GOOD", "exterior": "GOOD", "address": "Via Pozzo Str., 20, 10139 Torino", "fuel": 53, "engineType": "CE"}, {"name": "094/FF060NT", "vin": "WME4533421K150318", "coordinates": [7.66287, 45.06306, 0], "smartPhoneRequired": true, "interior": "GOOD", "exterior": "GOOD", "address": "Corso Duca degli Abruzzi, 22, 10129 Torino", "fuel": 100, "engineType": "CE"}, {"name": "189/FF343NT", "vin": "WME4533421K152187", "coordinates": [7.71077, 45.06747, 0], "smartPhoneRequired": true, "interior": "GOOD", "exterior": "GOOD", "address": "Corso Casale, 83d, 10132 Torino", "fuel": 31, "engineType": "CE"}, {"name": "187/FF341NT", "vin": "WME4533421K152049", "coordinates": [7.58294, 45.09859, 0], "smartPhoneRequired": true, "interior": "GOOD", "exterior": "GOOD", "address": "IKEA", "fuel": 21, "engineType": "CE"}, {"name": "192/FF346NT", "vin": "WME4533421K152627", "coordinates": [7.71335, 45.09137, 0], "smartPhoneRequired": true, "interior": "GOOD", "exterior": "GOOD", "address": "Via Modesto Paroletti, 4, 10154 Torino", "fuel": 100, "engineType": "CE"}, {"name": "283/FF208SJ", "vin": "WME4533421K152563", "coordinates": [7.65339, 45.05863, 0], "smartPhoneRequired": true, "interior": "GOOD", "exterior": "GOOD", "address": "Via Augusto Berta, 15, 10141 Torino", "fuel": 40, "engineType": "CE"}, {"name": "284/FF209SJ", "vin": "WME4533421K152567", "coordinates": [7.64257, 45.10304, 0], "smartPhoneRequired": true, "interior": "GOOD", "exterior": "GOOD", "address": "Via Andrea Sansovino, 95-117, 10151 Torino", "fuel": 65, "engineType": "CE"}, {"name": "285/FF210SJ", "vin": "WME4533421K150384", "coordinates": [7.61592, 45.08, 0], "smartPhoneRequired": true, "interior": "GOOD", "exterior": "GOOD", "address": "Via Augusto Franzoj, 3, 10146 Torino", "fuel": 68, "engineType": "CE"}, {"name": "091/FF057NT", "vin": "WME4533421K150264", "coordinates": [7.6583, 45.07776, 0], "smartPhoneRequired": true, "interior": "GOOD", "exterior": "GOOD", "address": "Via Giuseppe Talucchi, 42, 10143 Torino", "fuel": 87, "engineType": "CE"}, {"name": "059/FF025NT", "vin": "WME4533421K142426", "coordinates": [7.67816, 45.08546, 0], "smartPhoneRequired": true, "interior": "GOOD", "exterior": "GOOD", "address": "Str. del Fortino, 34, 10152 Torino", "fuel": 100, "engineType": "CE"}, {"name": "286/FF212SJ", "vin": "WME4533421K152581", "coordinates": [7.66727, 45.02215, 0], "smartPhoneRequired": true, "interior": "GOOD", "exterior": "GOOD", "address": "Via Ventimiglia, 165, 10127 Torino", "fuel": 100, "engineType": "CE"}, {"name": "087/FF053NT", "vin": "WME4533421K150209", "coordinates": [7.62469, 45.02076, 0], "smartPhoneRequired": true, "interior": "GOOD", "exterior": "GOOD", "address": "Via Pramollo, 15, 10135 Torino", "fuel": 62, "engineType": "CE"}, {"name": "098/FF064NT", "vin": "WME4533421K142113", "coordinates": [7.64213, 45.05615, 0], "smartPhoneRequired": true, "interior": "GOOD", "exterior": "GOOD", "address": "Corso Carlo e Nello Rosselli, 175, 10141 Torino", "fuel": 68, "engineType": "CE"}, {"name": "195/FF349NT", "vin": "WME4533421K152703", "coordinates": [7.66873, 45.0882, 0], "smartPhoneRequired": true, "interior": "GOOD", "exterior": "GOOD", "address": "Via Livorno, 59-67, 10144 Torino", "fuel": 56, "engineType": "CE"}, {"name": "289/FF215SJ", "vin": "WME4533421K152667", "coordinates": [7.63749, 45.02448, 0], "smartPhoneRequired": true, "interior": "GOOD", "exterior": "GOOD", "address": "Corso Unione Sovietica, 397, 10135 Torino", "fuel": 62, "engineType": "CE"}, {"name": "290/FF222SJ", "vin": "WME4533421K152836", "coordinates": [7.67589, 45.09009, 0], "smartPhoneRequired": true, "interior": "GOOD", "exterior": "GOOD", "address": "Corso Mortara, 4, 10149 Torino", "fuel": 87, "engineType": "CE"}, {"name": "082/FF048NT", "vin": "WME4533421K149815", "coordinates": [7.66, 45.08213, 0], "smartPhoneRequired": true, "interior": "GOOD", "exterior": "GOOD", "address": "Via S. Donato, 65-71, 10144 Torino", "fuel": 100, "engineType": "CE"}, {"name": "197/FF351NT", "vin": "WME4533421K153540", "coordinates": [7.63003, 45.07408, 0], "smartPhoneRequired": true, "interior": "GOOD", "exterior": "GOOD", "address": "Via Quart, 11, 10139 Torino", "fuel": 59, "engineType": "CE"}, {"name": "079/FF045NT", "vin": "WME4533421K149625", "coordinates": [7.66693, 45.06723, 0], "smartPhoneRequired": true, "interior": "GOOD", "exterior": "GOOD", "address": "Corso Vittorio Emanuele II, 98, 10121 Torino", "fuel": 56, "engineType": "CE"}, {"name": "038/FF799KW", "vin": "WME4533421K148677", "coordinates": [7.66283, 45.04708, 0], "smartPhoneRequired": true, "interior": "GOOD", "exterior": "GOOD", "address": "Corso Filippo Turati, 65-71, 10134 Torino", "fuel": 40, "engineType": "CE"}, {"name": "294/FF238SJ", "vin": "WME4533421K153398", "coordinates": [7.64031, 45.0681, 0], "smartPhoneRequired": true, "interior": "GOOD", "exterior": "GOOD", "address": "Corso Peschiera, 219, 10141 Torino", "fuel": 100, "engineType": "CE"}, {"name": "068/FF034NT", "vin": "WME4533421K148730", "coordinates": [7.67794, 45.02973, 0], "smartPhoneRequired": true, "interior": "GOOD", "exterior": "GOOD", "address": "Corso Moncalieri, 334, 10133 Torino", "fuel": 68, "engineType": "CE"}, {"name": "066/FF032NT", "vin": "WME4533421K148617", "coordinates": [7.63525, 45.05881, 0], "smartPhoneRequired": true, "interior": "GOOD", "exterior": "GOOD", "address": "Corso Trapani, 225, 10141 Torino", "fuel": 65, "engineType": "CE"}, {"name": "063/FF029NT", "vin": "WME4533421K147566", "coordinates": [7.66755, 45.07579, 0], "smartPhoneRequired": true, "interior": "GOOD", "exterior": "GOOD", "address": "Corso Inghilterra, 51, 10138 Torino", "fuel": 84, "engineType": "CE"}, {"name": "275/FF186SJ", "vin": "WME4533421K152045", "coordinates": [7.66025, 45.05485, 0], "smartPhoneRequired": true, "interior": "GOOD", "exterior": "GOOD", "address": "Via Giuseppe Piazzi, 26, 10129 Torino", "fuel": 100, "engineType": "CE"}, {"name": "089/FF055NT", "vin": "WME4533421K150229", "coordinates": [7.67119, 45.05354, 0], "smartPhoneRequired": true, "interior": "GOOD", "exterior": "GOOD", "address": "Via Chisone, 18, 10128 Torino", "fuel": 93, "engineType": "CE"}, {"name": "025/FF783KW", "vin": "WME4533421K149079", "coordinates": [7.65315, 45.09814, 0], "smartPhoneRequired": true, "interior": "GOOD", "exterior": "GOOD", "address": "Corso Toscana, 71, 10149 Torino", "fuel": 56, "engineType": "CE"}, {"name": "303/FA221ND", "vin": "WME4513341K741551", "coordinates": [7.63469, 45.05026, 0], "smartPhoneRequired": false, "interior": "GOOD", "exterior": "GOOD", "address": "Corso Siracusa, 51, 10136 Torino", "fuel": 84, "engineType": "CE"}, {"name": "291/FF226SJ", "vin": "WME4533421K152905", "coordinates": [7.65673, 45.09476, 0], "smartPhoneRequired": true, "interior": "GOOD", "exterior": "GOOD", "address": "Corso Potenza, 86A, 10149 Torino", "fuel": 75, "engineType": "CE"}, {"name": "084/FF050NT", "vin": "WME4533421K149974", "coordinates": [7.69696, 45.05799, 0], "smartPhoneRequired": true, "interior": "GOOD", "exterior": "GOOD", "address": "Via Sommacampagna, 21, 10131 Torino", "fuel": 93, "engineType": "CE"}, {"name": "024/FF782KW", "vin": "WME4533421K149070", "coordinates": [7.67558, 45.06646, 0], "smartPhoneRequired": true, "interior": "GOOD", "exterior": "GOOD", "address": "Corso Re Umberto, 7, 10121 Torino", "fuel": 93, "engineType": "CE"}, {"name": "020/FF778KW", "vin": "WME4533421K148812", "coordinates": [7.66818, 45.05455, 0], "smartPhoneRequired": true, "interior": "GOOD", "exterior": "GOOD", "address": "Via Massena, 78-82, 10128 Torino", "fuel": 93, "engineType": "CE"}, {"name": "021/FF779KW", "vin": "WME4533421K148838", "coordinates": [7.67751, 45.10142, 0], "smartPhoneRequired": true, "interior": "GOOD", "exterior": "GOOD", "address": "Via Gaetano Mosca, 3, 10147 Torino", "fuel": 100, "engineType": "CE"}, {"name": "012/FF762KW", "vin": "WME4533421K148448", "coordinates": [7.62472, 45.04413, 0], "smartPhoneRequired": true, "interior": "GOOD", "exterior": "GOOD", "address": "Via Edoardo Rubino, 2, 10137 Torino", "fuel": 28, "engineType": "CE"}, {"name": "201/FF355NT", "vin": "WME4533421K155724", "coordinates": [7.63264, 45.06876, 0], "smartPhoneRequired": true, "interior": "GOOD", "exterior": "GOOD", "address": "Corso Monte Cucco, 72, 10141 Torino", "fuel": 43, "engineType": "CE"}, {"name": "007/FF754KW", "vin": "WME4533421K147221", "coordinates": [7.62475, 45.04417, 0], "smartPhoneRequired": true, "interior": "GOOD", "exterior": "GOOD", "address": "Via Edoardo Rubino, 2, 10137 Torino", "fuel": 100, "engineType": "CE"}, {"name": "005/FF748KW", "vin": "WME4533421K146634", "coordinates": [7.64216, 45.0502, 0], "smartPhoneRequired": true, "interior": "GOOD", "exterior": "GOOD", "address": "Via Monfalcone, 73, 10136 Torino", "fuel": 87, "engineType": "CE"}, {"name": "112/FF107NT", "vin": "WME4533421K144642", "coordinates": [7.60718, 45.07133, 0], "smartPhoneRequired": true, "interior": "GOOD", "exterior": "GOOD", "address": "Via Vandalino, 140, 10142 Torino", "fuel": 28, "engineType": "CE"}, {"name": "168/FF193NT", "vin": "WME4533421K153534", "coordinates": [7.65403, 45.05545, 0], "smartPhoneRequired": true, "interior": "GOOD", "exterior": "GOOD", "address": "Via Enrico Martini Mauri, 1976, 10129 Torino", "fuel": 100, "engineType": "CE"}, {"name": "196/FF350NT", "vin": "WME4533421K153288", "coordinates": [7.66198, 45.02356, 0], "smartPhoneRequired": true, "interior": "GOOD", "exterior": "GOOD", "address": "Via Canelli, 53, 10127 Torino", "fuel": 81, "engineType": "CE"}, {"name": "111/FF105NT", "vin": "WME4533421K150725", "coordinates": [7.6489, 45.08141, 0], "smartPhoneRequired": true, "interior": "GOOD", "exterior": "GOOD", "address": "Via Saluggia, 24, 10143 Torino", "fuel": 100, "engineType": "CE"}, {"name": "040/FF812KW", "vin": "WME4533421K150075", "coordinates": [7.65923, 45.06253, 0], "smartPhoneRequired": true, "interior": "GOOD", "exterior": "GOOD", "address": "Corso Castelfidardo, 10129 Torino", "fuel": 62, "engineType": "CE"}, {"name": "308/FA791NC", "vin": "WME4513341K740196", "coordinates": [7.66114, 45.05125, 0], "smartPhoneRequired": false, "interior": "GOOD", "exterior": "GOOD", "address": "Corso Galileo Ferraris, 151, 10128 Torino", "fuel": 39, "engineType": "CE"}, {"name": "086/FF052NT", "vin": "WME4533421K150171", "coordinates": [7.65851, 45.03642, 0], "smartPhoneRequired": true, "interior": "GOOD", "exterior": "GOOD", "address": "Via Giordano Bruno, 142, 10134 Torino", "fuel": 78, "engineType": "CE"}, {"name": "304/FA171ND", "vin": "WME4513341K741897", "coordinates": [7.64191, 45.07399, 0], "smartPhoneRequired": false, "interior": "GOOD", "exterior": "GOOD", "address": "Corso Trapani, 16, 10139 Torino", "fuel": 27, "engineType": "CE"}, {"name": "027/FF786KW", "vin": "WME4533421K149376", "coordinates": [7.64468, 45.11115, 0], "smartPhoneRequired": true, "interior": "GOOD", "exterior": "GOOD", "address": "Strada Comunale di Altessano, 131, 10151 Torino", "fuel": 81, "engineType": "CE"}, {"name": "075/FF041NT", "vin": "WME4533421K149444", "coordinates": [7.68604, 45.09932, 0], "smartPhoneRequired": true, "interior": "GOOD", "exterior": "GOOD", "address": "Via Fossata, Torino", "fuel": 87, "engineType": "CE"}, {"name": "147/FF172NT", "vin": "WME4533421K150637", "coordinates": [7.62272, 45.02237, 0], "smartPhoneRequired": true, "interior": "GOOD", "exterior": "GOOD", "address": "Via Buriasco, 6, 10135 Torino", "fuel": 90, "engineType": "CE"}, {"name": "032/FF793KW", "vin": "WME4533421K149873", "coordinates": [7.6435, 45.18843, 0], "smartPhoneRequired": true, "interior": "GOOD", "exterior": "GOOD", "address": "Aeroporto Caselle 2", "fuel": 31, "engineType": "CE"}, {"name": "017/FF775KW", "vin": "WME4533421K148758", "coordinates": [7.6435, 45.18843, 0], "smartPhoneRequired": true, "interior": "GOOD", "exterior": "GOOD", "address": "Aeroporto Caselle 2", "fuel": 25, "engineType": "CE"}, {"name": "003/FF746KW", "vin": "WME4533421K146007", "coordinates": [7.68577, 45.09939, 0], "smartPhoneRequired": true, "interior": "GOOD", "exterior": "GOOD", "address": "Via Fossata, Torino", "fuel": 75, "engineType": "CE"}, {"name": "029/FF790KW", "vin": "WME4533421K150272", "coordinates": [7.66526, 45.10534, 0], "smartPhoneRequired": true, "interior": "GOOD", "exterior": "GOOD", "address": "Corso Grosseto, 240, 10148 Torino", "fuel": 53, "engineType": "CE"}, {"name": "018/FF776KW", "vin": "WME4533421K148762", "coordinates": [7.68565, 45.05753, 0], "smartPhoneRequired": true, "interior": "GOOD", "exterior": "GOOD", "address": "Via Claudio Luigi Berthollet, 45, 10125 Torino", "fuel": 84, "engineType": "CE"}, {"name": "183/EZ526NP", "vin": "WME4513341K745196", "coordinates": [7.6909, 45.08031, 0], "smartPhoneRequired": false, "interior": "GOOD", "exterior": "GOOD", "address": "Via Bologna, 20, 10152 Torino", "fuel": 51, "engineType": "CE"}, {"name": "281/FF200SJ", "vin": "WME4533421K152424", "coordinates": [7.69176, 45.08905, 0], "smartPhoneRequired": true, "interior": "GOOD", "exterior": "GOOD", "address": "Corso Giulio Cesare, 76A, 10154 Torino", "fuel": 46, "engineType": "CE"}, {"name": "191/FF345NT", "vin": "WME4533421K152381", "coordinates": [7.65911, 45.06249, 0], "smartPhoneRequired": true, "interior": "GOOD", "exterior": "GOOD", "address": "Corso Castelfidardo, 10129 Torino", "fuel": 34, "engineType": "CE"}, {"name": "274/FF185SJ", "vin": "WME4533421K151971", "coordinates": [7.61213, 45.02012, 0], "smartPhoneRequired": true, "interior": "GOOD", "exterior": "GOOD", "address": "Via Celeste Negarville, 9-15, 10135 Torino", "fuel": 81, "engineType": "CE"}, {"name": "206/FF043SJ", "vin": "WME4533421K150349", "coordinates": [7.64147, 45.04982, 0], "smartPhoneRequired": true, "interior": "GOOD", "exterior": "GOOD", "address": "Via Mombasiglio, 68, 10136 Torino", "fuel": 34, "engineType": "CE"}, {"name": "014/FF764KW", "vin": "WME4533421K148658", "coordinates": [7.67073, 45.0704, 0], "smartPhoneRequired": true, "interior": "GOOD", "exterior": "GOOD", "address": "Via Raimondo Montecuccoli, 12, 10121 Torino", "fuel": 71, "engineType": "CE"}, {"name": "175/EZ503NP", "vin": "WME4513341K747063", "coordinates": [7.63637, 45.04692, 0], "smartPhoneRequired": false, "interior": "GOOD", "exterior": "GOOD", "address": "Via Lima, 7-9, 10137 Torino", "fuel": 42, "engineType": "CE"}, {"name": "149/FF174NT", "vin": "WME4533421K151947", "coordinates": [7.70868, 45.06247, 0], "smartPhoneRequired": true, "interior": "GOOD", "exterior": "GOOD", "address": "Via Maria Bricca, 40, 10131 Torino", "fuel": 40, "engineType": "CE"}, {"name": "311/FA234ND", "vin": "WME4513341K739219", "coordinates": [7.63463, 45.0694, 0], "smartPhoneRequired": false, "interior": "GOOD", "exterior": "GOOD", "address": "Via Cardinale Maurilio Fossati, 5, 10141 Torino", "fuel": 57, "engineType": "CE"}, {"name": "058/FF868KW", "vin": "WME4533421K140472", "coordinates": [7.70721, 45.09889, 0], "smartPhoneRequired": true, "interior": "GOOD", "exterior": "GOOD", "address": "Via Giuseppe Tartini, 52-62, 10154 Torino", "fuel": 96, "engineType": "CE"}, {"name": "194/EZ573NP", "vin": "WME4513341K751242", "coordinates": [7.67816, 45.03024, 0], "smartPhoneRequired": false, "interior": "GOOD", "exterior": "GOOD", "address": "Corso Moncalieri, 322-328, 10133 Torino", "fuel": 100, "engineType": "CE"}, {"name": "181/EZ519NP", "vin": "WME4513341K745642", "coordinates": [7.672, 45.0741, 0], "smartPhoneRequired": false, "interior": "GOOD", "exterior": "GOOD", "address": "Via Filippo Juvarra, 12-14, 10122 Torino", "fuel": 57, "engineType": "CE"}, {"name": "142/FF167NT", "vin": "WME4533421K151764", "coordinates": [7.61984, 45.01867, 0], "smartPhoneRequired": true, "interior": "GOOD", "exterior": "GOOD", "address": "Via Plava, 68, 10135 Torino", "fuel": 93, "engineType": "CE"}, {"name": "009/FF757KW", "vin": "WME4533421K148276", "coordinates": [7.6169, 45.01969, 0], "smartPhoneRequired": true, "interior": "GOOD", "exterior": "GOOD", "address": "Via Plava, 105, 10135 Torino", "fuel": 100, "engineType": "CE"}, {"name": "139/FF164NT", "vin": "WME4533421K149842", "coordinates": [7.66701, 45.02157, 0], "smartPhoneRequired": true, "interior": "GOOD", "exterior": "GOOD", "address": "Via Ventimiglia, 165-195, 10127 Torino", "fuel": 68, "engineType": "CE"}, {"name": "270/FF176SJ", "vin": "WME4533421K151595", "coordinates": [7.69993, 45.07157, 0], "smartPhoneRequired": true, "interior": "GOOD", "exterior": "GOOD", "address": "Corso Regina Margherita, 48, 10153 Torino", "fuel": 31, "engineType": "CE"}, {"name": "036/FF797KW", "vin": "WME4533421K149263", "coordinates": [7.65217, 45.02321, 0], "smartPhoneRequired": true, "interior": "GOOD", "exterior": "GOOD", "address": "Via Carolina Invernizio, 6, 10127 Torino", "fuel": 40, "engineType": "CE"}, {"name": "023/FF781KW", "vin": "WME4533421K148904", "coordinates": [7.70742, 45.09261, 0], "smartPhoneRequired": true, "interior": "GOOD", "exterior": "GOOD", "address": "Via Luigi Pietracqua, 34a, 10154 Torino", "fuel": 100, "engineType": "CE"}, {"name": "315/FA175ND", "vin": "WME4513341K741913", "coordinates": [7.65112, 45.10216, 0], "smartPhoneRequired": false, "interior": "GOOD", "exterior": "GOOD", "address": "Via Bernardino Luini, 195, 10151 Torino", "fuel": 100, "engineType": "CE"}, {"name": "170/EZ490NP", "vin": "WME4513341K747372", "coordinates": [7.67645, 45.05535, 0], "smartPhoneRequired": false, "interior": "GOOD", "exterior": "GOOD", "address": "Via Federico Campana, 2, 10125 Torino", "fuel": 100, "engineType": "CE"}, {"name": "028/FF789KW", "vin": "WME4533421K150033", "coordinates": [7.67787, 45.0294, 0], "smartPhoneRequired": true, "interior": "GOOD", "exterior": "GOOD", "address": "Corso Moncalieri, 335, 10133 Torino", "fuel": 100, "engineType": "CE"}, {"name": "314/FA253ND", "vin": "WME4513341K739729", "coordinates": [7.644, 45.08263, 0], "smartPhoneRequired": false, "interior": "GOOD", "exterior": "GOOD", "address": "Via Zumaglia, 77, 10145 Torino", "fuel": 100, "engineType": "CE"}, {"name": "119/FF124NT", "vin": "WME4533421K151979", "coordinates": [7.68925, 45.09522, 0], "smartPhoneRequired": true, "interior": "GOOD", "exterior": "GOOD", "address": "Via Verr\u00e8s, 32-38, 10155 Torino", "fuel": 100, "engineType": "CE"}, {"name": "062/FF028NT", "vin": "WME4533421K140605", "coordinates": [7.63941, 45.04731, 0], "smartPhoneRequired": true, "interior": "GOOD", "exterior": "GOOD", "address": "Corso Sebastopoli, 234, 10136 Torino", "fuel": 18, "engineType": "CE"}, {"name": "001/FF732KW", "vin": "WME4533421K142466", "coordinates": [7.70583, 45.09752, 0], "smartPhoneRequired": true, "interior": "GOOD", "exterior": "GOOD", "address": "Via Giuseppe Tartini, 43, 10154 Torino", "fuel": 100, "engineType": "CE"}, {"name": "057/FF852KW", "vin": "WME4533421K142068", "coordinates": [7.64096, 45.10145, 0], "smartPhoneRequired": true, "interior": "GOOD", "exterior": "GOOD", "address": "Corso Toscana, 185, 10151 Torino", "fuel": 62, "engineType": "CE"}, {"name": "090/FF056NT", "vin": "WME4533421K150233", "coordinates": [7.66893, 45.06453, 0], "smartPhoneRequired": true, "interior": "GOOD", "exterior": "GOOD", "address": "Via Vincenzo Vela, 17, 10128 Torino", "fuel": 46, "engineType": "CE"}, {"name": "199/EZ565NP", "vin": "WME4513341K750648", "coordinates": [7.71769, 45.09508, 0], "smartPhoneRequired": false, "interior": "GOOD", "exterior": "GOOD", "address": "Piazza Sofia, 28, 10154 Torino", "fuel": 39, "engineType": "CE"}, {"name": "172/FF197NT", "vin": "WME4533421K151245", "coordinates": [7.61069, 45.01808, 0], "smartPhoneRequired": true, "interior": "GOOD", "exterior": "GOOD", "address": "Via Celeste Negarville, 31-37, 10135 Torino", "fuel": 100, "engineType": "CE"}, {"name": "313/FA230ND", "vin": "WME4513341K738712", "coordinates": [7.62694, 45.0389, 0], "smartPhoneRequired": false, "interior": "GOOD", "exterior": "GOOD", "address": "Via Paolo Gaidano, 17-41, 10137 Torino", "fuel": 100, "engineType": "CE"}, {"name": "261/FF152SJ", "vin": "WME4533421K150672", "coordinates": [7.64634, 45.0527, 0], "smartPhoneRequired": true, "interior": "GOOD", "exterior": "GOOD", "address": "Via Ricaldone, 4, 10136 Torino", "fuel": 50, "engineType": "CE"}, {"name": "194/FF348NT", "vin": "WME4533421K152673", "coordinates": [7.71914, 45.06731, 0], "smartPhoneRequired": true, "interior": "GOOD", "exterior": "GOOD", "address": "Strada Comunale del Lauro, 2, 10132 Torino", "fuel": 28, "engineType": "CE"}, {"name": "050/FF837KW", "vin": "WME4533421K147673", "coordinates": [7.66868, 45.05453, 0], "smartPhoneRequired": true, "interior": "GOOD", "exterior": "GOOD", "address": "Via Antonio Genovesi, 11, 10128 Torino", "fuel": 59, "engineType": "CE"}, {"name": "004/FF747KW", "vin": "WME4533421K146488", "coordinates": [7.63146, 45.04004, 0], "smartPhoneRequired": true, "interior": "GOOD", "exterior": "GOOD", "address": "Via Castelgomberto, 160-172, 10137 Torino", "fuel": 43, "engineType": "CE"}, {"name": "189/EZ592NP", "vin": "WME4513341K747642", "coordinates": [7.61154, 45.01625, 0], "smartPhoneRequired": false, "interior": "GOOD", "exterior": "GOOD", "address": "Str. del Drosso, 135-139, 10135 Torino", "fuel": 100, "engineType": "CE"}, {"name": "258/FF147SJ", "vin": "WME4533421K150565", "coordinates": [7.66644, 45.10532, 0], "smartPhoneRequired": true, "interior": "GOOD", "exterior": "GOOD", "address": "Corso Grosseto, 222-224, 10148 Torino", "fuel": 53, "engineType": "CE"}, {"name": "186/EZ588NP", "vin": "WME4513341K747801", "coordinates": [7.66469, 45.01722, 0], "smartPhoneRequired": false, "interior": "GOOD", "exterior": "GOOD", "address": "Via Corrado Corradino, 15, 10127 Torino", "fuel": 33, "engineType": "CE"}, {"name": "293/FF231SJ", "vin": "WME4533421K150432", "coordinates": [7.69632, 45.10113, 0], "smartPhoneRequired": true, "interior": "GOOD", "exterior": "GOOD", "address": "Via Nicola Porpora, 17, 10155 Torino", "fuel": 78, "engineType": "CE"}, {"name": "195/EZ569NP", "vin": "WME4513341K751040", "coordinates": [7.64695, 45.05289, 0], "smartPhoneRequired": false, "interior": "GOOD", "exterior": "GOOD", "address": "Via Tirreno, 161A, 10136 Torino", "fuel": 100, "engineType": "CE"}, {"name": "166/EZ485NP", "vin": "WME4513341K738757", "coordinates": [7.65847, 45.08982, 0], "smartPhoneRequired": false, "interior": "GOOD", "exterior": "GOOD", "address": "Via Pessinetto, 14-22, 10149 Torino", "fuel": 66, "engineType": "CE"}, {"name": "157/EZ446NP", "vin": "WME4513341K741901", "coordinates": [7.64292, 45.10099, 0], "smartPhoneRequired": false, "interior": "GOOD", "exterior": "GOOD", "address": "Corso Toscana, 161, 10151 Torino", "fuel": 100, "engineType": "CE"}, {"name": "164/EZ483NP", "vin": "WME4513341K741436", "coordinates": [7.62812, 45.05074, 0], "smartPhoneRequired": false, "interior": "GOOD", "exterior": "GOOD", "address": "Corso Canonico Giuseppe Allamano, 2-24, 10136 Torino", "fuel": 45, "engineType": "CE"}, {"name": "193/FF347NT", "vin": "WME4533421K152643", "coordinates": [7.65225, 45.03398, 0], "smartPhoneRequired": true, "interior": "GOOD", "exterior": "GOOD", "address": "Via Rosario di Santa F\u00e8 32, 5, 10134 Torino", "fuel": 68, "engineType": "CE"}, {"name": "155/EZ474NP", "vin": "WME4513341K738724", "coordinates": [7.67896, 45.05491, 0], "smartPhoneRequired": false, "interior": "GOOD", "exterior": "GOOD", "address": "Via Federico Campana, 11-15, 10125 Torino", "fuel": 100, "engineType": "CE"}, {"name": "191/EZ554NP", "vin": "WME4513341K751504", "coordinates": [7.64128, 45.05644, 0], "smartPhoneRequired": false, "interior": "GOOD", "exterior": "GOOD", "address": "Corso Carlo e Nello Rosselli, 1691, 10141 Torino", "fuel": 100, "engineType": "CE"}, {"name": "085/FF051NT", "vin": "WME4533421K150081", "coordinates": [7.70094, 45.08504, 0], "smartPhoneRequired": true, "interior": "GOOD", "exterior": "GOOD", "address": "Via Bologna, 101, 10154 Torino", "fuel": 93, "engineType": "CE"}, {"name": "080/FF046NT", "vin": "WME4533421K149658", "coordinates": [7.6318, 45.06671, 0], "smartPhoneRequired": true, "interior": "GOOD", "exterior": "GOOD", "address": "Corso Monte Cucco, 86, 10141 Torino", "fuel": 50, "engineType": "CE"}, {"name": "019/FF777KW", "vin": "WME4533421K148794", "coordinates": [7.72256, 45.07288, 0], "smartPhoneRequired": true, "interior": "GOOD", "exterior": "GOOD", "address": "Via Pallanza, 22, 10153 Torino", "fuel": 65, "engineType": "CE"}, {"name": "307/FA237ND", "vin": "WME4513341K739555", "coordinates": [7.65493, 45.09195, 0], "smartPhoneRequired": false, "interior": "GOOD", "exterior": "GOOD", "address": "Corso Potenza, 48A, 10149 Torino", "fuel": 54, "engineType": "CE"}, {"name": "172/EZ492NP", "vin": "WME4513341K747142", "coordinates": [7.64307, 45.02597, 0], "smartPhoneRequired": false, "interior": "GOOD", "exterior": "GOOD", "address": "Via Severino Casana, 36-40, 10135 Torino", "fuel": 24, "engineType": "CE"}, {"name": "190/EZ415NP", "vin": "WME4513341K746345", "coordinates": [7.64041, 45.02911, 0], "smartPhoneRequired": false, "interior": "GOOD", "exterior": "GOOD", "address": "Via Felice Rignon, 12, 10135 Torino", "fuel": 100, "engineType": "CE"}, {"name": "016/FF774KW", "vin": "WME4533421K148718", "coordinates": [7.63908, 45.04922, 0], "smartPhoneRequired": true, "interior": "GOOD", "exterior": "GOOD", "address": "Via Barletta, 99, 10136 Torino", "fuel": 21, "engineType": "CE"}, {"name": "144/FF169NT", "vin": "WME4533421K151848", "coordinates": [7.63711, 45.08356, 0], "smartPhoneRequired": true, "interior": "GOOD", "exterior": "GOOD", "address": "Via Giovanni Servais, 16-28, 10146 Torino", "fuel": 100, "engineType": "CE"}, {"name": "110/FF101NT", "vin": "WME4533421K150614", "coordinates": [7.6435, 45.18843, 0], "smartPhoneRequired": true, "interior": "GOOD", "exterior": "GOOD", "address": "Aeroporto Caselle 2", "fuel": 37, "engineType": "CE"}, {"name": "179/EZ533NP", "vin": "WME4513341K746469", "coordinates": [7.64233, 45.07456, 0], "smartPhoneRequired": false, "interior": "GOOD", "exterior": "GOOD", "address": "Corso Trapani, 12, 10139 Torino", "fuel": 27, "engineType": "CE"}, {"name": "146/FF171NT", "vin": "WME4533421K151903", "coordinates": [7.66842, 45.0264, 0], "smartPhoneRequired": true, "interior": "GOOD", "exterior": "GOOD", "address": "Corso Caduti sul Lavoro, 11a, 10126 Torino", "fuel": 62, "engineType": "CE"}, {"name": "259/FF148SJ", "vin": "WME4533421K150592", "coordinates": [7.67489, 45.10422, 0], "smartPhoneRequired": true, "interior": "GOOD", "exterior": "GOOD", "address": "Via Campiglia, 66F, 10147 Torino", "fuel": 81, "engineType": "CE"}, {"name": "093/FF059NT", "vin": "WME4533421K150282", "coordinates": [7.66411, 45.06865, 0], "smartPhoneRequired": true, "interior": "GOOD", "exterior": "GOOD", "address": "Corso Bolzano, 38, 10121 Torino", "fuel": 71, "engineType": "CE"}, {"name": "316/FA792NC", "vin": "WME4513341K738959", "coordinates": [7.67003, 45.06974, 0], "smartPhoneRequired": false, "interior": "GOOD", "exterior": "GOOD", "address": "Via Vitaliano Donati, 20-22, 10121 Torino", "fuel": 39, "engineType": "CE"}, {"name": "187/EZ589NP", "vin": "WME4513341K747783", "coordinates": [7.6696, 45.05334, 0], "smartPhoneRequired": false, "interior": "GOOD", "exterior": "GOOD", "address": "Corso Filippo Turati, 6040, 10128 Torino", "fuel": 100, "engineType": "CE"}, {"name": "046/FF822KW", "vin": "WME4533421K149031", "coordinates": [7.65566, 45.03414, 0], "smartPhoneRequired": true, "interior": "GOOD", "exterior": "GOOD", "address": "Via Taggia, 36e, 10134 Torino", "fuel": 46, "engineType": "CE"}, {"name": "310/FA174ND", "vin": "WME4513341K737870", "coordinates": [7.6587, 45.06229, 0], "smartPhoneRequired": false, "interior": "GOOD", "exterior": "GOOD", "address": "Corso Castelfidardo, 42, 10138 Torino", "fuel": 48, "engineType": "CE"}, {"name": "169/EZ488NP", "vin": "WME4513341K737912", "coordinates": [7.65887, 45.06258, 0], "smartPhoneRequired": false, "interior": "GOOD", "exterior": "GOOD", "address": "Corso Castelfidardo, 42, 10138 Torino", "fuel": 36, "engineType": "CE"}, {"name": "167/EZ486NP", "vin": "WME4513341K741481", "coordinates": [7.63018, 45.07826, 0], "smartPhoneRequired": false, "interior": "GOOD", "exterior": "GOOD", "address": "Str. del Lionetto, 25, 10146 Torino", "fuel": 90, "engineType": "CE"}, {"name": "280/FF198SJ", "vin": "WME4533421K152398", "coordinates": [7.65989, 45.05876, 0], "smartPhoneRequired": true, "interior": "GOOD", "exterior": "GOOD", "address": "Corso Duca degli Abruzzi, 48E, 10129 Torino", "fuel": 84, "engineType": "CE"}, {"name": "262/FF153SJ", "vin": "WME4533421K150694", "coordinates": [7.67953, 45.08377, 0], "smartPhoneRequired": true, "interior": "GOOD", "exterior": "GOOD", "address": "Via Francesco Cigna, 41, 10152 Torino", "fuel": 40, "engineType": "CE"}, {"name": "263/FF154SJ", "vin": "WME4533421K150698", "coordinates": [7.65245, 45.06911, 0], "smartPhoneRequired": true, "interior": "GOOD", "exterior": "GOOD", "address": "Via Cavallermaggiore, 25B, 10139 Torino", "fuel": 71, "engineType": "CE"}, {"name": "268/FF168SJ", "vin": "WME4533421K151295", "coordinates": [7.6914, 45.07695, 0], "smartPhoneRequired": true, "interior": "GOOD", "exterior": "GOOD", "address": "Lungo Dora Firenze, 67, 10152 Torino", "fuel": 100, "engineType": "CE"}, {"name": "070/FF036NT", "vin": "WME4533421K149202", "coordinates": [7.62576, 45.07204, 0], "smartPhoneRequired": true, "interior": "GOOD", "exterior": "GOOD", "address": "Via Bardonecchia, 180, 10141 Torino", "fuel": 65, "engineType": "CE"}, {"name": "296/FF242SJ", "vin": "WME4533421K154256", "coordinates": [7.69566, 45.07009, 0], "smartPhoneRequired": true, "interior": "GOOD", "exterior": "GOOD", "address": "Via degli Artisti, 7, 10124 Torino", "fuel": 56, "engineType": "CE"}, {"name": "135/FF152NT", "vin": "WME4533421K153693", "coordinates": [7.66819, 45.05301, 0], "smartPhoneRequired": true, "interior": "GOOD", "exterior": "GOOD", "address": "Via S. Secondo, 93, 10128 Torino", "fuel": 65, "engineType": "CE"}, {"name": "077/FF043NT", "vin": "WME4533421K141233", "coordinates": [7.64982, 45.08429, 0], "smartPhoneRequired": true, "interior": "GOOD", "exterior": "GOOD", "address": "Corso Lecce, 112, 10143 Torino", "fuel": 43, "engineType": "CE"}, {"name": "022/FF780KW", "vin": "WME4533421K148849", "coordinates": [7.67913, 45.0324, 0], "smartPhoneRequired": true, "interior": "GOOD", "exterior": "GOOD", "address": "Corso Moncalieri, 310, 10133 Torino", "fuel": 100, "engineType": "CE"}, {"name": "168/EZ487NP", "vin": "WME4513341K742231", "coordinates": [7.68276, 45.07968, 0], "smartPhoneRequired": false, "interior": "GOOD", "exterior": "GOOD", "address": "Vicolo Canale dei Molassi, 10152 Torino", "fuel": 57, "engineType": "CE"}, {"name": "292/FF227SJ", "vin": "WME4533421K152955", "coordinates": [7.72465, 45.0751, 0], "smartPhoneRequired": true, "interior": "GOOD", "exterior": "GOOD", "address": "Via Asigliano Vercellese, 2d, 10153 Torino", "fuel": 90, "engineType": "CE"}, {"name": "204/FF367NT", "vin": "WME4533421K151709", "coordinates": [7.66909, 45.06258, 0], "smartPhoneRequired": true, "interior": "GOOD", "exterior": "GOOD", "address": "Via Rodolfo Montevecchio, 32, 10128 Torino", "fuel": 21, "engineType": "CE"}, {"name": "156/EZ473NP", "vin": "WME4513341K741555", "coordinates": [7.68318, 45.08484, 0], "smartPhoneRequired": false, "interior": "GOOD", "exterior": "GOOD", "address": "Via Antonio Cecchi, 3, 10152 Torino", "fuel": 45, "engineType": "CE"}, {"name": "185/EZ590NP", "vin": "WME4513341K748024", "coordinates": [7.64708, 45.02022, 0], "smartPhoneRequired": false, "interior": "GOOD", "exterior": "GOOD", "address": "Via Piacenza, 23-27, 10127 Torino", "fuel": 60, "engineType": "CE"}, {"name": "287/FF213SJ", "vin": "WME4533421K152593", "coordinates": [7.65663, 45.04169, 0], "smartPhoneRequired": true, "interior": "GOOD", "exterior": "GOOD", "address": "Corso Unione Sovietica, 145, 10134 Torino", "fuel": 25, "engineType": "CE"}, {"name": "200/FF354NT", "vin": "WME4533421K154683", "coordinates": [7.68445, 45.08671, 0], "smartPhoneRequired": true, "interior": "GOOD", "exterior": "GOOD", "address": "Via Generale Luigi Damiano, 7, 10152 Torino", "fuel": 21, "engineType": "CE"}, {"name": "073/FF039NT", "vin": "WME4533421K149267", "coordinates": [7.66623, 45.08519, 0], "smartPhoneRequired": true, "interior": "GOOD", "exterior": "GOOD", "address": "Via Pianfei, 8, 10144 Torino", "fuel": 100, "engineType": "CE"}, {"name": "260/FF151SJ", "vin": "WME4533421K150664", "coordinates": [7.71592, 45.06753, 0], "smartPhoneRequired": true, "interior": "GOOD", "exterior": "GOOD", "address": "Via Gassino, 14d, 10132 Torino", "fuel": 81, "engineType": "CE"}, {"name": "223/FF075SJ", "vin": "WME4533421K151965", "coordinates": [7.6308, 45.04046, 0], "smartPhoneRequired": true, "interior": "GOOD", "exterior": "GOOD", "address": "Via Monte Novegno, 24b, 10137 Torino", "fuel": 100, "engineType": "CE"}, {"name": "002/FF741KW", "vin": "WME4533421K140145", "coordinates": [7.72216, 45.07361, 0], "smartPhoneRequired": true, "interior": "GOOD", "exterior": "GOOD", "address": "Via Pallanza, 24, 10153 Torino", "fuel": 18, "engineType": "CE"}, {"name": "067/FF033NT", "vin": "WME4533421K141153", "coordinates": [7.61192, 45.01938, 0], "smartPhoneRequired": true, "interior": "GOOD", "exterior": "GOOD", "address": "Via Gioacchino Quarello, 43, 10135 Torino", "fuel": 59, "engineType": "CE"}, {"name": "088/FF054NT", "vin": "WME4533421K150213", "coordinates": [7.65871, 45.08993, 0], "smartPhoneRequired": true, "interior": "GOOD", "exterior": "GOOD", "address": "Via Pessinetto, 14/A, 10149 Torino", "fuel": 100, "engineType": "CE"}, {"name": "224/FF078SJ", "vin": "WME4533421K152091", "coordinates": [7.70269, 45.10491, 0], "smartPhoneRequired": true, "interior": "GOOD", "exterior": "GOOD", "address": "Via Bernardino Ramazzini, 10, 10154 Torino", "fuel": 84, "engineType": "CE"}, {"name": "162/EZ481NP", "vin": "WME4513341K737801", "coordinates": [7.62183, 45.03688, 0], "smartPhoneRequired": false, "interior": "GOOD", "exterior": "GOOD", "address": "Via Sebastiano Taricco, 7, 10137 Torino", "fuel": 36, "engineType": "CE"}, {"name": "214/FF054SJ", "vin": "WME4533421K144327", "coordinates": [7.63627, 45.01415, 0], "smartPhoneRequired": true, "interior": "GOOD", "exterior": "GOOD", "address": "Via Giovanni Bovetti, 10, 10135 Torino", "fuel": 68, "engineType": "CE"}, {"name": "183/FF337NT", "vin": "WME4533421K151716", "coordinates": [7.66802, 45.02376, 0], "smartPhoneRequired": true, "interior": "GOOD", "exterior": "GOOD", "address": "Via Ventimiglia, 147-159, 10127 Torino", "fuel": 100, "engineType": "CE"}, {"name": "010/FF758KW", "vin": "WME4533421K148282", "coordinates": [7.7097, 45.09638, 0], "smartPhoneRequired": true, "interior": "GOOD", "exterior": "GOOD", "address": "Via Arcangelo Corelli, 41, 10154 Torino", "fuel": 31, "engineType": "CE"}, {"name": "309/FF284SJ", "vin": "WME4533421K151618", "coordinates": [7.65921, 45.05774, 0], "smartPhoneRequired": true, "interior": "GOOD", "exterior": "GOOD", "address": "Corso Duca degli Abruzzi, 58, 10129 Torino", "fuel": 28, "engineType": "CE"}, {"name": "198/EZ568NP", "vin": "WME4513341K750847", "coordinates": [7.63958, 45.07014, 0], "smartPhoneRequired": false, "interior": "GOOD", "exterior": "GOOD", "address": "Corso Trapani, 69, 10139 Torino", "fuel": 57, "engineType": "CE"}, {"name": "197/EZ564NP", "vin": "WME4513341K750929", "coordinates": [7.65027, 45.0831, 0], "smartPhoneRequired": false, "interior": "GOOD", "exterior": "GOOD", "address": "Via Michele Lessona, 4, 10143 Torino", "fuel": 48, "engineType": "CE"}, {"name": "041/FF813KW", "vin": "WME4533421K149985", "coordinates": [7.6707, 45.06798, 0], "smartPhoneRequired": true, "interior": "GOOD", "exterior": "GOOD", "address": "Via Amedeo Avogadro, 12-16, 10121 Torino", "fuel": 40, "engineType": "CE"}, {"name": "243/FF118SJ", "vin": "WME4533421K152946", "coordinates": [7.64258, 45.05616, 0], "smartPhoneRequired": true, "interior": "GOOD", "exterior": "GOOD", "address": "Corso Carlo e Nello Rosselli, 165-175, 10141 Torino", "fuel": 100, "engineType": "CE"}, {"name": "069/FF035NT", "vin": "WME4533421K148961", "coordinates": [7.66756, 45.02398, 0], "smartPhoneRequired": true, "interior": "GOOD", "exterior": "GOOD", "address": "Via Caramagna, 32, 10127 Torino", "fuel": 78, "engineType": "CE"}, {"name": "199/FF353NT", "vin": "WME4533421K154648", "coordinates": [7.61687, 45.01979, 0], "smartPhoneRequired": true, "interior": "GOOD", "exterior": "GOOD", "address": "Via Plava, 74, 10135 Torino", "fuel": 34, "engineType": "CE"}, {"name": "185/FF339NT", "vin": "WME4533421K151955", "coordinates": [7.67809, 45.07557, 0], "smartPhoneRequired": true, "interior": "GOOD", "exterior": "GOOD", "address": "Via San Domenico, 22, 10122 Torino", "fuel": 56, "engineType": "CE"}, {"name": "171/EZ491NP", "vin": "WME4513341K747316", "coordinates": [7.66614, 45.08467, 0], "smartPhoneRequired": false, "interior": "GOOD", "exterior": "GOOD", "address": "Via Capua, 18, 10144 Torino", "fuel": 100, "engineType": "CE"}, {"name": "153/EZ507NP", "vin": "WME4513341K738032", "coordinates": [7.66155, 45.05444, 0], "smartPhoneRequired": false, "interior": "GOOD", "exterior": "GOOD", "address": "Via Gian Domenico Cassini, 53, 10129 Torino", "fuel": 78, "engineType": "CE"}, {"name": "310/FF285SJ", "vin": "WME4533421K151633", "coordinates": [7.64809, 45.11008, 0], "smartPhoneRequired": true, "interior": "GOOD", "exterior": "GOOD", "address": "Via Andrea Sansovino, 243/65, 10151 Torino", "fuel": 21, "engineType": "CE"}, {"name": "184/EZ591NP", "vin": "WME4513341K748662", "coordinates": [7.67088, 45.09218, 0], "smartPhoneRequired": false, "interior": "GOOD", "exterior": "GOOD", "address": "Via Orvieto, 18A, 10149 Torino", "fuel": 78, "engineType": "CE"}, {"name": "203/FF366NT", "vin": "WME4533421K151679", "coordinates": [7.65637, 45.09331, 0], "smartPhoneRequired": true, "interior": "GOOD", "exterior": "GOOD", "address": "Tunnel Carlo Donat Cattin, 10149 Torino", "fuel": 50, "engineType": "CE"}, {"name": "100/FF082NT", "vin": "WME4533421K146516", "coordinates": [7.6692, 45.06598, 0], "smartPhoneRequired": true, "interior": "GOOD", "exterior": "GOOD", "address": "Via Manfredo Fanti, 5, 10128 Torino", "fuel": 21, "engineType": "CE"}]}